{
    "metadata": {
        "number_of_stores": 8,
        "company": "iga",
        "state": "NT",
        "date_scraped": "2025-08-07"
    },
    "stores": [
        {
            "storeId": "17656",
            "retailerStoreId": "",
            "storeName": "Darwin City IGA X-press",
            "address": "134 Smith Street",
            "suburb": "Darwin",
            "state": "NT",
            "postcode": "0800",
            "phone": "(08) 8981 9206",
            "fax": "",
            "hours": "8AM - 9PM\r\n8AM - 9PM\r\n8AM - 9PM\r\n8AM - 9PM\r\n8AM - 9PM\r\n8AM - 9PM\r\n8AM - 9PM",
            "hoursDay": "Monday\r\nTuesday\r\nWednesday\r\nThursday\r\nFriday\r\nSaturday\r\nSunday",
            "regionId": "0",
            "latitude": "-12.456404000000000",
            "longitude": "130.835517000000000",
            "tag": "",
            "locationNumber": "0",
            "saleGroupId": "0",
            "christmasHours": "",
            "christmasHoursDay": "Please contact the store for Easter opening hours.",
            "updateTimeStamp": "2025-04-10 13:33:09",
            "postcodeId": "37",
            "storeUrl": "",
            "updated": "0",
            "onlineShopUrl": "",
            "ecommerceUrl": ""
        },
        {
            "storeId": "16689",
            "retailerStoreId": "",
            "storeName": "Zuccoli IGA",
            "address": "Zuccoli Plaza, Zuccoli Parade & Crosby Street",
            "suburb": "Zuccoli",
            "state": "NT",
            "postcode": "0832",
            "phone": "08 8932 1921",
            "fax": "",
            "hours": "6:00 AM - 9:00 PM\r\n6:00 AM - 9:00 PM\r\n6:00 AM - 9:00 PM\r\n6:00 AM - 9:00 PM\r\n6:00 AM - 9:00 PM\r\n6:00 AM - 9:00 PM\r\n7:00 AM - 8:00 PM",
            "hoursDay": "Monday\r\nTuesday\r\nWednesday\r\nThursday\r\nFriday\r\nSaturday\r\nSunday",
            "regionId": null,
            "latitude": "-12.506992000000000",
            "longitude": "131.009169000000000",
            "tag": "135156",
            "locationNumber": "65841460",
            "saleGroupId": "0",
            "christmasHours": "",
            "christmasHoursDay": "Please contact the store for Easter opening hours.",
            "updateTimeStamp": "2025-04-10 13:33:09",
            "postcodeId": "165",
            "storeUrl": "",
            "updated": "0",
            "onlineShopUrl": "http://www.igazuccoli.com.au/?utm_source=igawebsite&utm_medium=tile&utm_campaign=store_locator&utm_content=cta_button",
            "ecommerceUrl": ""
        },
        {
            "storeId": "14518",
            "retailerStoreId": "",
            "storeName": "Eastside Supermarket IGA",
            "address": "10 Lindsay Ave\n",
            "suburb": "Alice Springs",
            "state": "NT",
            "postcode": "0870",
            "phone": "08 8952 1740",
            "fax": "",
            "hours": "7:30 AM - 9:00 PM\r\n7:30 AM - 9:00 PM\r\n7:30 AM - 9:00 PM\r\n7:30 AM - 9:00 PM\r\n7:30 AM - 9:00 PM\r\n7:30 AM - 9:00 PM\r\n7:30 AM - 9:00 PM",
            "hoursDay": "Monday\r\nTuesday\r\nWednesday\r\nThursday\r\nFriday\r\nSaturday\r\nSunday",
            "regionId": "0",
            "latitude": "-23.696016000000000",
            "longitude": "133.890208000000000",
            "tag": "32727",
            "locationNumber": "65083390",
            "saleGroupId": "0",
            "christmasHours": "",
            "christmasHoursDay": "Please contact the store for Easter opening hours.",
            "updateTimeStamp": "2025-04-11 15:06:03",
            "postcodeId": "256",
            "storeUrl": "https://laesupermarkets.com.au/?utm_source=igawebsite&utm_medium=tile&utm_campaign=store_locator&utm_content=cta_button",
            "updated": "0",
            "onlineShopUrl": "",
            "ecommerceUrl": ""
        },
        {
            "storeId": "14522",
            "retailerStoreId": "",
            "storeName": "Northside Supermarket IGA",
            "address": "3 Hearne Place\nBraitling",
            "suburb": "Alice Springs",
            "state": "NT",
            "postcode": "0870",
            "phone": "(08) 8952 2988",
            "fax": "",
            "hours": "7:30 AM - 9:00 PM\r\n7:30 AM - 9:00 PM\r\n7:30 AM - 9:00 PM\r\n7:30 AM - 9:00 PM\r\n7:30 AM - 9:00 PM\r\n7:30 AM - 9:00 PM\r\n7:30 AM - 9:00 PM",
            "hoursDay": "Monday\r\nTuesday\r\nWednesday\r\nThursday\r\nFriday\r\nSaturday\r\nSunday",
            "regionId": "0",
            "latitude": "-23.685324000000000",
            "longitude": "133.873537000000000",
            "tag": "43157",
            "locationNumber": "65083391",
            "saleGroupId": "0",
            "christmasHours": "",
            "christmasHoursDay": "Please contact the store for Easter opening hours.",
            "updateTimeStamp": "2025-04-11 15:06:03",
            "postcodeId": "254",
            "storeUrl": "https://laesupermarkets.com.au/?utm_source=igawebsite&utm_medium=tile&utm_campaign=store_locator&utm_content=cta_button",
            "updated": "0",
            "onlineShopUrl": "https://northsideiga.myfoodlink.com/?utm_source=igawebsite&utm_medium=tile&utm_campaign=store_locator&utm_content=cta_button",
            "ecommerceUrl": ""
        },
        {
            "storeId": "14519",
            "retailerStoreId": "",
            "storeName": "Flynn Drive Supermarket IGA",
            "address": "32 Flynn Drive\n",
            "suburb": "Alice Springs",
            "state": "NT",
            "postcode": "0870",
            "phone": "08 8952 2383",
            "fax": "",
            "hours": "7:30 AM - 9:00 PM\r\n7:30 AM - 9:00 PM\r\n7:30 AM - 9:00 PM\r\n7:30 AM - 9:00 PM\r\n7:30 AM - 9:00 PM\r\n7:30 AM - 9:00 PM\r\n7:30 AM - 9:00 PM",
            "hoursDay": "Monday\r\nTuesday\r\nWednesday\r\nThursday\r\nFriday\r\nSaturday\r\nSunday",
            "regionId": "0",
            "latitude": "-23.710720000000000",
            "longitude": "133.860190000000000",
            "tag": "43153",
            "locationNumber": "65083392",
            "saleGroupId": "0",
            "christmasHours": "",
            "christmasHoursDay": "Please contact the store for Easter opening hours.",
            "updateTimeStamp": "2025-04-11 15:06:03",
            "postcodeId": "257",
            "storeUrl": "https://laesupermarkets.com.au/?utm_source=igawebsite&utm_medium=tile&utm_campaign=store_locator&utm_content=cta_button",
            "updated": "0",
            "onlineShopUrl": "",
            "ecommerceUrl": ""
        },
        {
            "storeId": "15993",
            "retailerStoreId": "",
            "storeName": "IGA Tennant Creek",
            "address": "48 Paterson Street",
            "suburb": "Tennant Creek",
            "state": "NT",
            "postcode": "0860",
            "phone": "08 8962 2296",
            "fax": "",
            "hours": "8:00 AM - 7:00 PM\r\n8:00 AM - 7:00 PM\r\n8:00 AM - 7:00 PM\r\n8:00 AM - 7:00 PM\r\n8:00 AM - 7:00 PM\r\n8:00 AM - 5:00 PM\r\n8:00 AM - 5:00 PM",
            "hoursDay": "Monday\r\nTuesday\r\nWednesday\r\nThursday\r\nFriday\r\nSaturday\r\nSunday",
            "regionId": null,
            "latitude": "-19.648320000000000",
            "longitude": "134.190610000000000",
            "tag": "43161",
            "locationNumber": "65082771",
            "saleGroupId": "0",
            "christmasHours": "",
            "christmasHoursDay": "Please contact the store for Easter opening hours.",
            "updateTimeStamp": "2025-04-11 15:06:03",
            "postcodeId": "241",
            "storeUrl": "",
            "updated": "0",
            "onlineShopUrl": "",
            "ecommerceUrl": ""
        },
        {
            "storeId": "17654",
            "retailerStoreId": "",
            "storeName": "Voyages Ayers Rock Resort IGA",
            "address": "Yulara Shopping Square",
            "suburb": "Yulara",
            "state": "NT",
            "postcode": "0872",
            "phone": "08 8957 7308",
            "fax": "",
            "hours": "09:00AM - 8:00PM\r\n09:00AM - 8:00PM\r\n09:00AM - 8:00PM\r\n09:00AM - 8:00PM\r\n08:00AM - 8:00PM\r\n08:00AM - 8:00PM\r\n08:00AM - 8:00PM",
            "hoursDay": "Monday\r\nTuesday\r\nWednesday\r\nThursday\r\nFriday\r\nSaturday\r\nSunday",
            "regionId": null,
            "latitude": "-25.241421000000000",
            "longitude": "130.983190000000000",
            "tag": "22107",
            "locationNumber": "65083486",
            "saleGroupId": "0",
            "christmasHours": "",
            "christmasHoursDay": "Please contact the store for Easter opening hours.",
            "updateTimeStamp": "2025-04-10 13:33:09",
            "postcodeId": "335",
            "storeUrl": "",
            "updated": "0",
            "onlineShopUrl": "",
            "ecommerceUrl": ""
        },
        {
            "storeId": "17655",
            "retailerStoreId": "",
            "storeName": "IGA Local Grocer Berry Springs",
            "address": "Shop 2, Berry Springs Shopping Centre\r\n10 Doris Road",
            "suburb": "Berry Springs",
            "state": "NT",
            "postcode": "0838",
            "phone": "08 7905 6180",
            "fax": "",
            "hours": "8:00AM - 7:00PM\r\n8:00AM - 7:00PM\r\n8:00AM - 7:00PM\r\n8:00AM - 7:00PM\r\n8:00AM - 7:00PM\r\n8:00AM - 7:00PM\r\n9:00AM - 5:00PM",
            "hoursDay": "Monday\r\nTuesday\r\nWednesday\r\nThursday\r\nFriday\r\nSaturday\r\nSunday",
            "regionId": null,
            "latitude": "-12.702528000000000",
            "longitude": "131.014066000000000",
            "tag": "94968",
            "locationNumber": "0",
            "saleGroupId": "0",
            "christmasHours": "",
            "christmasHoursDay": "Please contact the store for Easter opening hours.",
            "updateTimeStamp": "2025-04-11 15:06:03",
            "postcodeId": "173",
            "storeUrl": "",
            "updated": "0",
            "onlineShopUrl": "",
            "ecommerceUrl": ""
        }
    ]
}