[
    {
        "storeId": "7629",
        "locationId": "7629CC7629",
        "storeName": "Coles Kingston",
        "address": "Cnr John St & Channel Hwy",
        "suburb": "Kingston",
        "postcode": "7050",
        "state": "TAS",
        "latitude": -42.974982,
        "longitude": 147.311015,
        "phone": "04 35533529",
        "brandId": 2,
        "brandName": "Coles Supermarkets",
        "storeRestrictions": {
            "isLiquorSold": true,
            "isTobaccoSold": true
        }
    },
    {
        "storeId": "7645",
        "locationId": "7645CC7645",
        "storeName": "Coles Glenorchy",
        "address": "Cnr Main Rd and King George V Ave",
        "suburb": "Glenorchy",
        "postcode": "7010",
        "state": "TAS",
        "latitude": -42.83187,
        "longitude": 147.27447,
        "phone": "04 09865213",
        "brandId": 2,
        "brandName": "Coles Supermarkets",
        "storeRestrictions": {
            "isLiquorSold": true,
            "isTobaccoSold": true
        }
    },
    {
        "storeId": "7505",
        "locationId": "7505CC7505",
        "storeName": "Coles Sandy Bay",
        "address": "246 Sandy Bay Rd",
        "suburb": "Sandy Bay",
        "postcode": "7005",
        "state": "TAS",
        "latitude": -42.895824,
        "longitude": 147.327594,
        "phone": "04 66602468",
        "brandId": 2,
        "brandName": "Coles Supermarkets",
        "storeRestrictions": {
            "isLiquorSold": true,
            "isTobaccoSold": true
        }
    },
    {
        "storeId": "7523",
        "locationId": "7523CC7523",
        "storeName": "Coles Newtown - Drive-through",
        "address": "1 Risdon Rd",
        "suburb": "New Town",
        "postcode": "7008",
        "state": "TAS",
        "latitude": -42.855634,
        "longitude": 147.305763,
        "phone": "0432 825 221",
        "brandId": 2,
        "brandName": "Coles Supermarkets",
        "storeRestrictions": {
            "isLiquorSold": true,
            "isTobaccoSold": true
        }
    },
    {
        "storeId": "7602",
        "locationId": "7602CC7602",
        "storeName": "Coles Eastlands - Drive-through",
        "address": "Eastlands S/C, 1 Bligh St",
        "suburb": "Rosny",
        "postcode": "7018",
        "state": "TAS",
        "latitude": -42.866485,
        "longitude": 147.367495,
        "phone": "04 3493 3367",
        "brandId": 2,
        "brandName": "Coles Supermarkets",
        "storeRestrictions": {
            "isLiquorSold": true,
            "isTobaccoSold": true
        }
    },
    {
        "storeId": "7647",
        "locationId": "7647CC7647",
        "storeName": "Coles Bridgewater",
        "address": "Covehill Fair S/C, Cnr East Derwent Hwy & Cove Hill Rd",
        "suburb": "Bridgewater",
        "postcode": "7030",
        "state": "TAS",
        "latitude": -42.735102,
        "longitude": 147.242148,
        "phone": "04 28153629",
        "brandId": 2,
        "brandName": "Coles Supermarkets",
        "storeRestrictions": {
            "isLiquorSold": true,
            "isTobaccoSold": true
        }
    },
    {
        "storeId": "7547",
        "locationId": "7547CC7547",
        "storeName": "Coles Glebe Hill",
        "address": "1 Commerce Drive",
        "suburb": "Howrah",
        "postcode": "7018",
        "state": "TAS",
        "latitude": -42.888096,
        "longitude": 147.4270491,
        "phone": "0435 511 614",
        "brandId": 2,
        "brandName": "Coles Supermarkets",
        "storeRestrictions": {
            "isLiquorSold": true,
            "isTobaccoSold": true
        }
    },
    {
        "storeId": "7500",
        "locationId": "7500CC7500",
        "storeName": "Coles Sorell",
        "address": "12 Cole Street",
        "suburb": "Sorell",
        "postcode": "7172",
        "state": "TAS",
        "latitude": -42.782181,
        "longitude": 147.565333,
        "phone": "04 35533522",
        "brandId": 2,
        "brandName": "Coles Supermarkets",
        "storeRestrictions": {
            "isLiquorSold": true,
            "isTobaccoSold": true
        }
    },
    {
        "storeId": "7541",
        "locationId": "7541CC7541",
        "storeName": "Coles Burnie",
        "address": "Burnie Plaza S/C, 26 Mount St",
        "suburb": "Burnie",
        "postcode": "7320",
        "state": "TAS",
        "latitude": -41.051367,
        "longitude": 145.904318,
        "phone": "04 66941850",
        "brandId": 2,
        "brandName": "Coles Supermarkets",
        "storeRestrictions": {
            "isLiquorSold": true,
            "isTobaccoSold": true
        }
    },
    {
        "storeId": "7606",
        "locationId": "7606CC7606",
        "storeName": "Coles Ulverstone",
        "address": "16 Reiby St",
        "suburb": "Ulverstone",
        "postcode": "7315",
        "state": "TAS",
        "latitude": -41.15736,
        "longitude": 146.169829,
        "phone": "04 28048982",
        "brandId": 2,
        "brandName": "Coles Supermarkets",
        "storeRestrictions": {
            "isLiquorSold": true,
            "isTobaccoSold": true
        }
    },
    {
        "storeId": "7621",
        "locationId": "7621CC7621",
        "storeName": "Coles Devonport - Drive-through",
        "address": "Cnr Gunn & Best Sts",
        "suburb": "Devonport",
        "postcode": "7310",
        "state": "TAS",
        "latitude": -41.177234,
        "longitude": 146.354893,
        "phone": "0439 705 136",
        "brandId": 2,
        "brandName": "Coles Supermarkets",
        "storeRestrictions": {
            "isLiquorSold": true,
            "isTobaccoSold": true
        }
    },
    {
        "storeId": "7502",
        "locationId": "7502CC7502",
        "storeName": "Coles Mowbray",
        "address": "385 Invermay Road",
        "suburb": "Mowbray",
        "postcode": "7248",
        "state": "TAS",
        "latitude": -41.40531,
        "longitude": 147.13171,
        "phone": "04 17597673",
        "brandId": 2,
        "brandName": "Coles Supermarkets",
        "storeRestrictions": {
            "isLiquorSold": true,
            "isTobaccoSold": true
        }
    },
    {
        "storeId": "7562",
        "locationId": "7562CC7562",
        "storeName": "Coles Launceston Racecourse",
        "address": "15 Racecourse Cres",
        "suburb": "Launceston",
        "postcode": "7250",
        "state": "TAS",
        "latitude": -41.42902,
        "longitude": 147.147442,
        "phone": "04 6679 1326",
        "brandId": 2,
        "brandName": "Coles Supermarkets",
        "storeRestrictions": {
            "isLiquorSold": true,
            "isTobaccoSold": true
        }
    },
    {
        "storeId": "7707",
        "locationId": "7707CC7707",
        "storeName": "Coles Mount Gambier",
        "address": "11 Ferrers Street",
        "suburb": "Mount Gambier",
        "postcode": "5290",
        "state": "SA",
        "latitude": -37.8301,
        "longitude": 140.782876,
        "phone": "0466 299 020",
        "brandId": 2,
        "brandName": "Coles Supermarkets",
        "storeRestrictions": {
            "isLiquorSold": true,
            "isTobaccoSold": false
        }
    },
    {
        "storeId": "7600",
        "locationId": "7600CC7600",
        "storeName": "Coles Hamilton",
        "address": "179-193 Gray St",
        "suburb": "Hamilton",
        "postcode": "3300",
        "state": "VIC",
        "latitude": -37.742446,
        "longitude": 142.02529,
        "phone": "0466 791 309",
        "brandId": 2,
        "brandName": "Coles Supermarkets",
        "storeRestrictions": {
            "isLiquorSold": true,
            "isTobaccoSold": true
        }
    },
    {
        "storeId": "511",
        "locationId": "0511CC0511",
        "storeName": "Coles Corio Village",
        "address": "Corio Village S/C, Cnr Bacchus Marsh & Purnell Rds",
        "suburb": "Corio",
        "postcode": "3214",
        "state": "VIC",
        "latitude": -38.075488,
        "longitude": 144.355075,
        "phone": "04 35377606",
        "brandId": 2,
        "brandName": "Coles Supermarkets",
        "storeRestrictions": {
            "isLiquorSold": true,
            "isTobaccoSold": true
        }
    },
    {
        "storeId": "7917",
        "locationId": "7917CC7917",
        "storeName": "Coles Geelong West",
        "address": "166-188 Shannon Ave",
        "suburb": "Geelong West",
        "postcode": "3218",
        "state": "VIC",
        "latitude": -38.139142,
        "longitude": 144.336909,
        "phone": "04 35172443",
        "brandId": 2,
        "brandName": "Coles Supermarkets",
        "storeRestrictions": {
            "isLiquorSold": true,
            "isTobaccoSold": true
        }
    },
    {
        "storeId": "7781",
        "locationId": "7781CC7781",
        "storeName": "Coles Geelong Bay City",
        "address": "Bay City Plaza S/C, Cnr Moorabool & Brougham Sts",
        "suburb": "Geelong",
        "postcode": "3220",
        "state": "VIC",
        "latitude": -38.146648,
        "longitude": 144.36201,
        "phone": "0466 791 305",
        "brandId": 2,
        "brandName": "Coles Supermarkets",
        "storeRestrictions": {
            "isLiquorSold": true,
            "isTobaccoSold": true
        }
    },
    {
        "storeId": "7776",
        "locationId": "7776CC7776",
        "storeName": "Coles Lara",
        "address": "32-4 Waverly Rd",
        "suburb": "Lara",
        "postcode": "3212",
        "state": "VIC",
        "latitude": -38.023081,
        "longitude": 144.409426,
        "phone": "04 28515394",
        "brandId": 2,
        "brandName": "Coles Supermarkets",
        "storeRestrictions": {
            "isLiquorSold": true,
            "isTobaccoSold": true
        }
    },
    {
        "storeId": "7796",
        "locationId": "7796CC7796",
        "storeName": "Coles Belmont (High Street)",
        "address": "158-162A High St",
        "suburb": "Belmont",
        "postcode": "3216",
        "state": "VIC",
        "latitude": -38.174162,
        "longitude": 144.342868,
        "phone": "04 22994204",
        "brandId": 2,
        "brandName": "Coles Supermarkets",
        "storeRestrictions": {
            "isLiquorSold": true,
            "isTobaccoSold": true
        }
    },
    {
        "storeId": "7810",
        "locationId": "7810CC7810",
        "storeName": "Coles Waurn Ponds",
        "address": "173-199 Pioneer Rd",
        "suburb": "Waurn Ponds",
        "postcode": "3216",
        "state": "VIC",
        "latitude": -38.199304,
        "longitude": 144.318893,
        "phone": "0417 602 611",
        "brandId": 2,
        "brandName": "Coles Supermarkets",
        "storeRestrictions": {
            "isLiquorSold": true,
            "isTobaccoSold": true
        }
    },
    {
        "storeId": "501",
        "locationId": "0501CC0501",
        "storeName": "Coles Belmont (next to Kmart)",
        "address": "65 High St",
        "suburb": "Belmont",
        "postcode": "3216",
        "state": "VIC",
        "latitude": -38.170312,
        "longitude": 144.348988,
        "phone": "0435 127 276",
        "brandId": 2,
        "brandName": "Coles Supermarkets",
        "storeRestrictions": {
            "isLiquorSold": true,
            "isTobaccoSold": true
        }
    },
    {
        "storeId": "7501",
        "locationId": "7501CC7501",
        "storeName": "Coles Armstrong Creek",
        "address": "Surf Coast Hwy",
        "suburb": "Armstrong Creek",
        "postcode": "3217",
        "state": "VIC",
        "latitude": -38.229281,
        "longitude": 144.33682,
        "phone": "04 8146 0844",
        "brandId": 2,
        "brandName": "Coles Supermarkets",
        "storeRestrictions": {
            "isLiquorSold": true,
            "isTobaccoSold": true
        }
    },
    {
        "storeId": "538",
        "locationId": "0538CC0538",
        "storeName": "Coles Leopold",
        "address": "621 Bellarine Hwy",
        "suburb": "Leopold",
        "postcode": "3224",
        "state": "VIC",
        "latitude": -38.185718,
        "longitude": 144.453556,
        "phone": "04 47839188",
        "brandId": 2,
        "brandName": "Coles Supermarkets",
        "storeRestrictions": {
            "isLiquorSold": true,
            "isTobaccoSold": true
        }
    },
    {
        "storeId": "546",
        "locationId": "0546SL0546",
        "storeName": "Coles Mentone - Locker Collection",
        "address": "Cnr Mentone Pde & Brindisi St",
        "suburb": "Mentone",
        "postcode": "3194",
        "state": "VIC",
        "latitude": -37.98405564,
        "longitude": 145.0644958,
        "phone": "0429 989 656",
        "brandId": 2,
        "brandName": "Coles Supermarkets",
        "storeRestrictions": {
            "isLiquorSold": false,
            "isTobaccoSold": false
        }
    },
    {
        "storeId": "669",
        "locationId": "0669CC0669",
        "storeName": "Coles Southland - Drive-through",
        "address": "Westfield Southland, 1239 Nepean Hwy",
        "suburb": "Cheltenham",
        "postcode": "3192",
        "state": "VIC",
        "latitude": -37.958863,
        "longitude": 145.050855,
        "phone": "0466 860 668",
        "brandId": 2,
        "brandName": "Coles Supermarkets",
        "storeRestrictions": {
            "isLiquorSold": true,
            "isTobaccoSold": true
        }
    },
    {
        "storeId": "7819",
        "locationId": "7819CC7819",
        "storeName": "Coles Brighton Bay St",
        "address": "380 Bay Street",
        "suburb": "Brighton",
        "postcode": "3186",
        "state": "VIC",
        "latitude": -37.906173,
        "longitude": 145.005011,
        "phone": "0434836983",
        "brandId": 2,
        "brandName": "Coles Supermarkets",
        "storeRestrictions": {
            "isLiquorSold": true,
            "isTobaccoSold": true
        }
    },
    {
        "storeId": "547",
        "locationId": "0547CC0547",
        "storeName": "Coles Warragul",
        "address": "Centre Point S/C, 30 Palmerston St",
        "suburb": "Warragul",
        "postcode": "3820",
        "state": "VIC",
        "latitude": -38.1621,
        "longitude": 145.932049,
        "phone": "0407 972 227",
        "brandId": 2,
        "brandName": "Coles Supermarkets",
        "storeRestrictions": {
            "isLiquorSold": true,
            "isTobaccoSold": true
        }
    },
    {
        "storeId": "629",
        "locationId": "0629CC0629",
        "storeName": "Coles Drouin",
        "address": "Cnr Hope & Young Sts",
        "suburb": "Drouin",
        "postcode": "3818",
        "state": "VIC",
        "latitude": -38.134454,
        "longitude": 145.856336,
        "phone": "0435 198 231",
        "brandId": 2,
        "brandName": "Coles Supermarkets",
        "storeRestrictions": {
            "isLiquorSold": true,
            "isTobaccoSold": true
        }
    },
    {
        "storeId": "626",
        "locationId": "0626CC0626",
        "storeName": "Coles Moe",
        "address": "92 Albert St",
        "suburb": "Moe",
        "postcode": "3825",
        "state": "VIC",
        "latitude": -38.174301,
        "longitude": 146.25912,
        "phone": "0448 110 261",
        "brandId": 2,
        "brandName": "Coles Supermarkets",
        "storeRestrictions": {
            "isLiquorSold": true,
            "isTobaccoSold": true
        }
    },
    {
        "storeId": "7623",
        "locationId": "7623CC7623",
        "storeName": "Coles Cardinia Lakes",
        "address": "140 Windemere Blvd",
        "suburb": "Pakenham",
        "postcode": "3810",
        "state": "VIC",
        "latitude": -38.0639,
        "longitude": 145.508,
        "phone": "0466 650 730",
        "brandId": 2,
        "brandName": "Coles Supermarkets",
        "storeRestrictions": {
            "isLiquorSold": true,
            "isTobaccoSold": true
        }
    },
    {
        "storeId": "561",
        "locationId": "0561CC0561",
        "storeName": "Coles Morwell George St",
        "address": "82 George St",
        "suburb": "Morwell",
        "postcode": "3840",
        "state": "VIC",
        "latitude": -38.239109,
        "longitude": 146.398043,
        "phone": "0439 896 425",
        "brandId": 2,
        "brandName": "Coles Supermarkets",
        "storeRestrictions": {
            "isLiquorSold": true,
            "isTobaccoSold": true
        }
    },
    {
        "storeId": "674",
        "locationId": "0674CC0674",
        "storeName": "Coles Pakenham",
        "address": "Pakenham Place S/C, 67-69 Main St",
        "suburb": "Pakenham",
        "postcode": "3810",
        "state": "VIC",
        "latitude": -38.077578,
        "longitude": 145.47839,
        "phone": "0447 845 737",
        "brandId": 2,
        "brandName": "Coles Supermarkets",
        "storeRestrictions": {
            "isLiquorSold": true,
            "isTobaccoSold": true
        }
    },
    {
        "storeId": "603",
        "locationId": "0603CC0603",
        "storeName": "Coles Heritage Springs",
        "address": "Heritage Springs S/C, Cnr Mcgregor & Henry Rds",
        "suburb": "Pakenham",
        "postcode": "3810",
        "state": "VIC",
        "latitude": -38.085666,
        "longitude": 145.470788,
        "phone": "04 35172424",
        "brandId": 2,
        "brandName": "Coles Supermarkets",
        "storeRestrictions": {
            "isLiquorSold": true,
            "isTobaccoSold": true
        }
    },
    {
        "storeId": "520",
        "locationId": "0520CC0520",
        "storeName": "Coles Pakenham Lakeside",
        "address": "Cnr Princess Hwy & Lakeside Blvd",
        "suburb": "Pakenham",
        "postcode": "3810",
        "state": "VIC",
        "latitude": -38.06366414,
        "longitude": 145.4556814,
        "phone": "0466 726 970",
        "brandId": 2,
        "brandName": "Coles Supermarkets",
        "storeRestrictions": {
            "isLiquorSold": false,
            "isTobaccoSold": true
        }
    },
    {
        "storeId": "4184",
        "locationId": "4184CC4184",
        "storeName": "Coles Traralgon Village - Drive-through",
        "address": "145 Maffra Road",
        "suburb": "Traralgon",
        "postcode": "3844",
        "state": "VIC",
        "latitude": -38.17943,
        "longitude": 146.558807,
        "phone": "0473 864 638",
        "brandId": 2,
        "brandName": "Coles Supermarkets",
        "storeRestrictions": {
            "isLiquorSold": true,
            "isTobaccoSold": true
        }
    },
    {
        "storeId": "694",
        "locationId": "0694CC0694",
        "storeName": "Coles Traralgon",
        "address": "Traralgon Centre Plaza, Cnr Grey & Franklin Sts",
        "suburb": "Traralgon",
        "postcode": "3844",
        "state": "VIC",
        "latitude": -38.194139,
        "longitude": 146.540234,
        "phone": "0466 641 171",
        "brandId": 2,
        "brandName": "Coles Supermarkets",
        "storeRestrictions": {
            "isLiquorSold": true,
            "isTobaccoSold": true
        }
    },
    {
        "storeId": "548",
        "locationId": "0548CC0548",
        "storeName": "Coles Bairnsdale",
        "address": "96-118 Main St",
        "suburb": "Bairnsdale",
        "postcode": "3875",
        "state": "VIC",
        "latitude": -37.825331,
        "longitude": 147.632495,
        "phone": "0447 833 403",
        "brandId": 2,
        "brandName": "Coles Supermarkets",
        "storeRestrictions": {
            "isLiquorSold": true,
            "isTobaccoSold": true
        }
    },
    {
        "storeId": "615",
        "locationId": "0615CC0615",
        "storeName": "Coles Horsham",
        "address": "Darlot St and Roberts Ave",
        "suburb": "Horsham",
        "postcode": "3400",
        "state": "VIC",
        "latitude": -36.714548,
        "longitude": 142.196634,
        "phone": "04 37545435",
        "brandId": 2,
        "brandName": "Coles Supermarkets",
        "storeRestrictions": {
            "isLiquorSold": true,
            "isTobaccoSold": true
        }
    },
    {
        "storeId": "7992",
        "locationId": "7992CC7992",
        "storeName": "Coles Maryborough VIC",
        "address": "92-96 Bourke Street",
        "suburb": "Maryborough",
        "postcode": "3465",
        "state": "VIC",
        "latitude": -37.048304,
        "longitude": 143.741885,
        "phone": "0455 204 315",
        "brandId": 2,
        "brandName": "Coles Supermarkets",
        "storeRestrictions": {
            "isLiquorSold": true,
            "isTobaccoSold": true
        }
    },
    {
        "storeId": "7618",
        "locationId": "7618CC7618",
        "storeName": "Coles Kangaroo Flat",
        "address": "Lansell Square, 267 High Street",
        "suburb": "Kangaroo Flat",
        "postcode": "3555",
        "state": "VIC",
        "latitude": -36.810106,
        "longitude": 144.240595,
        "phone": "04 36442326",
        "brandId": 2,
        "brandName": "Coles Supermarkets",
        "storeRestrictions": {
            "isLiquorSold": true,
            "isTobaccoSold": true
        }
    },
    {
        "storeId": "638",
        "locationId": "0638CC0638",
        "storeName": "Coles Bendigo",
        "address": "Cnr Myer St and Williamson St",
        "suburb": "Bendigo",
        "postcode": "3550",
        "state": "VIC",
        "latitude": -36.761268,
        "longitude": 144.282407,
        "phone": "0428 918 326",
        "brandId": 2,
        "brandName": "Coles Supermarkets",
        "storeRestrictions": {
            "isLiquorSold": true,
            "isTobaccoSold": true
        }
    },
    {
        "storeId": "7838",
        "locationId": "7838CC7838",
        "storeName": "Coles Bendigo McIvor",
        "address": "69-75 Mcivor Rd",
        "suburb": "Bendigo",
        "postcode": "3550",
        "state": "VIC",
        "latitude": -36.757539,
        "longitude": 144.296101,
        "phone": "0435 274 497",
        "brandId": 2,
        "brandName": "Coles Supermarkets",
        "storeRestrictions": {
            "isLiquorSold": true,
            "isTobaccoSold": true
        }
    },
    {
        "storeId": "562",
        "locationId": "0562CC0562",
        "storeName": "Coles Daylesford",
        "address": "Cnr Albert & Bridport Sts",
        "suburb": "Daylesford",
        "postcode": "3460",
        "state": "VIC",
        "latitude": -37.341625,
        "longitude": 144.141485,
        "phone": "0429 267 893",
        "brandId": 2,
        "brandName": "Coles Supermarkets",
        "storeRestrictions": {
            "isLiquorSold": true,
            "isTobaccoSold": true
        }
    },
    {
        "storeId": "7780",
        "locationId": "7780CC7780",
        "storeName": "Coles Seymour",
        "address": "18 Tallarook St",
        "suburb": "Seymour",
        "postcode": "3660",
        "state": "VIC",
        "latitude": -37.02388,
        "longitude": 145.133274,
        "phone": "0438 658 547",
        "brandId": 2,
        "brandName": "Coles Supermarkets",
        "storeRestrictions": {
            "isLiquorSold": false,
            "isTobaccoSold": true
        }
    },
    {
        "storeId": "552",
        "locationId": "0552CC0552",
        "storeName": "Coles Kilmore",
        "address": "Northern Hwy",
        "suburb": "Kilmore",
        "postcode": "3764",
        "state": "VIC",
        "latitude": -37.287368,
        "longitude": 144.947717,
        "phone": "0448 239 116",
        "brandId": 2,
        "brandName": "Coles Supermarkets",
        "storeRestrictions": {
            "isLiquorSold": true,
            "isTobaccoSold": true
        }
    },
    {
        "storeId": "4045",
        "locationId": "4045CC4045",
        "storeName": "Coles Romsey - Drive-through",
        "address": "51-61 Main Street",
        "suburb": "Romsey",
        "postcode": "3434",
        "state": "VIC",
        "latitude": -37.35369649,
        "longitude": 144.7374242,
        "phone": "0383 937 460",
        "brandId": 2,
        "brandName": "Coles Supermarkets",
        "storeRestrictions": {
            "isLiquorSold": true,
            "isTobaccoSold": true
        }
    },
    {
        "storeId": "7778",
        "locationId": "7778CC7778",
        "storeName": "Coles Wallan",
        "address": "Shop 8, 79 High St",
        "suburb": "Wallan",
        "postcode": "3756",
        "state": "VIC",
        "latitude": -37.411507,
        "longitude": 144.978235,
        "phone": "0435 198 276",
        "brandId": 2,
        "brandName": "Coles Supermarkets",
        "storeRestrictions": {
            "isLiquorSold": true,
            "isTobaccoSold": true
        }
    },
    {
        "storeId": "5697",
        "locationId": "5697CC5697",
        "storeName": "Coles Eden",
        "address": "163-165 Imlay St",
        "suburb": "Eden",
        "postcode": "2551",
        "state": "NSW",
        "latitude": -37.063632,
        "longitude": 149.904887,
        "phone": "0422 563 638",
        "brandId": 2,
        "brandName": "Coles Supermarkets",
        "storeRestrictions": {
            "isLiquorSold": false,
            "isTobaccoSold": true
        }
    },
    {
        "storeId": "739",
        "locationId": "0739CC0739",
        "storeName": "Coles Bega",
        "address": "Cnr Parker & Carp Sts",
        "suburb": "Bega",
        "postcode": "2550",
        "state": "NSW",
        "latitude": -36.674963,
        "longitude": 149.845138,
        "phone": "04 66727918",
        "brandId": 2,
        "brandName": "Coles Supermarkets",
        "storeRestrictions": {
            "isLiquorSold": true,
            "isTobaccoSold": true
        }
    },
    {
        "storeId": "620",
        "locationId": "0620CC0620",
        "storeName": "Coles Echuca",
        "address": "Cnr Darling & Hare Sts",
        "suburb": "Echuca",
        "postcode": "3564",
        "state": "VIC",
        "latitude": -36.130605,
        "longitude": 144.749592,
        "phone": "0435 517 756",
        "brandId": 2,
        "brandName": "Coles Supermarkets",
        "storeRestrictions": {
            "isLiquorSold": true,
            "isTobaccoSold": true
        }
    },
    {
        "storeId": "7684",
        "locationId": "7684CC7684",
        "storeName": "Coles Cobram - Drive-through",
        "address": "Cobram Village Centre",
        "suburb": "Cobram",
        "postcode": "3644",
        "state": "VIC",
        "latitude": -35.91955,
        "longitude": 145.642701,
        "phone": "03 5837 6560",
        "brandId": 2,
        "brandName": "Coles Supermarkets",
        "storeRestrictions": {
            "isLiquorSold": true,
            "isTobaccoSold": false
        }
    },
    {
        "storeId": "688",
        "locationId": "0688CC0688",
        "storeName": "Coles Wangaratta",
        "address": "Cnr Ryley St & Greta Rd",
        "suburb": "Wangaratta",
        "postcode": "3677",
        "state": "VIC",
        "latitude": -36.35954,
        "longitude": 146.316597,
        "phone": "04 39708941",
        "brandId": 2,
        "brandName": "Coles Supermarkets",
        "storeRestrictions": {
            "isLiquorSold": true,
            "isTobaccoSold": true
        }
    },
    {
        "storeId": "5828",
        "locationId": "5828CC5828",
        "storeName": "Coles Thurgoona Village",
        "address": "30 Diamond Drive",
        "suburb": "Thurgoona",
        "postcode": "2640",
        "state": "VIC",
        "latitude": -36.044562,
        "longitude": 146.995707,
        "phone": "04 66726977",
        "brandId": 2,
        "brandName": "Coles Supermarkets",
        "storeRestrictions": {
            "isLiquorSold": true,
            "isTobaccoSold": true
        }
    },
    {
        "storeId": "617",
        "locationId": "0617CC0617",
        "storeName": "Coles Lavington",
        "address": "Cnr Griffith Street & Urana Rds",
        "suburb": "Lavington",
        "postcode": "2641",
        "state": "NSW",
        "latitude": -36.050058,
        "longitude": 146.932437,
        "phone": "04 66727926",
        "brandId": 2,
        "brandName": "Coles Supermarkets",
        "storeRestrictions": {
            "isLiquorSold": true,
            "isTobaccoSold": true
        }
    },
    {
        "storeId": "693",
        "locationId": "0693CC0693",
        "storeName": "Coles Albury",
        "address": "Cnr Townsend St and Smollet St",
        "suburb": "Albury",
        "postcode": "2640",
        "state": "NSW",
        "latitude": -36.08211,
        "longitude": 146.912929,
        "phone": "0419 136 503",
        "brandId": 2,
        "brandName": "Coles Supermarkets",
        "storeRestrictions": {
            "isLiquorSold": false,
            "isTobaccoSold": true
        }
    },
    {
        "storeId": "7698",
        "locationId": "7698CC7698",
        "storeName": "Coles Wodonga",
        "address": "1-13 South Street",
        "suburb": "Wodonga",
        "postcode": "3690",
        "state": "VIC",
        "latitude": -36.11932025,
        "longitude": 146.8903279,
        "phone": "0437 750 878",
        "brandId": 2,
        "brandName": "Coles Supermarkets",
        "storeRestrictions": {
            "isLiquorSold": true,
            "isTobaccoSold": true
        }
    },
    {
        "storeId": "636",
        "locationId": "0636CC0636",
        "storeName": "Coles Wodonga Plaza",
        "address": "Cnr Elgin St & Watson Sts",
        "suburb": "Wodonga",
        "postcode": "3690",
        "state": "VIC",
        "latitude": -36.120295,
        "longitude": 146.88184,
        "phone": "0422 090 929",
        "brandId": 2,
        "brandName": "Coles Supermarkets",
        "storeRestrictions": {
            "isLiquorSold": true,
            "isTobaccoSold": true
        }
    },
    {
        "storeId": "703",
        "locationId": "0703CC0703",
        "storeName": "Coles Cooma",
        "address": "Sharp St",
        "suburb": "Cooma",
        "postcode": "2630",
        "state": "NSW",
        "latitude": -36.235937,
        "longitude": 149.126214,
        "phone": "0466 298 606",
        "brandId": 2,
        "brandName": "Coles Supermarkets",
        "storeRestrictions": {
            "isLiquorSold": true,
            "isTobaccoSold": true
        }
    },
    {
        "storeId": "811",
        "locationId": "0811CC0811",
        "storeName": "Coles Batemans Bay",
        "address": "Cnr Vesper St & Beach Rd",
        "suburb": "Batemans Bay",
        "postcode": "2536",
        "state": "NSW",
        "latitude": -35.706692,
        "longitude": 150.175888,
        "phone": "0439 715 457",
        "brandId": 2,
        "brandName": "Coles Supermarkets",
        "storeRestrictions": {
            "isLiquorSold": true,
            "isTobaccoSold": true
        }
    },
    {
        "storeId": "364",
        "locationId": "0364CC0364",
        "storeName": "Coles Albany",
        "address": "38-56 Albany Hwy",
        "suburb": "Albany",
        "postcode": "6330",
        "state": "WA",
        "latitude": -35.019791,
        "longitude": 117.881678,
        "phone": "0466 727 915",
        "brandId": 2,
        "brandName": "Coles Supermarkets",
        "storeRestrictions": {
            "isLiquorSold": true,
            "isTobaccoSold": true
        }
    },
    {
        "storeId": "478",
        "locationId": "0478CC0478",
        "storeName": "Coles Albany Orana",
        "address": "Lot 401 Albany Hwyle Grande Shopping Centre",
        "suburb": "Albany",
        "postcode": "6330",
        "state": "WA",
        "latitude": -34.992323,
        "longitude": 117.856097,
        "phone": "04 37672727",
        "brandId": 2,
        "brandName": "Coles Supermarkets",
        "storeRestrictions": {
            "isLiquorSold": true,
            "isTobaccoSold": true
        }
    },
    {
        "storeId": "440",
        "locationId": "0440CC0440",
        "storeName": "Coles Port Lincoln",
        "address": "Liverpool St",
        "suburb": "Port Lincoln",
        "postcode": "5606",
        "state": "SA",
        "latitude": -34.722761,
        "longitude": 135.861055,
        "phone": "04 09413177",
        "brandId": 2,
        "brandName": "Coles Supermarkets",
        "storeRestrictions": {
            "isLiquorSold": true,
            "isTobaccoSold": false
        }
    },
    {
        "storeId": "4933",
        "locationId": "4933CC4933",
        "storeName": "Coles Christies Beach - Drive-through",
        "address": "101 Beach Rd",
        "suburb": "Christies Beach",
        "postcode": "5165",
        "state": "SA",
        "latitude": -35.138757,
        "longitude": 138.480757,
        "phone": "04 07679350",
        "brandId": 2,
        "brandName": "Coles Supermarkets",
        "storeRestrictions": {
            "isLiquorSold": true,
            "isTobaccoSold": false
        }
    },
    {
        "storeId": "455",
        "locationId": "0455CC0455",
        "storeName": "Coles West Lakes",
        "address": "West Lakes S/C, Cnr West Lakes Blv & Turner Drv",
        "suburb": "West Lakes",
        "postcode": "5021",
        "state": "SA",
        "latitude": -34.881241,
        "longitude": 138.491512,
        "phone": "04 66791375",
        "brandId": 2,
        "brandName": "Coles Supermarkets",
        "storeRestrictions": {
            "isLiquorSold": true,
            "isTobaccoSold": false
        }
    },
    {
        "storeId": "420",
        "locationId": "0420CC0420",
        "storeName": "Coles Glenelg",
        "address": "Nile St",
        "suburb": "Glenelg",
        "postcode": "5045",
        "state": "SA",
        "latitude": -34.979578,
        "longitude": 138.514803,
        "phone": "04 66725817",
        "brandId": 2,
        "brandName": "Coles Supermarkets",
        "storeRestrictions": {
            "isLiquorSold": true,
            "isTobaccoSold": true
        }
    },
    {
        "storeId": "437",
        "locationId": "0437CC0437",
        "storeName": "Coles Noarlunga - Drive-through",
        "address": "Colonnades S/C, 54 Beach Rd",
        "suburb": "Noarlunga Centre",
        "postcode": "5168",
        "state": "SA",
        "latitude": -35.142165,
        "longitude": 138.495064,
        "phone": "04 66853774",
        "brandId": 2,
        "brandName": "Coles Supermarkets",
        "storeRestrictions": {
            "isLiquorSold": true,
            "isTobaccoSold": false
        }
    },
    {
        "storeId": "4982",
        "locationId": "4982CC4982",
        "storeName": "Coles Warradale",
        "address": "238 Diagonal Rd",
        "suburb": "Warradale",
        "postcode": "5046",
        "state": "SA",
        "latitude": -35.008336,
        "longitude": 138.538207,
        "phone": "04 38739667",
        "brandId": 2,
        "brandName": "Coles Supermarkets",
        "storeRestrictions": {
            "isLiquorSold": true,
            "isTobaccoSold": true
        }
    },
    {
        "storeId": "436",
        "locationId": "0436CC0436",
        "storeName": "Coles Reynella",
        "address": "Cnr Sherriffs & Hillier Rds",
        "suburb": "Morphett Vale",
        "postcode": "5162",
        "state": "SA",
        "latitude": -35.106063,
        "longitude": 138.520577,
        "phone": "0466 726 979",
        "brandId": 2,
        "brandName": "Coles Supermarkets",
        "storeRestrictions": {
            "isLiquorSold": true,
            "isTobaccoSold": true
        }
    },
    {
        "storeId": "458",
        "locationId": "0458CC0458",
        "storeName": "Coles Marion",
        "address": "Marion S/C, 297 Diagonal Rd",
        "suburb": "Oaklands Park",
        "postcode": "5046",
        "state": "SA",
        "latitude": -35.016519,
        "longitude": 138.54405,
        "phone": "0466 791 329",
        "brandId": 2,
        "brandName": "Coles Supermarkets",
        "storeRestrictions": {
            "isLiquorSold": true,
            "isTobaccoSold": true
        }
    },
    {
        "storeId": "403",
        "locationId": "0403CC0403",
        "storeName": "Coles Findon",
        "address": "Findon S/C, Cnr Grange & Findon Rds",
        "suburb": "Findon",
        "postcode": "5023",
        "state": "SA",
        "latitude": -34.905313,
        "longitude": 138.530681,
        "phone": "04 66725805",
        "brandId": 2,
        "brandName": "Coles Supermarkets",
        "storeRestrictions": {
            "isLiquorSold": true,
            "isTobaccoSold": true
        }
    },
    {
        "storeId": "4940",
        "locationId": "4940SD4940",
        "storeName": "Coles Mount Barker - Service Desk",
        "address": "Cameron St",
        "suburb": "Mount Barker",
        "postcode": "5251",
        "state": "SA",
        "latitude": -35.063851,
        "longitude": 138.859714,
        "phone": "0429 989 656",
        "brandId": 2,
        "brandName": "Coles Supermarkets",
        "storeRestrictions": {
            "isLiquorSold": true,
            "isTobaccoSold": true
        }
    },
    {
        "storeId": "445",
        "locationId": "0445CC0445",
        "storeName": "Coles Bridgewater SA",
        "address": "Bridgewater Village S/C, Carey Gulley Rd",
        "suburb": "Bridgewater",
        "postcode": "5155",
        "state": "SA",
        "latitude": -35.009239,
        "longitude": 138.75968,
        "phone": "0466 725 781",
        "brandId": 2,
        "brandName": "Coles Supermarkets",
        "storeRestrictions": {
            "isLiquorSold": true,
            "isTobaccoSold": true
        }
    },
    {
        "storeId": "4970",
        "locationId": "4970CC4970",
        "storeName": "Coles Murray Bridge",
        "address": "8-10 Riverview Road",
        "suburb": "Murray Bridge",
        "postcode": "5253",
        "state": "SA",
        "latitude": -35.12211,
        "longitude": 139.27457,
        "phone": "04 47540124",
        "brandId": 2,
        "brandName": "Coles Supermarkets",
        "storeRestrictions": {
            "isLiquorSold": true,
            "isTobaccoSold": false
        }
    },
    {
        "storeId": "446",
        "locationId": "0446CC0446",
        "storeName": "Coles Newton",
        "address": "Newton S/C, Cnr Montacute & Stradbroke Rds",
        "suburb": "Newton",
        "postcode": "5074",
        "state": "SA",
        "latitude": -34.886167,
        "longitude": 138.689966,
        "phone": "04 21963030",
        "brandId": 2,
        "brandName": "Coles Supermarkets",
        "storeRestrictions": {
            "isLiquorSold": true,
            "isTobaccoSold": true
        }
    },
    {
        "storeId": "408",
        "locationId": "0408CC0408",
        "storeName": "Coles Dernancourt",
        "address": "Dernancourt Village S/C, Lower North East Rd",
        "suburb": "Dernancourt",
        "postcode": "5075",
        "state": "SA",
        "latitude": -34.862261,
        "longitude": 138.682428,
        "phone": "04 29630464",
        "brandId": 2,
        "brandName": "Coles Supermarkets",
        "storeRestrictions": {
            "isLiquorSold": true,
            "isTobaccoSold": true
        }
    },
    {
        "storeId": "414",
        "locationId": "0414CC0414",
        "storeName": "Coles St Agnes",
        "address": "1244 North East Road",
        "suburb": "St Agnes",
        "postcode": "5097",
        "state": "SA",
        "latitude": -34.821648,
        "longitude": 138.717464,
        "phone": "04 39271163",
        "brandId": 2,
        "brandName": "Coles Supermarkets",
        "storeRestrictions": {
            "isLiquorSold": true,
            "isTobaccoSold": false
        }
    },
    {
        "storeId": "401",
        "locationId": "0401CC0401",
        "storeName": "Coles Firle",
        "address": "Firle Plaza S/C, Cnr Glynburn Rd & Shelley St",
        "suburb": "Firle",
        "postcode": "5070",
        "state": "SA",
        "latitude": -34.905107,
        "longitude": 138.655247,
        "phone": "04 66 791302",
        "brandId": 2,
        "brandName": "Coles Supermarkets",
        "storeRestrictions": {
            "isLiquorSold": true,
            "isTobaccoSold": true
        }
    },
    {
        "storeId": "453",
        "locationId": "0453CC0453",
        "storeName": "Coles Burnside",
        "address": "Burnside Village S/C, 439 Portrush Rd",
        "suburb": "Glenside",
        "postcode": "5065",
        "state": "SA",
        "latitude": -34.942051,
        "longitude": 138.6409,
        "phone": "0434 855 797",
        "brandId": 2,
        "brandName": "Coles Supermarkets",
        "storeRestrictions": {
            "isLiquorSold": true,
            "isTobaccoSold": true
        }
    },
    {
        "storeId": "459",
        "locationId": "0459CC0459",
        "storeName": "Coles Tea Tree Plaza",
        "address": "Westfield S/C, 976 North East Rd",
        "suburb": "Modbury",
        "postcode": "5092",
        "state": "SA",
        "latitude": -34.83058,
        "longitude": 138.69353,
        "phone": "0466 727 273",
        "brandId": 2,
        "brandName": "Coles Supermarkets",
        "storeRestrictions": {
            "isLiquorSold": true,
            "isTobaccoSold": true
        }
    },
    {
        "storeId": "725",
        "locationId": "0725CC0725",
        "storeName": "Coles Glenfield Park",
        "address": "South City S/C, 1-7 Tanda Pl",
        "suburb": "Glenfield Park",
        "postcode": "2650",
        "state": "NSW",
        "latitude": -35.138312,
        "longitude": 147.332599,
        "phone": "04 6679 1306",
        "brandId": 2,
        "brandName": "Coles Supermarkets",
        "storeRestrictions": {
            "isLiquorSold": true,
            "isTobaccoSold": true
        }
    },
    {
        "storeId": "704",
        "locationId": "0704CC0704",
        "storeName": "Coles Wagga Wagga",
        "address": "Sturt Mall S/C, Cnr Forsyth Street & Baylis Street",
        "suburb": "Wagga Wagga",
        "postcode": "2650",
        "state": "NSW",
        "latitude": -35.113695,
        "longitude": 147.370571,
        "phone": "04 08496549",
        "brandId": 2,
        "brandName": "Coles Supermarkets",
        "storeRestrictions": {
            "isLiquorSold": true,
            "isTobaccoSold": true
        }
    },
    {
        "storeId": "7579",
        "locationId": "7579CC7579",
        "storeName": "Coles Narrandera",
        "address": "101 East Street",
        "suburb": "Narrandera",
        "postcode": "2700",
        "state": "NSW",
        "latitude": -34.745492,
        "longitude": 146.552898,
        "phone": "04 81479158",
        "brandId": 2,
        "brandName": "Coles Supermarkets",
        "storeRestrictions": {
            "isLiquorSold": true,
            "isTobaccoSold": true
        }
    },
    {
        "storeId": "757",
        "locationId": "0757CC0757",
        "storeName": "Coles Tumut",
        "address": "29-39 Russell St",
        "suburb": "Tumut",
        "postcode": "2720",
        "state": "NSW",
        "latitude": -35.300819,
        "longitude": 148.221303,
        "phone": "0466 727 904",
        "brandId": 2,
        "brandName": "Coles Supermarkets",
        "storeRestrictions": {
            "isLiquorSold": true,
            "isTobaccoSold": true
        }
    },
    {
        "storeId": "5784",
        "locationId": "5784CC5784",
        "storeName": "Coles Amaroo",
        "address": "11 Pioneer Street",
        "suburb": "Amaroo",
        "postcode": "2914",
        "state": "ACT",
        "latitude": -35.16484,
        "longitude": 149.131941,
        "phone": "04 3556 9422",
        "brandId": 2,
        "brandName": "Coles Supermarkets",
        "storeRestrictions": {
            "isLiquorSold": true,
            "isTobaccoSold": true
        }
    },
    {
        "storeId": "803",
        "locationId": "0803CC0803",
        "storeName": "Coles Gungahlin",
        "address": "Gungahlin Town Centre, Cnr Efkarpidis St & Gungahlin Pl",
        "suburb": "Gungahlin",
        "postcode": "2912",
        "state": "ACT",
        "latitude": -35.186052,
        "longitude": 149.135792,
        "phone": "0438 588 766",
        "brandId": 2,
        "brandName": "Coles Supermarkets",
        "storeRestrictions": {
            "isLiquorSold": true,
            "isTobaccoSold": true
        }
    },
    {
        "storeId": "4785",
        "locationId": "4785SD4785",
        "storeName": "Coles Kaleen - Service Desk",
        "address": "1 Maribyrnong Ave",
        "suburb": "Kaleen",
        "postcode": "2617",
        "state": "ACT",
        "latitude": -35.219886,
        "longitude": 149.102994,
        "phone": "0429 989 656",
        "brandId": 2,
        "brandName": "Coles Supermarkets",
        "storeRestrictions": {
            "isLiquorSold": true,
            "isTobaccoSold": true
        }
    },
    {
        "storeId": "779",
        "locationId": "0779CC0779",
        "storeName": "Coles Belconnen - Drive-through",
        "address": "Cnr Emu Bank Drv & Benjamin Way",
        "suburb": "Belconnen",
        "postcode": "2617",
        "state": "ACT",
        "latitude": -35.237998,
        "longitude": 149.064883,
        "phone": "0435 014 461",
        "brandId": 2,
        "brandName": "Coles Supermarkets",
        "storeRestrictions": {
            "isLiquorSold": true,
            "isTobaccoSold": true
        }
    },
    {
        "storeId": "748",
        "locationId": "0748SD0748",
        "storeName": "Coles Jamison - Service Desk",
        "address": "Jamison S/C, Redfern St",
        "suburb": "Macquarie",
        "postcode": "2614",
        "state": "ACT",
        "latitude": -35.253158,
        "longitude": 149.070363,
        "phone": "0429 989 656",
        "brandId": 2,
        "brandName": "Coles Supermarkets",
        "storeRestrictions": {
            "isLiquorSold": true,
            "isTobaccoSold": true
        }
    },
    {
        "storeId": "4814",
        "locationId": "4814CC4814",
        "storeName": "Coles Dickson",
        "address": "36 Badham Street",
        "suburb": "Dickson",
        "postcode": "2602",
        "state": "ACT",
        "latitude": -35.249082,
        "longitude": 149.135045,
        "phone": "0466 497 812",
        "brandId": 2,
        "brandName": "Coles Supermarkets",
        "storeRestrictions": {
            "isLiquorSold": true,
            "isTobaccoSold": true
        }
    },
    {
        "storeId": "802",
        "locationId": "0802CC0802",
        "storeName": "Coles Goulburn",
        "address": "Argule Mall S/C Cnr Clifford & Auburn Sts",
        "suburb": "Goulburn",
        "postcode": "2580",
        "state": "NSW",
        "latitude": -34.752749,
        "longitude": 149.720723,
        "phone": "0439 629 689",
        "brandId": 2,
        "brandName": "Coles Supermarkets",
        "storeRestrictions": {
            "isLiquorSold": true,
            "isTobaccoSold": true
        }
    },
    {
        "storeId": "7591",
        "locationId": "7591CC7591",
        "storeName": "Coles Vincentia",
        "address": "29 The Wool Road",
        "suburb": "Vincentia",
        "postcode": "2540",
        "state": "NSW",
        "latitude": -35.069971,
        "longitude": 150.674248,
        "phone": "0437 474 507",
        "brandId": 2,
        "brandName": "Coles Supermarkets",
        "storeRestrictions": {
            "isLiquorSold": true,
            "isTobaccoSold": true
        }
    },
    {
        "storeId": "780",
        "locationId": "0780CC0780",
        "storeName": "Coles Nowra",
        "address": "Cnr Kinghorne & Junction Sts",
        "suburb": "Nowra",
        "postcode": "2541",
        "state": "NSW",
        "latitude": -34.874208,
        "longitude": 150.60336,
        "phone": "04 3485 7207",
        "brandId": 2,
        "brandName": "Coles Supermarkets",
        "storeRestrictions": {
            "isLiquorSold": true,
            "isTobaccoSold": true
        }
    },
    {
        "storeId": "310",
        "locationId": "0310CC0310",
        "storeName": "Coles Margaret River",
        "address": "132 Bussell Hwy",
        "suburb": "Margaret River",
        "postcode": "6285",
        "state": "WA",
        "latitude": -33.951776,
        "longitude": 115.073286,
        "phone": "04 35429262",
        "brandId": 2,
        "brandName": "Coles Supermarkets",
        "storeRestrictions": {
            "isLiquorSold": true,
            "isTobaccoSold": true
        }
    },
    {
        "storeId": "268",
        "locationId": "0268CC0268",
        "storeName": "Coles Vasse",
        "address": "Lot 101 Napoleon Promenade",
        "suburb": "Vasse",
        "postcode": "6280",
        "state": "WA",
        "latitude": -33.674076,
        "longitude": 115.250141,
        "phone": "04 18740032",
        "brandId": 2,
        "brandName": "Coles Supermarkets",
        "storeRestrictions": {
            "isLiquorSold": true,
            "isTobaccoSold": true
        }
    },
    {
        "storeId": "297",
        "locationId": "0297CC0297",
        "storeName": "Coles Dunsborough - Drive-through",
        "address": "Lot 107 Dunn Bay Rd",
        "suburb": "Dunsborough",
        "postcode": "6281",
        "state": "WA",
        "latitude": -33.615835,
        "longitude": 115.105632,
        "phone": "04 81479155",
        "brandId": 2,
        "brandName": "Coles Supermarkets",
        "storeRestrictions": {
            "isLiquorSold": true,
            "isTobaccoSold": true
        }
    },
    {
        "storeId": "4836",
        "locationId": "4836CC4836",
        "storeName": "Coles Busselton Central",
        "address": "Busselton Central Shopping Centre, 30 Kent Street",
        "suburb": "Busselton",
        "postcode": "6280",
        "state": "WA",
        "latitude": -33.651227,
        "longitude": 115.342005,
        "phone": "0447 203 540",
        "brandId": 2,
        "brandName": "Coles Supermarkets",
        "storeRestrictions": {
            "isLiquorSold": true,
            "isTobaccoSold": true
        }
    },
    {
        "storeId": "388",
        "locationId": "0388CC0388",
        "storeName": "Coles Manjimup",
        "address": "Cnr Rose & Ipsen Sts",
        "suburb": "Manjimup",
        "postcode": "6258",
        "state": "WA",
        "latitude": -34.242157,
        "longitude": 116.144215,
        "phone": "04 07611010",
        "brandId": 2,
        "brandName": "Coles Supermarkets",
        "storeRestrictions": {
            "isLiquorSold": false,
            "isTobaccoSold": true
        }
    },
    {
        "storeId": "451",
        "locationId": "0451CC0451",
        "storeName": "Coles Berri",
        "address": "Riverland Plaza S/C, Kay Ave",
        "suburb": "Berri",
        "postcode": "5343",
        "state": "SA",
        "latitude": -34.280269,
        "longitude": 140.607884,
        "phone": "04 38971860",
        "brandId": 2,
        "brandName": "Coles Supermarkets",
        "storeRestrictions": {
            "isLiquorSold": true,
            "isTobaccoSold": true
        }
    },
    {
        "storeId": "594",
        "locationId": "0594CC0594",
        "storeName": "Coles Mildura (Eighth St)",
        "address": "45-65 Lime Avenue",
        "suburb": "Mildura",
        "postcode": "3500",
        "state": "VIC",
        "latitude": -34.183387,
        "longitude": 142.160164,
        "phone": "0409 288 989",
        "brandId": 2,
        "brandName": "Coles Supermarkets",
        "storeRestrictions": {
            "isLiquorSold": true,
            "isTobaccoSold": true
        }
    },
    {
        "storeId": "7840",
        "locationId": "7840CC7840",
        "storeName": "Coles Mildura Fifteenth St",
        "address": "832 Fifteenth Street",
        "suburb": "Mildura",
        "postcode": "3500",
        "state": "VIC",
        "latitude": -34.210715,
        "longitude": 142.140237,
        "phone": "0435 387 402",
        "brandId": 2,
        "brandName": "Coles Supermarkets",
        "storeRestrictions": {
            "isLiquorSold": true,
            "isTobaccoSold": true
        }
    },
    {
        "storeId": "838",
        "locationId": "0838CC0838",
        "storeName": "Coles Griffith - Drive-through",
        "address": "Cnr Yambil & Crossing Sts",
        "suburb": "Griffith",
        "postcode": "2680",
        "state": "NSW",
        "latitude": -34.291006,
        "longitude": 146.053549,
        "phone": "0437 356 539",
        "brandId": 2,
        "brandName": "Coles Supermarkets",
        "storeRestrictions": {
            "isLiquorSold": true,
            "isTobaccoSold": true
        }
    },
    {
        "storeId": "5749",
        "locationId": "5749CC5749",
        "storeName": "Coles Cowra",
        "address": "Metro Plaza, Kendall St",
        "suburb": "Cowra",
        "postcode": "2794",
        "state": "NSW",
        "latitude": -33.834723,
        "longitude": 148.688984,
        "phone": "0466 725 791",
        "brandId": 2,
        "brandName": "Coles Supermarkets",
        "storeRestrictions": {
            "isLiquorSold": true,
            "isTobaccoSold": true
        }
    },
    {
        "storeId": "921",
        "locationId": "0921CC0921",
        "storeName": "Coles Katoomba",
        "address": "34 Parke Street",
        "suburb": "Katoomba",
        "postcode": "2780",
        "state": "NSW",
        "latitude": -33.714122,
        "longitude": 150.310574,
        "phone": "0466 791 320",
        "brandId": 2,
        "brandName": "Coles Supermarkets",
        "storeRestrictions": {
            "isLiquorSold": true,
            "isTobaccoSold": true
        }
    },
    {
        "storeId": "7558",
        "locationId": "7558CC7558",
        "storeName": "Coles Revesby",
        "address": "20-30 Blamey Street Revesby",
        "suburb": "Revesby",
        "postcode": "2212",
        "state": "NSW",
        "latitude": -33.953336,
        "longitude": 151.013292,
        "phone": "0466 791 351",
        "brandId": 2,
        "brandName": "Coles Supermarkets",
        "storeRestrictions": {
            "isLiquorSold": true,
            "isTobaccoSold": true
        }
    },
    {
        "storeId": "842",
        "locationId": "0842CC0842",
        "storeName": "Coles Wattle Grove",
        "address": "Wattle Grove S/C, Cnr Australis Ave & Village Way",
        "suburb": "Wattle Grove",
        "postcode": "2173",
        "state": "NSW",
        "latitude": -33.955138,
        "longitude": 150.943204,
        "phone": "0466 727 910",
        "brandId": 2,
        "brandName": "Coles Supermarkets",
        "storeRestrictions": {
            "isLiquorSold": false,
            "isTobaccoSold": true
        }
    },
    {
        "storeId": "783",
        "locationId": "0783CC0783",
        "storeName": "Coles Kareela",
        "address": "Cnr Bates Dve & Freya St",
        "suburb": "Kareela",
        "postcode": "2232",
        "state": "NSW",
        "latitude": -34.01805,
        "longitude": 151.080207,
        "phone": "0466 791 319",
        "brandId": 2,
        "brandName": "Coles Supermarkets",
        "storeRestrictions": {
            "isLiquorSold": true,
            "isTobaccoSold": true
        }
    },
    {
        "storeId": "793",
        "locationId": "0793CC0793",
        "storeName": "Coles Engadine",
        "address": "18-26 Waratah Road",
        "suburb": "Engadine",
        "postcode": "2233",
        "state": "NSW",
        "latitude": -34.064788,
        "longitude": 151.010483,
        "phone": "0419 809 942",
        "brandId": 2,
        "brandName": "Coles Supermarkets",
        "storeRestrictions": {
            "isLiquorSold": true,
            "isTobaccoSold": true
        }
    },
    {
        "storeId": "5588",
        "locationId": "5588CC5588",
        "storeName": "Coles Kirrawee",
        "address": "566-594 Princess Hwy",
        "suburb": "Kirrawee",
        "postcode": "2232",
        "state": "NSW",
        "latitude": -34.033525,
        "longitude": 151.074406,
        "phone": "02 9575 1460",
        "brandId": 2,
        "brandName": "Coles Supermarkets",
        "storeRestrictions": {
            "isLiquorSold": true,
            "isTobaccoSold": true
        }
    },
    {
        "storeId": "327",
        "locationId": "0327CC0327",
        "storeName": "Coles Australind",
        "address": "Australind S/C, Cnr Old Coast & Paris Rds",
        "suburb": "Australind",
        "postcode": "6233",
        "state": "WA",
        "latitude": -33.279791,
        "longitude": 115.715067,
        "phone": "04 07591035",
        "brandId": 2,
        "brandName": "Coles Supermarkets",
        "storeRestrictions": {
            "isLiquorSold": false,
            "isTobaccoSold": true
        }
    },
    {
        "storeId": "390",
        "locationId": "0390CC0390",
        "storeName": "Coles Collie",
        "address": "Collie S/C, 49 Johnston St",
        "suburb": "Collie",
        "postcode": "6225",
        "state": "WA",
        "latitude": -33.357948,
        "longitude": 116.152395,
        "phone": "04 00873197",
        "brandId": 2,
        "brandName": "Coles Supermarkets",
        "storeRestrictions": {
            "isLiquorSold": true,
            "isTobaccoSold": true
        }
    },
    {
        "storeId": "293",
        "locationId": "0293CC0293",
        "storeName": "Coles Pinjarra",
        "address": "Cnr George & James Sts",
        "suburb": "Pinjarra",
        "postcode": "6208",
        "state": "WA",
        "latitude": -32.628811,
        "longitude": 115.873633,
        "phone": "04 66791346",
        "brandId": 2,
        "brandName": "Coles Supermarkets",
        "storeRestrictions": {
            "isLiquorSold": true,
            "isTobaccoSold": true
        }
    },
    {
        "storeId": "493",
        "locationId": "0493CC0493",
        "storeName": "Coles Eaton Fair",
        "address": "10 Council Drive",
        "suburb": "Eaton",
        "postcode": "6322",
        "state": "WA",
        "latitude": -33.318635,
        "longitude": 115.716424,
        "phone": "04 66 791295",
        "brandId": 2,
        "brandName": "Coles Supermarkets",
        "storeRestrictions": {
            "isLiquorSold": false,
            "isTobaccoSold": true
        }
    },
    {
        "storeId": "339",
        "locationId": "0339CC0339",
        "storeName": "Coles Bunbury Centrepoint",
        "address": "Corner Blair Street and Stephens Street",
        "suburb": "Bunbury",
        "postcode": "6230",
        "state": "WA",
        "latitude": -33.325927,
        "longitude": 115.639856,
        "phone": "0471 478 960",
        "brandId": 2,
        "brandName": "Coles Supermarkets",
        "storeRestrictions": {
            "isLiquorSold": true,
            "isTobaccoSold": true
        }
    },
    {
        "storeId": "396",
        "locationId": "0396CC0396",
        "storeName": "Coles Narrogin",
        "address": "Cnr Earl & Ensign Sts",
        "suburb": "Narrogin",
        "postcode": "6312",
        "state": "WA",
        "latitude": -32.932431,
        "longitude": 117.176687,
        "phone": "04 09116423",
        "brandId": 2,
        "brandName": "Coles Supermarkets",
        "storeRestrictions": {
            "isLiquorSold": false,
            "isTobaccoSold": true
        }
    },
    {
        "storeId": "4966",
        "locationId": "4966CC4966",
        "storeName": "Coles Whyalla",
        "address": "Cnr Mcdouall Stuart Ave & Nicolson Ave",
        "suburb": "Whyalla",
        "postcode": "5600",
        "state": "SA",
        "latitude": -33.027315,
        "longitude": 137.531875,
        "phone": "04 17595893",
        "brandId": 2,
        "brandName": "Coles Supermarkets",
        "storeRestrictions": {
            "isLiquorSold": false,
            "isTobaccoSold": false
        }
    },
    {
        "storeId": "442",
        "locationId": "0442CC0442",
        "storeName": "Coles Port Pirie",
        "address": "Pirie Plaza S/C, Grey Tce",
        "suburb": "Port Pirie",
        "postcode": "5540",
        "state": "SA",
        "latitude": -33.191796,
        "longitude": 138.006312,
        "phone": "04 47854615",
        "brandId": 2,
        "brandName": "Coles Supermarkets",
        "storeRestrictions": {
            "isLiquorSold": true,
            "isTobaccoSold": false
        }
    },
    {
        "storeId": "5757",
        "locationId": "5757CC5757",
        "storeName": "Coles Parkes",
        "address": "31 Bogan Street",
        "suburb": "Parkes",
        "postcode": "2870",
        "state": "NSW",
        "latitude": -33.134935,
        "longitude": 148.173245,
        "phone": "0439 675 622",
        "brandId": 2,
        "brandName": "Coles Supermarkets",
        "storeRestrictions": {
            "isLiquorSold": true,
            "isTobaccoSold": true
        }
    },
    {
        "storeId": "835",
        "locationId": "0835CC0835",
        "storeName": "Coles Orange",
        "address": "Cnr Anson & Byng Sts",
        "suburb": "Orange",
        "postcode": "2800",
        "state": "NSW",
        "latitude": -33.282639,
        "longitude": 149.09948,
        "phone": "0409 362 153",
        "brandId": 2,
        "brandName": "Coles Supermarkets",
        "storeRestrictions": {
            "isLiquorSold": true,
            "isTobaccoSold": true
        }
    },
    {
        "storeId": "5714",
        "locationId": "5714CC5714",
        "storeName": "Coles Wellington",
        "address": "128-140 Percy St",
        "suburb": "Wellington",
        "postcode": "2820",
        "state": "NSW",
        "latitude": -32.554805,
        "longitude": 148.942787,
        "phone": "04 81060578",
        "brandId": 2,
        "brandName": "Coles Supermarkets",
        "storeRestrictions": {
            "isLiquorSold": false,
            "isTobaccoSold": true
        }
    },
    {
        "storeId": "864",
        "locationId": "0864CC0864",
        "storeName": "Coles Cessnock",
        "address": "1 North Ave",
        "suburb": "Cessnock",
        "postcode": "2325",
        "state": "NSW",
        "latitude": -32.835771,
        "longitude": 151.35427,
        "phone": "0439 617 084",
        "brandId": 2,
        "brandName": "Coles Supermarkets",
        "storeRestrictions": {
            "isLiquorSold": true,
            "isTobaccoSold": true
        }
    },
    {
        "storeId": "950",
        "locationId": "0950CC0950",
        "storeName": "Coles Morisset",
        "address": "35 Yambo St",
        "suburb": "Morisset",
        "postcode": "2264",
        "state": "NSW",
        "latitude": -33.106437,
        "longitude": 151.487967,
        "phone": "0436 471 367",
        "brandId": 2,
        "brandName": "Coles Supermarkets",
        "storeRestrictions": {
            "isLiquorSold": true,
            "isTobaccoSold": true
        }
    },
    {
        "storeId": "999",
        "locationId": "0999CC0999",
        "storeName": "Coles Kurri Kurri",
        "address": "259-277 Lang Street",
        "suburb": "Kurri Kurri",
        "postcode": "2327",
        "state": "NSW",
        "latitude": -32.819944,
        "longitude": 151.478517,
        "phone": "0438 174 448",
        "brandId": 2,
        "brandName": "Coles Supermarkets",
        "storeRestrictions": {
            "isLiquorSold": true,
            "isTobaccoSold": true
        }
    },
    {
        "storeId": "5771",
        "locationId": "5771CC5771",
        "storeName": "Coles Bonnells Bay",
        "address": "330 Fishery Point Rd",
        "suburb": "Bonnells Bay",
        "postcode": "2264",
        "state": "NSW",
        "latitude": -33.11083,
        "longitude": 151.531955,
        "phone": "0466 791 263",
        "brandId": 2,
        "brandName": "Coles Supermarkets",
        "storeRestrictions": {
            "isLiquorSold": false,
            "isTobaccoSold": true
        }
    },
    {
        "storeId": "7702",
        "locationId": "7702CC7702",
        "storeName": "Coles Huntlee - Drive-through",
        "address": "Wine Country Drive, Huntlee Town Central",
        "suburb": "Huntlee",
        "postcode": "2335",
        "state": "NSW",
        "latitude": -32.67221,
        "longitude": 151.34969,
        "phone": "04 8146 9970",
        "brandId": 2,
        "brandName": "Coles Supermarkets",
        "storeRestrictions": {
            "isLiquorSold": true,
            "isTobaccoSold": true
        }
    },
    {
        "storeId": "925",
        "locationId": "0925CC0925",
        "storeName": "Coles Wyong",
        "address": "Cnr Alison Rd & Henley St",
        "suburb": "Wyong",
        "postcode": "2259",
        "state": "NSW",
        "latitude": -33.283465,
        "longitude": 151.42315,
        "phone": "04 810 60592",
        "brandId": 2,
        "brandName": "Coles Supermarkets",
        "storeRestrictions": {
            "isLiquorSold": true,
            "isTobaccoSold": true
        }
    },
    {
        "storeId": "752",
        "locationId": "0752CC0752",
        "storeName": "Coles Tuggerah",
        "address": "Westfield S/C, Cnr Gavenlock & Cobbs Rds",
        "suburb": "Tuggerah",
        "postcode": "2259",
        "state": "NSW",
        "latitude": -33.308457,
        "longitude": 151.412033,
        "phone": "0417 170 482",
        "brandId": 2,
        "brandName": "Coles Supermarkets",
        "storeRestrictions": {
            "isLiquorSold": true,
            "isTobaccoSold": true
        }
    },
    {
        "storeId": "992",
        "locationId": "0992CC0992",
        "storeName": "Coles Wadalba",
        "address": "1 Edward Stinson St",
        "suburb": "Wadalba",
        "postcode": "2259",
        "state": "NSW",
        "latitude": -33.264197,
        "longitude": 151.464648,
        "phone": "0418 664 697",
        "brandId": 2,
        "brandName": "Coles Supermarkets",
        "storeRestrictions": {
            "isLiquorSold": true,
            "isTobaccoSold": true
        }
    },
    {
        "storeId": "882",
        "locationId": "0882CC0882",
        "storeName": "Coles San Remo",
        "address": "17-35 Pacific Hwy",
        "suburb": "San Remo",
        "postcode": "2262",
        "state": "NSW",
        "latitude": -33.215429,
        "longitude": 151.510841,
        "phone": "0466 791 354",
        "brandId": 2,
        "brandName": "Coles Supermarkets",
        "storeRestrictions": {
            "isLiquorSold": false,
            "isTobaccoSold": true
        }
    },
    {
        "storeId": "993",
        "locationId": "0993CC0993",
        "storeName": "Coles Market Town",
        "address": "Cnr King & National Park Sts",
        "suburb": "Newcastle West",
        "postcode": "2302",
        "state": "NSW",
        "latitude": -32.93369,
        "longitude": 151.763569,
        "phone": "0466 725 844",
        "brandId": 2,
        "brandName": "Coles Supermarkets",
        "storeRestrictions": {
            "isLiquorSold": true,
            "isTobaccoSold": true
        }
    },
    {
        "storeId": "813",
        "locationId": "0813CC0813",
        "storeName": "Coles Newcastle Junction",
        "address": "Junction Fair S/C, 204 Union Street",
        "suburb": "Newcastle",
        "postcode": "2300",
        "state": "NSW",
        "latitude": -32.938398,
        "longitude": 151.758625,
        "phone": "0481 479 159",
        "brandId": 2,
        "brandName": "Coles Supermarkets",
        "storeRestrictions": {
            "isLiquorSold": true,
            "isTobaccoSold": true
        }
    },
    {
        "storeId": "5798",
        "locationId": "5798CC5798",
        "storeName": "Coles Mayfield",
        "address": "Maitland Rd",
        "suburb": "Mayfield",
        "postcode": "2304",
        "state": "NSW",
        "latitude": -32.901117,
        "longitude": 151.742161,
        "phone": "0403 094 349",
        "brandId": 2,
        "brandName": "Coles Supermarkets",
        "storeRestrictions": {
            "isLiquorSold": true,
            "isTobaccoSold": true
        }
    },
    {
        "storeId": "833",
        "locationId": "0833CC0833",
        "storeName": "Coles Kotara",
        "address": "Garden City S/C, Cnr Northcott Dve & Park Ave",
        "suburb": "Kotara",
        "postcode": "2289",
        "state": "NSW",
        "latitude": -32.94208,
        "longitude": 151.710545,
        "phone": "0434 848 695",
        "brandId": 2,
        "brandName": "Coles Supermarkets",
        "storeRestrictions": {
            "isLiquorSold": true,
            "isTobaccoSold": true
        }
    },
    {
        "storeId": "746",
        "locationId": "0746CC0746",
        "storeName": "Coles Waratah",
        "address": "91-111 Turton Rd",
        "suburb": "Waratah",
        "postcode": "2298",
        "state": "NSW",
        "latitude": -32.907028,
        "longitude": 151.726479,
        "phone": "0466 791 371",
        "brandId": 2,
        "brandName": "Coles Supermarkets",
        "storeRestrictions": {
            "isLiquorSold": true,
            "isTobaccoSold": true
        }
    },
    {
        "storeId": "995",
        "locationId": "0995CC0995",
        "storeName": "Coles Charlestown",
        "address": "Pearson St, Charlestown Square",
        "suburb": "Charlestown",
        "postcode": "2290",
        "state": "NSW",
        "latitude": -32.963731,
        "longitude": 151.693007,
        "phone": "0466 791 276",
        "brandId": 2,
        "brandName": "Coles Supermarkets",
        "storeRestrictions": {
            "isLiquorSold": true,
            "isTobaccoSold": true
        }
    },
    {
        "storeId": "353",
        "locationId": "0353CC0353",
        "storeName": "Coles Forrestfield",
        "address": "Forestfield S/C, Strelitzia Ave",
        "suburb": "Forrestfield",
        "postcode": "6058",
        "state": "WA",
        "latitude": -31.987123,
        "longitude": 116.009293,
        "phone": "0466 725 807",
        "brandId": 2,
        "brandName": "Coles Supermarkets",
        "storeRestrictions": {
            "isLiquorSold": true,
            "isTobaccoSold": true
        }
    },
    {
        "storeId": "322",
        "locationId": "0322CC0322",
        "storeName": "Coles Carousel",
        "address": "Carousel S/C, 1382 Albany Hwy",
        "suburb": "Cannington",
        "postcode": "6107",
        "state": "WA",
        "latitude": -32.018861,
        "longitude": 115.935902,
        "phone": "04 07496513",
        "brandId": 2,
        "brandName": "Coles Supermarkets",
        "storeRestrictions": {
            "isLiquorSold": true,
            "isTobaccoSold": true
        }
    },
    {
        "storeId": "394",
        "locationId": "0394CC0394",
        "storeName": "Coles Kalamunda",
        "address": "Cnr Central Rd & Mead St",
        "suburb": "Kalamunda",
        "postcode": "6076",
        "state": "WA",
        "latitude": -31.972943,
        "longitude": 116.059463,
        "phone": "04 07931745",
        "brandId": 2,
        "brandName": "Coles Supermarkets",
        "storeRestrictions": {
            "isLiquorSold": true,
            "isTobaccoSold": true
        }
    },
    {
        "storeId": "337",
        "locationId": "0337CC0337",
        "storeName": "Coles Maddington - Drive-through",
        "address": "Corner Attfield Street and Olga Road",
        "suburb": "Maddington",
        "postcode": "6109",
        "state": "WA",
        "latitude": -32.053377,
        "longitude": 115.978018,
        "phone": "0408 306 743",
        "brandId": 2,
        "brandName": "Coles Supermarkets",
        "storeRestrictions": {
            "isLiquorSold": true,
            "isTobaccoSold": true
        }
    },
    {
        "storeId": "4824",
        "locationId": "4824CC4824",
        "storeName": "Coles Belmont(WA)",
        "address": "227 Belmont Avenue",
        "suburb": "Cloverdale",
        "postcode": "6105",
        "state": "WA",
        "latitude": -31.964239,
        "longitude": 115.934088,
        "phone": "0466 791 258",
        "brandId": 2,
        "brandName": "Coles Supermarkets",
        "storeRestrictions": {
            "isLiquorSold": true,
            "isTobaccoSold": true
        }
    },
    {
        "storeId": "285",
        "locationId": "0285CC0285",
        "storeName": "Coles High Wycombe",
        "address": "530 Kalamunda Rd",
        "suburb": "High Wycombe",
        "postcode": "6057",
        "state": "WA",
        "latitude": -31.935324,
        "longitude": 116.004731,
        "phone": "04 66791311",
        "brandId": 2,
        "brandName": "Coles Supermarkets",
        "storeRestrictions": {
            "isLiquorSold": true,
            "isTobaccoSold": true
        }
    },
    {
        "storeId": "384",
        "locationId": "0384CC0384",
        "storeName": "Coles Gosnells",
        "address": "2160 Albany Hwy",
        "suburb": "Gosnells",
        "postcode": "6110",
        "state": "WA",
        "latitude": -32.069064,
        "longitude": 116.000102,
        "phone": "0417 719 507",
        "brandId": 2,
        "brandName": "Coles Supermarkets",
        "storeRestrictions": {
            "isLiquorSold": true,
            "isTobaccoSold": true
        }
    },
    {
        "storeId": "492",
        "locationId": "0492CC0492",
        "storeName": "Coles Northam",
        "address": "10 Beamish Avenue",
        "suburb": "Northam",
        "postcode": "6401",
        "state": "WA",
        "latitude": -31.657483,
        "longitude": 116.67049,
        "phone": "04 07862391",
        "brandId": 2,
        "brandName": "Coles Supermarkets",
        "storeRestrictions": {
            "isLiquorSold": false,
            "isTobaccoSold": true
        }
    },
    {
        "storeId": "4960",
        "locationId": "4960CC4960",
        "storeName": "Coles Broken Hill",
        "address": "7 Gossan Street",
        "suburb": "Broken Hill",
        "postcode": "2880",
        "state": "NSW",
        "latitude": -31.965069,
        "longitude": 141.454924,
        "phone": "04 47838498",
        "brandId": 2,
        "brandName": "Coles Supermarkets",
        "storeRestrictions": {
            "isLiquorSold": true,
            "isTobaccoSold": true
        }
    },
    {
        "storeId": "5755",
        "locationId": "5755CC5755",
        "storeName": "Coles Narromine",
        "address": "Dandaloo St",
        "suburb": "Narromine",
        "postcode": "2821",
        "state": "NSW",
        "latitude": -32.23222,
        "longitude": 148.238823,
        "phone": "04 81459970",
        "brandId": 2,
        "brandName": "Coles Supermarkets",
        "storeRestrictions": {
            "isLiquorSold": true,
            "isTobaccoSold": true
        }
    },
    {
        "storeId": "788",
        "locationId": "0788CC0788",
        "storeName": "Coles Dubbo - Drive-through",
        "address": "Dubbo S/C, Cnr Bultje & Macquarie Sts",
        "suburb": "Dubbo",
        "postcode": "2830",
        "state": "NSW",
        "latitude": -32.249775,
        "longitude": 148.599261,
        "phone": "0435 476 662",
        "brandId": 2,
        "brandName": "Coles Supermarkets",
        "storeRestrictions": {
            "isLiquorSold": true,
            "isTobaccoSold": true
        }
    },
    {
        "storeId": "939",
        "locationId": "0939CC0939",
        "storeName": "Coles Scone",
        "address": "Kelly St",
        "suburb": "Scone",
        "postcode": "2337",
        "state": "NSW",
        "latitude": -32.052469,
        "longitude": 150.866274,
        "phone": "0435 568 886",
        "brandId": 2,
        "brandName": "Coles Supermarkets",
        "storeRestrictions": {
            "isLiquorSold": true,
            "isTobaccoSold": true
        }
    },
    {
        "storeId": "5776",
        "locationId": "5776CC5776",
        "storeName": "Coles Muswellbrook",
        "address": "19-29 Rutherford Rd",
        "suburb": "Muswellbrook",
        "postcode": "2333",
        "state": "NSW",
        "latitude": -32.282348,
        "longitude": 150.895945,
        "phone": "0447 839 407",
        "brandId": 2,
        "brandName": "Coles Supermarkets",
        "storeRestrictions": {
            "isLiquorSold": true,
            "isTobaccoSold": true
        }
    },
    {
        "storeId": "967",
        "locationId": "0967CC0967",
        "storeName": "Coles Taree Manning Mall",
        "address": "Manning Mall",
        "suburb": "Taree",
        "postcode": "2430",
        "state": "NSW",
        "latitude": -31.910009,
        "longitude": 152.460466,
        "phone": "0437 594 453",
        "brandId": 2,
        "brandName": "Coles Supermarkets",
        "storeRestrictions": {
            "isLiquorSold": true,
            "isTobaccoSold": true
        }
    },
    {
        "storeId": "901",
        "locationId": "0901CC0901",
        "storeName": "Coles Forster",
        "address": "Forster Village S/C, Cnr Breeze Pde & Water St",
        "suburb": "Forster",
        "postcode": "2428",
        "state": "NSW",
        "latitude": -32.200096,
        "longitude": 152.519982,
        "phone": "0447 851 691",
        "brandId": 2,
        "brandName": "Coles Supermarkets",
        "storeRestrictions": {
            "isLiquorSold": true,
            "isTobaccoSold": true
        }
    },
    {
        "storeId": "4837",
        "locationId": "4837CC4837",
        "storeName": "Coles Kalgoorlie Cassidy St",
        "address": "145 Egan Street",
        "suburb": "Kalgoorlie",
        "postcode": "6430",
        "state": "WA",
        "latitude": -30.74918,
        "longitude": 121.47365,
        "phone": "0481 467 780",
        "brandId": 2,
        "brandName": "Coles Supermarkets",
        "storeRestrictions": {
            "isLiquorSold": false,
            "isTobaccoSold": true
        }
    },
    {
        "storeId": "4522",
        "locationId": "4522CC4522",
        "storeName": "Coles Gunnedah",
        "address": "80-98 Little Connadilly St",
        "suburb": "Gunnedah",
        "postcode": "2380",
        "state": "NSW",
        "latitude": -30.975586,
        "longitude": 150.252202,
        "phone": "0466 725 821",
        "brandId": 2,
        "brandName": "Coles Supermarkets",
        "storeRestrictions": {
            "isLiquorSold": false,
            "isTobaccoSold": true
        }
    },
    {
        "storeId": "8770",
        "locationId": "8770CC8770",
        "storeName": "Coles Tamworth North",
        "address": "Cnr Peel & Marius Sts",
        "suburb": "Tamworth",
        "postcode": "2340",
        "state": "NSW",
        "latitude": -31.077159,
        "longitude": 150.917864,
        "phone": "0466 791 361",
        "brandId": 2,
        "brandName": "Coles Supermarkets",
        "storeRestrictions": {
            "isLiquorSold": false,
            "isTobaccoSold": true
        }
    },
    {
        "storeId": "8761",
        "locationId": "8761CC8761",
        "storeName": "Coles Tamworth",
        "address": "Cnr Peel & White Sts",
        "suburb": "Tamworth",
        "postcode": "2340",
        "state": "NSW",
        "latitude": -31.09227,
        "longitude": 150.931969,
        "phone": "0435 273 655",
        "brandId": 2,
        "brandName": "Coles Supermarkets",
        "storeRestrictions": {
            "isLiquorSold": true,
            "isTobaccoSold": true
        }
    },
    {
        "storeId": "5796",
        "locationId": "5796CC5796",
        "storeName": "Coles South Tamworth",
        "address": "Kathleen Street",
        "suburb": "South Tamworth",
        "postcode": "2340",
        "state": "NSW",
        "latitude": -31.104636,
        "longitude": 150.918802,
        "phone": "042 7338721",
        "brandId": 2,
        "brandName": "Coles Supermarkets",
        "storeRestrictions": {
            "isLiquorSold": true,
            "isTobaccoSold": true
        }
    },
    {
        "storeId": "5678",
        "locationId": "5678CC5678",
        "storeName": "Coles South West Rock",
        "address": "255-279 Gregory St",
        "suburb": "South West Rocks",
        "postcode": "2431",
        "state": "NSW",
        "latitude": -30.907424,
        "longitude": 153.042224,
        "phone": "04 791 755 10",
        "brandId": 2,
        "brandName": "Coles Supermarkets",
        "storeRestrictions": {
            "isLiquorSold": true,
            "isTobaccoSold": true
        }
    },
    {
        "storeId": "5680",
        "locationId": "5680CC5680",
        "storeName": "Coles Kempsey",
        "address": "2 Belgrave St",
        "suburb": "Kempsey",
        "postcode": "2440",
        "state": "NSW",
        "latitude": -31.081116,
        "longitude": 152.841772,
        "phone": "0439 637 225",
        "brandId": 2,
        "brandName": "Coles Supermarkets",
        "storeRestrictions": {
            "isLiquorSold": true,
            "isTobaccoSold": true
        }
    },
    {
        "storeId": "5686",
        "locationId": "5686CC5686",
        "storeName": "Coles Port Macquarie",
        "address": "28 Hayward St",
        "suburb": "Port Macquarie",
        "postcode": "2444",
        "state": "NSW",
        "latitude": -31.433929,
        "longitude": 152.908166,
        "phone": "0434 965 921",
        "brandId": 2,
        "brandName": "Coles Supermarkets",
        "storeRestrictions": {
            "isLiquorSold": true,
            "isTobaccoSold": true
        }
    },
    {
        "storeId": "8769",
        "locationId": "8769CC8769",
        "storeName": "Coles Narrabri",
        "address": "154 Maitland St",
        "suburb": "Narrabri",
        "postcode": "2390",
        "state": "NSW",
        "latitude": -30.324301,
        "longitude": 149.782715,
        "phone": "0428 889 645",
        "brandId": 2,
        "brandName": "Coles Supermarkets",
        "storeRestrictions": {
            "isLiquorSold": true,
            "isTobaccoSold": true
        }
    },
    {
        "storeId": "4444",
        "locationId": "4444CC4444",
        "storeName": "Coles Inverell - Drive-through",
        "address": "12 Byron Street",
        "suburb": "Inverell",
        "postcode": "2360",
        "state": "NSW",
        "latitude": -29.773954,
        "longitude": 151.110054,
        "phone": "04 66727924",
        "brandId": 2,
        "brandName": "Coles Supermarkets",
        "storeRestrictions": {
            "isLiquorSold": true,
            "isTobaccoSold": true
        }
    },
    {
        "storeId": "5597",
        "locationId": "5597CC5597",
        "storeName": "Coles Glen Innes",
        "address": "357 Grey St",
        "suburb": "Glen Innes",
        "postcode": "2370",
        "state": "NSW",
        "latitude": -29.739455,
        "longitude": 151.735661,
        "phone": "04 667 258 08",
        "brandId": 2,
        "brandName": "Coles Supermarkets",
        "storeRestrictions": {
            "isLiquorSold": false,
            "isTobaccoSold": true
        }
    },
    {
        "storeId": "5681",
        "locationId": "5681CC5681",
        "storeName": "Coles Moonee Beach",
        "address": "Cnr Pacific Hwy & Moonee Beach Rd",
        "suburb": "Moonee Beach",
        "postcode": "2450",
        "state": "NSW",
        "latitude": -30.204838,
        "longitude": 153.149308,
        "phone": "0466 727 931",
        "brandId": 2,
        "brandName": "Coles Supermarkets",
        "storeRestrictions": {
            "isLiquorSold": true,
            "isTobaccoSold": true
        }
    },
    {
        "storeId": "5693",
        "locationId": "5693CC5693",
        "storeName": "Coles South Grafton",
        "address": "84-96 Bent St",
        "suburb": "South Grafton",
        "postcode": "2460",
        "state": "NSW",
        "latitude": -29.706391,
        "longitude": 152.938865,
        "phone": "0466 726 981",
        "brandId": 2,
        "brandName": "Coles Supermarkets",
        "storeRestrictions": {
            "isLiquorSold": true,
            "isTobaccoSold": true
        }
    },
    {
        "storeId": "5679",
        "locationId": "5679CC5679",
        "storeName": "Coles Coffs Harbour - Drive-through",
        "address": "195 Harbour Drive",
        "suburb": "Coffs Harbour",
        "postcode": "2450",
        "state": "NSW",
        "latitude": -30.299177,
        "longitude": 153.118578,
        "phone": "0417 947 648",
        "brandId": 2,
        "brandName": "Coles Supermarkets",
        "storeRestrictions": {
            "isLiquorSold": true,
            "isTobaccoSold": true
        }
    },
    {
        "storeId": "4485",
        "locationId": "4485CC4485",
        "storeName": "Coles Grafton",
        "address": "King Street",
        "suburb": "Grafton",
        "postcode": "2460",
        "state": "NSW",
        "latitude": -29.689394,
        "longitude": 152.931945,
        "phone": "0466 725 819",
        "brandId": 2,
        "brandName": "Coles Supermarkets",
        "storeRestrictions": {
            "isLiquorSold": true,
            "isTobaccoSold": true
        }
    },
    {
        "storeId": "5682",
        "locationId": "5682CC5682",
        "storeName": "Coles Toormina",
        "address": "Toormina Gardens S/C, Cnr Minorie Drive & Toormina Road",
        "suburb": "Toormina",
        "postcode": "2452",
        "state": "NSW",
        "latitude": -30.354203,
        "longitude": 153.091414,
        "phone": "0418 252 572",
        "brandId": 2,
        "brandName": "Coles Supermarkets",
        "storeRestrictions": {
            "isLiquorSold": true,
            "isTobaccoSold": true
        }
    },
    {
        "storeId": "350",
        "locationId": "0350CC0350",
        "storeName": "Coles Geraldton - Drive-through",
        "address": "Cnr Chapman Rd & Bayly Street",
        "suburb": "Geraldton",
        "postcode": "6530",
        "state": "WA",
        "latitude": -28.766786,
        "longitude": 114.616117,
        "phone": "04 47507268",
        "brandId": 2,
        "brandName": "Coles Supermarkets",
        "storeRestrictions": {
            "isLiquorSold": true,
            "isTobaccoSold": true
        }
    },
    {
        "storeId": "5695",
        "locationId": "5695CC5695",
        "storeName": "Coles Tenterfield",
        "address": "Cnr Rouse & Miles Sts",
        "suburb": "Tenterfield",
        "postcode": "2372",
        "state": "NSW",
        "latitude": -29.056629,
        "longitude": 152.017471,
        "phone": "04 328 257 63",
        "brandId": 2,
        "brandName": "Coles Supermarkets",
        "storeRestrictions": {
            "isLiquorSold": true,
            "isTobaccoSold": true
        }
    },
    {
        "storeId": "5694",
        "locationId": "5694CC5694",
        "storeName": "Coles Casino",
        "address": "164-170 Canterbury Street",
        "suburb": "Casino",
        "postcode": "2470",
        "state": "NSW",
        "latitude": -28.863015,
        "longitude": 153.050645,
        "phone": "044 7833804",
        "brandId": 2,
        "brandName": "Coles Supermarkets",
        "storeRestrictions": {
            "isLiquorSold": true,
            "isTobaccoSold": true
        }
    },
    {
        "storeId": "4477",
        "locationId": "4477CC4477",
        "storeName": "Coles Lismore - Drive-through",
        "address": "Lismore Square S/C, Cnr Brewster & Uralbasts",
        "suburb": "Lismore",
        "postcode": "2480",
        "state": "NSW",
        "latitude": -28.810276,
        "longitude": 153.2861,
        "phone": "043 2825762",
        "brandId": 2,
        "brandName": "Coles Supermarkets",
        "storeRestrictions": {
            "isLiquorSold": false,
            "isTobaccoSold": false
        }
    },
    {
        "storeId": "4535",
        "locationId": "4535CC4535",
        "storeName": "Coles Goonellabah",
        "address": "44 Oliver Avenue",
        "suburb": "Goonellabah",
        "postcode": "2480",
        "state": "NSW",
        "latitude": -28.823521,
        "longitude": 153.325942,
        "phone": "0447 836 780",
        "brandId": 2,
        "brandName": "Coles Supermarkets",
        "storeRestrictions": {
            "isLiquorSold": true,
            "isTobaccoSold": true
        }
    },
    {
        "storeId": "4401",
        "locationId": "4401CC4401",
        "storeName": "Coles Ballina",
        "address": "Cnr Fox St and Kerr St",
        "suburb": "Ballina",
        "postcode": "2478",
        "state": "NSW",
        "latitude": -28.859572,
        "longitude": 153.561172,
        "phone": "0419 138 095",
        "brandId": 2,
        "brandName": "Coles Supermarkets",
        "storeRestrictions": {
            "isLiquorSold": true,
            "isTobaccoSold": true
        }
    },
    {
        "storeId": "4662",
        "locationId": "4662CC4662",
        "storeName": "Coles Warwick QLD",
        "address": "Rose City Shoppingworld, 81 Palmerin Street",
        "suburb": "Warwick",
        "postcode": "4370",
        "state": "QLD",
        "latitude": -28.215144,
        "longitude": 152.031918,
        "phone": "0429 548 892",
        "brandId": 2,
        "brandName": "Coles Supermarkets",
        "storeRestrictions": {
            "isLiquorSold": false,
            "isTobaccoSold": true
        }
    },
    {
        "storeId": "4491",
        "locationId": "4491CC4491",
        "storeName": "Coles Toowoomba Plaza",
        "address": "Toowoomba Plaza S/C, Cnr Ruthven & Stenner Sts",
        "suburb": "Toowoomba",
        "postcode": "4350",
        "state": "QLD",
        "latitude": -27.594574,
        "longitude": 151.94834,
        "phone": "0481 060 590",
        "brandId": 2,
        "brandName": "Coles Supermarkets",
        "storeRestrictions": {
            "isLiquorSold": false,
            "isTobaccoSold": true
        }
    },
    {
        "storeId": "4645",
        "locationId": "4645CC4645",
        "storeName": "Coles Clifford Gardens",
        "address": "98-124 Anzac Avenue",
        "suburb": "Newtown",
        "postcode": "4350",
        "state": "QLD",
        "latitude": -27.565392,
        "longitude": 151.930776,
        "phone": "0466 791 283",
        "brandId": 2,
        "brandName": "Coles Supermarkets",
        "storeRestrictions": {
            "isLiquorSold": false,
            "isTobaccoSold": true
        }
    },
    {
        "storeId": "4417",
        "locationId": "4417CC4417",
        "storeName": "Coles Glenvale - Drive-through",
        "address": "114-128 Glenvale Road",
        "suburb": "Glenvale",
        "postcode": "4350",
        "state": "QLD",
        "latitude": -27.564955,
        "longitude": 151.914114,
        "phone": "0435 355 173",
        "brandId": 2,
        "brandName": "Coles Supermarkets",
        "storeRestrictions": {
            "isLiquorSold": false,
            "isTobaccoSold": true
        }
    },
    {
        "storeId": "4534",
        "locationId": "4534CC4534",
        "storeName": "Coles Toowoomba Grand Central",
        "address": "Cnr Margaret & Clifford Sts",
        "suburb": "Toowoomba",
        "postcode": "4350",
        "state": "QLD",
        "latitude": -27.560992,
        "longitude": 151.947568,
        "phone": "0439 046 632",
        "brandId": 2,
        "brandName": "Coles Supermarkets",
        "storeRestrictions": {
            "isLiquorSold": false,
            "isTobaccoSold": true
        }
    },
    {
        "storeId": "4511",
        "locationId": "4511CC4511",
        "storeName": "Coles Beaudesert",
        "address": "Beaudesert Fair S/C, Cnr Anna & William Sts",
        "suburb": "Beaudesert",
        "postcode": "4285",
        "state": "QLD",
        "latitude": -27.989533,
        "longitude": 152.998844,
        "phone": "043 8821274",
        "brandId": 2,
        "brandName": "Coles Supermarkets",
        "storeRestrictions": {
            "isLiquorSold": false,
            "isTobaccoSold": true
        }
    },
    {
        "storeId": "4453",
        "locationId": "4453CC4453",
        "storeName": "Coles Jimboomba",
        "address": "665-687 Cusack Lane",
        "suburb": "Jimboomba",
        "postcode": "4280",
        "state": "QLD",
        "latitude": -27.831851,
        "longitude": 153.026331,
        "phone": "0466 237 956",
        "brandId": 2,
        "brandName": "Coles Supermarkets",
        "storeRestrictions": {
            "isLiquorSold": false,
            "isTobaccoSold": true
        }
    },
    {
        "storeId": "4090",
        "locationId": "4090CC4090",
        "storeName": "Coles Flagstone",
        "address": "6-24 Gates Road",
        "suburb": "Flagstone",
        "postcode": "4280",
        "state": "QLD",
        "latitude": -27.809317,
        "longitude": 152.949639,
        "phone": "0432 825 541",
        "brandId": 2,
        "brandName": "Coles Supermarkets",
        "storeRestrictions": {
            "isLiquorSold": false,
            "isTobaccoSold": true
        }
    },
    {
        "storeId": "4784",
        "locationId": "4784CC4784",
        "storeName": "Coles Yarrabilba",
        "address": "2 To 24 Waldron Street",
        "suburb": "Yarrabilba",
        "postcode": "4207",
        "state": "QLD",
        "latitude": -27.802445,
        "longitude": 153.102325,
        "phone": "0437 275 198",
        "brandId": 2,
        "brandName": "Coles Supermarkets",
        "storeRestrictions": {
            "isLiquorSold": false,
            "isTobaccoSold": true
        }
    },
    {
        "storeId": "8737",
        "locationId": "8737CC8737",
        "storeName": "Coles Upper Coomera Village - 658 Reserve Rd",
        "address": "658 Reserve Rd",
        "suburb": "Upper Coomera",
        "postcode": "4209",
        "state": "QLD",
        "latitude": -27.900032,
        "longitude": 153.284003,
        "phone": "0466 727 905",
        "brandId": 2,
        "brandName": "Coles Supermarkets",
        "storeRestrictions": {
            "isLiquorSold": false,
            "isTobaccoSold": true
        }
    },
    {
        "storeId": "4663",
        "locationId": "4663CC4663",
        "storeName": "Coles Pacific Pines",
        "address": "2 Norris Street",
        "suburb": "Pacific Pines",
        "postcode": "4211",
        "state": "QLD",
        "latitude": -27.925011,
        "longitude": 153.305366,
        "phone": "04 48225105",
        "brandId": 2,
        "brandName": "Coles Supermarkets",
        "storeRestrictions": {
            "isLiquorSold": false,
            "isTobaccoSold": true
        }
    },
    {
        "storeId": "4560",
        "locationId": "4560CC4560",
        "storeName": "Coles Nerang Fair",
        "address": "Cnr Beaudesert & Nerang Rds",
        "suburb": "Nerang",
        "postcode": "4211",
        "state": "QLD",
        "latitude": -27.993861,
        "longitude": 153.331722,
        "phone": "0434 823 872",
        "brandId": 2,
        "brandName": "Coles Supermarkets",
        "storeRestrictions": {
            "isLiquorSold": false,
            "isTobaccoSold": true
        }
    },
    {
        "storeId": "4501",
        "locationId": "4501CC4501",
        "storeName": "Coles Nerang",
        "address": "Station St",
        "suburb": "Nerang",
        "postcode": "4211",
        "state": "QLD",
        "latitude": -27.998022,
        "longitude": 153.338097,
        "phone": "04 17579371",
        "brandId": 2,
        "brandName": "Coles Supermarkets",
        "storeRestrictions": {
            "isLiquorSold": false,
            "isTobaccoSold": true
        }
    },
    {
        "storeId": "8732",
        "locationId": "8732CC8732",
        "storeName": "Coles Helensvale Plaza",
        "address": "Cnr Discovery & Sir John Overall Drvs",
        "suburb": "Helensvale",
        "postcode": "4210",
        "state": "QLD",
        "latitude": -27.923665,
        "longitude": 153.334476,
        "phone": "0466 725 829",
        "brandId": 2,
        "brandName": "Coles Supermarkets",
        "storeRestrictions": {
            "isLiquorSold": true,
            "isTobaccoSold": true
        }
    },
    {
        "storeId": "4576",
        "locationId": "4576CC4576",
        "storeName": "Coles Upper Coomera - 72 Reserve Rd",
        "address": "Cnr Reserve & Abraham Rds",
        "suburb": "Upper Coomera",
        "postcode": "4210",
        "state": "QLD",
        "latitude": -27.869582,
        "longitude": 153.305545,
        "phone": "0435 377 690",
        "brandId": 2,
        "brandName": "Coles Supermarkets",
        "storeRestrictions": {
            "isLiquorSold": false,
            "isTobaccoSold": true
        }
    },
    {
        "storeId": "4584",
        "locationId": "4584CC4584",
        "storeName": "Coles Helensvale",
        "address": "Cnr Gold Coast Hwy & Town Centre Dv",
        "suburb": "Helensvale",
        "postcode": "4212",
        "state": "QLD",
        "latitude": -27.925732,
        "longitude": 153.336912,
        "phone": "0438 698 709",
        "brandId": 2,
        "brandName": "Coles Supermarkets",
        "storeRestrictions": {
            "isLiquorSold": false,
            "isTobaccoSold": true
        }
    },
    {
        "storeId": "4474",
        "locationId": "4474CC4474",
        "storeName": "Coles Tweed Heads",
        "address": "Tweed Mall S/C, Cnr Pacific Hwy & Frances St",
        "suburb": "Tweed Heads",
        "postcode": "2485",
        "state": "NSW",
        "latitude": -28.173073,
        "longitude": 153.543588,
        "phone": "0439 595 080",
        "brandId": 2,
        "brandName": "Coles Supermarkets",
        "storeRestrictions": {
            "isLiquorSold": true,
            "isTobaccoSold": true
        }
    },
    {
        "storeId": "4459",
        "locationId": "4459CC4459",
        "storeName": "Coles Tweed City",
        "address": "Tweed City S/C, Cnr Minjungbal Drv & Kirkwood Rd",
        "suburb": "Tweed Heads South",
        "postcode": "2486",
        "state": "NSW",
        "latitude": -28.200094,
        "longitude": 153.546925,
        "phone": "0466 791 369",
        "brandId": 2,
        "brandName": "Coles Supermarkets",
        "storeRestrictions": {
            "isLiquorSold": true,
            "isTobaccoSold": true
        }
    },
    {
        "storeId": "7834",
        "locationId": "7834CC7834",
        "storeName": "Coles Palm Beach Pavilion",
        "address": "10 Fifth Ave",
        "suburb": "Palm Beach",
        "postcode": "4221",
        "state": "QLD",
        "latitude": -28.122402,
        "longitude": 153.47293,
        "phone": "04 6629 9009",
        "brandId": 2,
        "brandName": "Coles Supermarkets",
        "storeRestrictions": {
            "isLiquorSold": false,
            "isTobaccoSold": true
        }
    },
    {
        "storeId": "4577",
        "locationId": "4577CC4577",
        "storeName": "Coles Banora Pt Fraser",
        "address": "Cnr Fraser & Leisure Drvs",
        "suburb": "Banora Point",
        "postcode": "2486",
        "state": "NSW",
        "latitude": -28.213609,
        "longitude": 153.521894,
        "phone": "0447 842 674",
        "brandId": 2,
        "brandName": "Coles Supermarkets",
        "storeRestrictions": {
            "isLiquorSold": true,
            "isTobaccoSold": true
        }
    },
    {
        "storeId": "4405",
        "locationId": "4405CC4405",
        "storeName": "Coles The Pines - Drive-through",
        "address": "Cnr K.P.Mcgrath Drive & Guiness Creek Road",
        "suburb": "Elanora",
        "postcode": "4221",
        "state": "QLD",
        "latitude": -28.13514,
        "longitude": 153.468565,
        "phone": "04 07234518",
        "brandId": 2,
        "brandName": "Coles Supermarkets",
        "storeRestrictions": {
            "isLiquorSold": false,
            "isTobaccoSold": true
        }
    },
    {
        "storeId": "4554",
        "locationId": "4554SD4554",
        "storeName": "Coles Surfers Paradise - Service Desk",
        "address": "Cnr Gold Coast Hwy & Elkhorn Ave",
        "suburb": "Surfers Paradise",
        "postcode": "4217",
        "state": "QLD",
        "latitude": -27.999568,
        "longitude": 153.427935,
        "phone": "0429 989 656",
        "brandId": 2,
        "brandName": "Coles Supermarkets",
        "storeRestrictions": {
            "isLiquorSold": false,
            "isTobaccoSold": true
        }
    },
    {
        "storeId": "4368",
        "locationId": "4368CC4368",
        "storeName": "Coles Pacific Fair",
        "address": "Hooker Boulevard",
        "suburb": "Broadbeach",
        "postcode": "4218",
        "state": "QLD",
        "latitude": -28.037739,
        "longitude": 153.427015,
        "phone": "04 37408963",
        "brandId": 2,
        "brandName": "Coles Supermarkets",
        "storeRestrictions": {
            "isLiquorSold": false,
            "isTobaccoSold": true
        }
    },
    {
        "storeId": "4460",
        "locationId": "4460CC4460",
        "storeName": "Coles Casuarina Way",
        "address": "482 Casuarina Way",
        "suburb": "Casuarina",
        "postcode": "2487",
        "state": "NSW",
        "latitude": -28.29721,
        "longitude": 153.570242,
        "phone": "0466 791 272",
        "brandId": 2,
        "brandName": "Coles Supermarkets",
        "storeRestrictions": {
            "isLiquorSold": true,
            "isTobaccoSold": true
        }
    },
    {
        "storeId": "4490",
        "locationId": "4490CC4490",
        "storeName": "Coles Dalby",
        "address": "Cnr Condamine & Patrick Sts",
        "suburb": "Dalby",
        "postcode": "4405",
        "state": "QLD",
        "latitude": -27.179458,
        "longitude": 151.265549,
        "phone": "0466 725 793",
        "brandId": 2,
        "brandName": "Coles Supermarkets",
        "storeRestrictions": {
            "isLiquorSold": false,
            "isTobaccoSold": true
        }
    },
    {
        "storeId": "4091",
        "locationId": "4091CC4091",
        "storeName": "Coles Caboolture Big Fish",
        "address": "459 Pumicestone",
        "suburb": "Caboolture",
        "postcode": "4510",
        "state": "QLD",
        "latitude": -27.041623,
        "longitude": 152.975274,
        "phone": "0434 978 253",
        "brandId": 2,
        "brandName": "Coles Supermarkets",
        "storeRestrictions": {
            "isLiquorSold": false,
            "isTobaccoSold": true
        }
    },
    {
        "storeId": "4404",
        "locationId": "4404CC4404",
        "storeName": "Coles Caboolture - Drive-through",
        "address": "60 - 78 King St",
        "suburb": "Caboolture",
        "postcode": "4510",
        "state": "QLD",
        "latitude": -27.085146,
        "longitude": 152.948887,
        "phone": "040 9253437",
        "brandId": 2,
        "brandName": "Coles Supermarkets",
        "storeRestrictions": {
            "isLiquorSold": false,
            "isTobaccoSold": true
        }
    },
    {
        "storeId": "8721",
        "locationId": "8721CC8721",
        "storeName": "Coles Morayfield - Drive-through",
        "address": "197 Morayfield Rd",
        "suburb": "Morayfield",
        "postcode": "4510",
        "state": "QLD",
        "latitude": -27.103785,
        "longitude": 152.950217,
        "phone": "04 48145447",
        "brandId": 2,
        "brandName": "Coles Supermarkets",
        "storeRestrictions": {
            "isLiquorSold": false,
            "isTobaccoSold": true
        }
    },
    {
        "storeId": "4582",
        "locationId": "4582CC4582",
        "storeName": "Coles Burpengary",
        "address": "168 Station St",
        "suburb": "Burpengary",
        "postcode": "4505",
        "state": "QLD",
        "latitude": -27.153473,
        "longitude": 152.973745,
        "phone": "0447 135 770",
        "brandId": 2,
        "brandName": "Coles Supermarkets",
        "storeRestrictions": {
            "isLiquorSold": false,
            "isTobaccoSold": true
        }
    },
    {
        "storeId": "4559",
        "locationId": "4559CC4559",
        "storeName": "Coles Pelican Waters",
        "address": "Lot 100, Pelican Waters Blvd",
        "suburb": "Pelican Waters",
        "postcode": "4551",
        "state": "QLD",
        "latitude": -26.833911,
        "longitude": 153.108239,
        "phone": "0478 560 256",
        "brandId": 2,
        "brandName": "Coles Supermarkets",
        "storeRestrictions": {
            "isLiquorSold": false,
            "isTobaccoSold": true
        }
    },
    {
        "storeId": "7559",
        "locationId": "7559CC7559",
        "storeName": "Coles Deception Bay - Drive-through",
        "address": "M2 1-45 Bay Avenue",
        "suburb": "Deception Bay",
        "postcode": "4508",
        "state": "QLD",
        "latitude": -27.193312,
        "longitude": 153.029024,
        "phone": "0468 661 031",
        "brandId": 2,
        "brandName": "Coles Supermarkets",
        "storeRestrictions": {
            "isLiquorSold": true,
            "isTobaccoSold": true
        }
    },
    {
        "storeId": "4478",
        "locationId": "4478CC4478",
        "storeName": "Coles Caloundra",
        "address": "Stockland  S/C, Cnr Bowman Rd & First Ave",
        "suburb": "Caloundra",
        "postcode": "4551",
        "state": "QLD",
        "latitude": -26.802623,
        "longitude": 153.124466,
        "phone": "04 47634403",
        "brandId": 2,
        "brandName": "Coles Supermarkets",
        "storeRestrictions": {
            "isLiquorSold": false,
            "isTobaccoSold": true
        }
    },
    {
        "storeId": "4422",
        "locationId": "4422CC4422",
        "storeName": "Coles Redcliffe",
        "address": "Cnr Ashmole and Klingner Road",
        "suburb": "Redcliffe",
        "postcode": "4020",
        "state": "QLD",
        "latitude": -27.220211,
        "longitude": 153.098335,
        "phone": "04 38791705",
        "brandId": 2,
        "brandName": "Coles Supermarkets",
        "storeRestrictions": {
            "isLiquorSold": false,
            "isTobaccoSold": true
        }
    },
    {
        "storeId": "4519",
        "locationId": "4519CC4519",
        "storeName": "Coles Kippa Ring",
        "address": "Peninsula Fair S/C, Cnr Anzac Ave & Boardman Rd",
        "suburb": "Kippa Ring",
        "postcode": "4020",
        "state": "QLD",
        "latitude": -27.226242,
        "longitude": 153.08766,
        "phone": "04 39194107",
        "brandId": 2,
        "brandName": "Coles Supermarkets",
        "storeRestrictions": {
            "isLiquorSold": false,
            "isTobaccoSold": true
        }
    },
    {
        "storeId": "4440",
        "locationId": "4440CC4440",
        "storeName": "Coles Gympie",
        "address": "Corner Monkland & O Connell Street",
        "suburb": "Gympie",
        "postcode": "4570",
        "state": "QLD",
        "latitude": -26.188037,
        "longitude": 152.661451,
        "phone": "04 37594626",
        "brandId": 2,
        "brandName": "Coles Supermarkets",
        "storeRestrictions": {
            "isLiquorSold": false,
            "isTobaccoSold": true
        }
    },
    {
        "storeId": "4447",
        "locationId": "4447CC4447",
        "storeName": "Coles Noosa",
        "address": "Noosa Fair S/C, Lanyana Way",
        "suburb": "Noosa Heads",
        "postcode": "4567",
        "state": "QLD",
        "latitude": -26.398552,
        "longitude": 153.089076,
        "phone": "04 37017253",
        "brandId": 2,
        "brandName": "Coles Supermarkets",
        "storeRestrictions": {
            "isLiquorSold": false,
            "isTobaccoSold": true
        }
    },
    {
        "storeId": "4810",
        "locationId": "4810CC4810",
        "storeName": "Coles Kensington",
        "address": "130 Takalvan Street",
        "suburb": "Kensington",
        "postcode": "4670",
        "state": "QLD",
        "latitude": -24.8906607,
        "longitude": 152.32032,
        "phone": "0439 277 847",
        "brandId": 2,
        "brandName": "Coles Supermarkets",
        "storeRestrictions": {
            "isLiquorSold": false,
            "isTobaccoSold": true
        }
    },
    {
        "storeId": "4497",
        "locationId": "4497CC4497",
        "storeName": "Coles Bundaberg Hinkle",
        "address": "Shop M/02, Hinkler Central, Maryborough St",
        "suburb": "Bundaberg",
        "postcode": "4670",
        "state": "QLD",
        "latitude": -24.871819,
        "longitude": 152.34841,
        "phone": "04 6695 2719",
        "brandId": 2,
        "brandName": "Coles Supermarkets",
        "storeRestrictions": {
            "isLiquorSold": false,
            "isTobaccoSold": true
        }
    },
    {
        "storeId": "4513",
        "locationId": "4513CC4513",
        "storeName": "Coles Hervey Bay - Drive-through",
        "address": "Pialba Place S/C, Main St",
        "suburb": "Pialba",
        "postcode": "4655",
        "state": "QLD",
        "latitude": -25.282842,
        "longitude": 152.839038,
        "phone": "04 35362996",
        "brandId": 2,
        "brandName": "Coles Supermarkets",
        "storeRestrictions": {
            "isLiquorSold": false,
            "isTobaccoSold": true
        }
    },
    {
        "storeId": "4529",
        "locationId": "4529CC4529",
        "storeName": "Coles Bay Central",
        "address": "6 Central Ave",
        "suburb": "Hervey Bay",
        "postcode": "4655",
        "state": "QLD",
        "latitude": -25.2913,
        "longitude": 152.83432,
        "phone": "04 09548936",
        "brandId": 2,
        "brandName": "Coles Supermarkets",
        "storeRestrictions": {
            "isLiquorSold": false,
            "isTobaccoSold": true
        }
    },
    {
        "storeId": "418",
        "locationId": "0418CC0418",
        "storeName": "Coles Alice Springs",
        "address": "Cnr Bath St and Gregory Tce",
        "suburb": "Alice Springs",
        "postcode": "870",
        "state": "NT",
        "latitude": -23.698378,
        "longitude": 133.879268,
        "phone": "0417 531 042",
        "brandId": 2,
        "brandName": "Coles Supermarkets",
        "storeRestrictions": {
            "isLiquorSold": true,
            "isTobaccoSold": true
        }
    },
    {
        "storeId": "4406",
        "locationId": "4406CC4406",
        "storeName": "Coles Gladstone",
        "address": "Stockland Shopping Centre Kin Kora, Dawson Hwy",
        "suburb": "Gladstone",
        "postcode": "4680",
        "state": "QLD",
        "latitude": -23.869878,
        "longitude": 151.240165,
        "phone": "04 18387738",
        "brandId": 2,
        "brandName": "Coles Supermarkets",
        "storeRestrictions": {
            "isLiquorSold": false,
            "isTobaccoSold": true
        }
    },
    {
        "storeId": "4580",
        "locationId": "4580CC4580",
        "storeName": "Coles Tannum Sands",
        "address": "101 Hampton Drv",
        "suburb": "Tannum Sands",
        "postcode": "4680",
        "state": "QLD",
        "latitude": -23.951388,
        "longitude": 151.369877,
        "phone": "0481 479 483",
        "brandId": 2,
        "brandName": "Coles Supermarkets",
        "storeRestrictions": {
            "isLiquorSold": false,
            "isTobaccoSold": true
        }
    },
    {
        "storeId": "328",
        "locationId": "0328SD0328",
        "storeName": "Coles Tom Price - Service Desk",
        "address": "Central Rd",
        "suburb": "Tom Price",
        "postcode": "6751",
        "state": "WA",
        "latitude": -22.693663,
        "longitude": 117.795354,
        "phone": "0429 989 656",
        "brandId": 2,
        "brandName": "Coles Supermarkets",
        "storeRestrictions": {
            "isLiquorSold": false,
            "isTobaccoSold": true
        }
    },
    {
        "storeId": "8731",
        "locationId": "8731CC8731",
        "storeName": "Coles Yeppoon",
        "address": "Keppel Bay Plaza, 64-79 James St",
        "suburb": "Yeppoon",
        "postcode": "4703",
        "state": "QLD",
        "latitude": -23.128988,
        "longitude": 150.741236,
        "phone": "04 29983862",
        "brandId": 2,
        "brandName": "Coles Supermarkets",
        "storeRestrictions": {
            "isLiquorSold": false,
            "isTobaccoSold": true
        }
    },
    {
        "storeId": "313",
        "locationId": "0313CC0313",
        "storeName": "Coles Karratha",
        "address": "Karratha City S/C, Welcome Rd",
        "suburb": "Karratha",
        "postcode": "6714",
        "state": "WA",
        "latitude": -20.735874,
        "longitude": 116.845832,
        "phone": "04 47842010",
        "brandId": 2,
        "brandName": "Coles Supermarkets",
        "storeRestrictions": {
            "isLiquorSold": false,
            "isTobaccoSold": true
        }
    },
    {
        "storeId": "4419",
        "locationId": "4419CC4419",
        "storeName": "Coles Northern Beaches",
        "address": "Cnr Mackay Bucasia & Sologinkins Rds",
        "suburb": "North Mackay",
        "postcode": "4740",
        "state": "QLD",
        "latitude": -21.065121,
        "longitude": 149.157944,
        "phone": "0466 791 338",
        "brandId": 2,
        "brandName": "Coles Supermarkets",
        "storeRestrictions": {
            "isLiquorSold": false,
            "isTobaccoSold": true
        }
    },
    {
        "storeId": "4481",
        "locationId": "4481CC4481",
        "storeName": "Coles Mount Pleasant",
        "address": "Mt Pleasant Sc, Cnr Malcomson St & Mackay Bucasia Rd",
        "suburb": "Mount Pleasant",
        "postcode": "4740",
        "state": "QLD",
        "latitude": -21.117815,
        "longitude": 149.159583,
        "phone": "04 17290042",
        "brandId": 2,
        "brandName": "Coles Supermarkets",
        "storeRestrictions": {
            "isLiquorSold": false,
            "isTobaccoSold": true
        }
    },
    {
        "storeId": "4389",
        "locationId": "4389CC4389",
        "storeName": "Coles Andergrove - Drive-through",
        "address": "23-39 Oak Street",
        "suburb": "Andergrove",
        "postcode": "4740",
        "state": "QLD",
        "latitude": -21.09721509,
        "longitude": 149.1858687,
        "phone": "04 6672 7917",
        "brandId": 2,
        "brandName": "Coles Supermarkets",
        "storeRestrictions": {
            "isLiquorSold": false,
            "isTobaccoSold": true
        }
    },
    {
        "storeId": "4558",
        "locationId": "4558CC4558",
        "storeName": "Coles Canelands - Drive-through",
        "address": "2 Mangrove Road",
        "suburb": "Mackay",
        "postcode": "4740",
        "state": "QLD",
        "latitude": -21.13914,
        "longitude": 149.178567,
        "phone": "0466 791 270",
        "brandId": 2,
        "brandName": "Coles Supermarkets",
        "storeRestrictions": {
            "isLiquorSold": false,
            "isTobaccoSold": true
        }
    },
    {
        "storeId": "4587",
        "locationId": "4587CC4587",
        "storeName": "Coles Mackay",
        "address": "Sydney St Markets, 85 Sydney Rd",
        "suburb": "Mackay",
        "postcode": "4740",
        "state": "QLD",
        "latitude": -21.144631,
        "longitude": 149.187236,
        "phone": "0432 823 972",
        "brandId": 2,
        "brandName": "Coles Supermarkets",
        "storeRestrictions": {
            "isLiquorSold": false,
            "isTobaccoSold": true
        }
    },
    {
        "storeId": "4425",
        "locationId": "4425CC4425",
        "storeName": "Coles Parkside Mackay",
        "address": "245 Bridge Road",
        "suburb": "Mackay West",
        "postcode": "4740",
        "state": "QLD",
        "latitude": -21.158161,
        "longitude": 149.169555,
        "phone": "04 38668055",
        "brandId": 2,
        "brandName": "Coles Supermarkets",
        "storeRestrictions": {
            "isLiquorSold": false,
            "isTobaccoSold": true
        }
    },
    {
        "storeId": "4598",
        "locationId": "4598CC4598",
        "storeName": "Coles Cannonvale - Drive-through",
        "address": "Cnr Island Drive & Shute Harbour Road",
        "suburb": "Cannonvale",
        "postcode": "4802",
        "state": "QLD",
        "latitude": -20.277551,
        "longitude": 148.699182,
        "phone": "04 1843 3493",
        "brandId": 2,
        "brandName": "Coles Supermarkets",
        "storeRestrictions": {
            "isLiquorSold": false,
            "isTobaccoSold": true
        }
    },
    {
        "storeId": "4442",
        "locationId": "4442CC4442",
        "storeName": "Coles Ingham",
        "address": "Po Bocnr Lannercost & Mcilwraith Sts",
        "suburb": "Ingham",
        "postcode": "4850",
        "state": "QLD",
        "latitude": -18.651031,
        "longitude": 146.152864,
        "phone": "0435 204 197",
        "brandId": 2,
        "brandName": "Coles Supermarkets",
        "storeRestrictions": {
            "isLiquorSold": false,
            "isTobaccoSold": true
        }
    },
    {
        "storeId": "4649",
        "locationId": "4649CC4649",
        "storeName": "Coles North Ward (Townsville)",
        "address": "26 Mitchell Street, Belgian Gardens",
        "suburb": "North Ward",
        "postcode": "4810",
        "state": "QLD",
        "latitude": -19.252461,
        "longitude": 146.814453,
        "phone": "04 28339226",
        "brandId": 2,
        "brandName": "Coles Supermarkets",
        "storeRestrictions": {
            "isLiquorSold": false,
            "isTobaccoSold": true
        }
    },
    {
        "storeId": "4689",
        "locationId": "4689CC4689",
        "storeName": "Coles Castletown",
        "address": "Cnr Woolcock St and Kings Rd",
        "suburb": "Hyde Park",
        "postcode": "4812",
        "state": "QLD",
        "latitude": -19.271557,
        "longitude": 146.789681,
        "phone": "04 8146 9800",
        "brandId": 2,
        "brandName": "Coles Supermarkets",
        "storeRestrictions": {
            "isLiquorSold": true,
            "isTobaccoSold": true
        }
    },
    {
        "storeId": "5803",
        "locationId": "5803CC5803",
        "storeName": "Coles Bushland Beach",
        "address": "289 Mt Low Park Way",
        "suburb": "Bushland Beach",
        "postcode": "4818",
        "state": "QLD",
        "latitude": -19.198085,
        "longitude": 146.67257,
        "phone": "04 37624667",
        "brandId": 2,
        "brandName": "Coles Supermarkets",
        "storeRestrictions": {
            "isLiquorSold": false,
            "isTobaccoSold": true
        }
    },
    {
        "storeId": "7824",
        "locationId": "7824CC7824",
        "storeName": "Coles Fairfield Central - Townsville",
        "address": "Shop M3,  2-30 Lakeside Drive",
        "suburb": "Idalia",
        "postcode": "4811",
        "state": "QLD",
        "latitude": -19.315651,
        "longitude": 146.815872,
        "phone": "04 6679 1345",
        "brandId": 2,
        "brandName": "Coles Supermarkets",
        "storeRestrictions": {
            "isLiquorSold": false,
            "isTobaccoSold": true
        }
    },
    {
        "storeId": "4569",
        "locationId": "4569CC4569",
        "storeName": "Coles Deeragun",
        "address": "310 Geaney Lane",
        "suburb": "Deeragun",
        "postcode": "4818",
        "state": "QLD",
        "latitude": -19.247407,
        "longitude": 146.6777,
        "phone": "04 38728689",
        "brandId": 2,
        "brandName": "Coles Supermarkets",
        "storeRestrictions": {
            "isLiquorSold": false,
            "isTobaccoSold": true
        }
    },
    {
        "storeId": "4494",
        "locationId": "4494CC4494",
        "storeName": "Coles Aitkenvale",
        "address": "Cnr Ross River Rd & Nathan St, Aitkenvale",
        "suburb": "Townsville",
        "postcode": "4810",
        "state": "QLD",
        "latitude": -19.297938,
        "longitude": 146.760271,
        "phone": "0417 748 836",
        "brandId": 2,
        "brandName": "Coles Supermarkets",
        "storeRestrictions": {
            "isLiquorSold": false,
            "isTobaccoSold": true
        }
    },
    {
        "storeId": "4655",
        "locationId": "4655CC4655",
        "storeName": "Coles Thuringowa",
        "address": "320 Thuringowa Drive",
        "suburb": "Kirwan",
        "postcode": "4817",
        "state": "QLD",
        "latitude": -19.287571,
        "longitude": 146.738558,
        "phone": "04 38274964",
        "brandId": 2,
        "brandName": "Coles Supermarkets",
        "storeRestrictions": {
            "isLiquorSold": false,
            "isTobaccoSold": true
        }
    },
    {
        "storeId": "4563",
        "locationId": "4563CC4563",
        "storeName": "Coles Townsville Annandale",
        "address": "Macarthur Drv",
        "suburb": "Annandale",
        "postcode": "4814",
        "state": "QLD",
        "latitude": -19.317464,
        "longitude": 146.791614,
        "phone": "0466 727 903",
        "brandId": 2,
        "brandName": "Coles Supermarkets",
        "storeRestrictions": {
            "isLiquorSold": true,
            "isTobaccoSold": true
        }
    },
    {
        "storeId": "4527",
        "locationId": "4527CC4527",
        "storeName": "Coles Townsville The Willows - Drive-through",
        "address": "Willows S/C, Cnr Thuringowa Drv & Herveys Range Rd",
        "suburb": "Townsville",
        "postcode": "4817",
        "state": "QLD",
        "latitude": -19.316089,
        "longitude": 146.727587,
        "phone": "0448 725 651",
        "brandId": 2,
        "brandName": "Coles Supermarkets",
        "storeRestrictions": {
            "isLiquorSold": false,
            "isTobaccoSold": true
        }
    }
]