[
    {
        "storeId": "21670",
        "retailerId": "183",
        "storeName": "Tucker Fresh IGA Exchange",
        "address": "Curtin Exchange Precinct, University Boulevard",
        "suburb": "Bentley",
        "state": "WA",
        "postcode": "6102",
        "phone": "08 9451 1778",
        "fax": "",
        "hours": "7:00 AM - 8:00 PM\r\n7:00 AM - 8:00 PM\r\n7:00 AM - 8:00 PM\r\n7:00 AM - 8:00 PM\r\n7:00 AM - 8:00 PM\r\n7:00 AM - 8:00 PM\r\n7:00 AM - 8:00 PM",
        "hoursDay": "Monday\r\nTuesday\r\nWednesday\r\nThursday\r\nFriday\r\nSaturday\r\nSunday",
        "regionId": null,
        "latitude": "-32.001255000000000",
        "longitude": "115.887373000000000",
        "tag": "83459",
        "locationNumber": "0",
        "saleGroupId": "0",
        "christmasHours": "9:00am - 8:00pm\r\n9:00am - 8:00pm\r\n9:00am - 8:00pm\r\n9:00am - 8:00pm\r\n7:00am - 8:00pm\r\n7:00am - 8:00pm\r\n7:00am - 8:00pm\r\n7:00am - 8:00pm\r\n7:00am - 8:00pm\r\n7:00am - 8:00pm",
        "christmasHoursDay": "18 Apr\r\n19 Apr\r\n20 Apr\r\n21 Apr\r\n22 Apr\r\n23 Apr\r\n24 Apr\r\n25 Apr\r\n26 Apr\r\n27 Apr",
        "updateTimeStamp": "2025-04-11 15:06:33",
        "postcodeId": "13951",
        "storeUrl": "",
        "updated": "0",
        "onlineShopUrl": "",
        "ecommerceUrl": "",
        "distance": "0"
    },
    {
        "storeId": "15368",
        "retailerId": "183",
        "storeName": "IGA Waterford",
        "address": "Cnr Manning Road and Kent St\r\nWaterford Plaza Shopping",
        "suburb": "Karawara",
        "state": "WA",
        "postcode": "6152",
        "phone": "08 9200 4211",
        "fax": "",
        "hours": "7:00 AM - 10:00 PM\r\n7:00 AM - 10:00 PM\r\n7:00 AM - 10:00 PM\r\n7:00 AM - 10:00 PM\r\n7:00 AM - 10:00 PM\r\n7:00 AM - 10:00 PM\r\n7:00 AM - 10:00 PM",
        "hoursDay": "Monday\r\nTuesday\r\nWednesday\r\nThursday\r\nFriday\r\nSaturday\r\nSunday",
        "regionId": null,
        "latitude": "-32.012354000000000",
        "longitude": "115.886678000000000",
        "tag": "53171",
        "locationNumber": "64199141",
        "saleGroupId": "0",
        "christmasHours": "7:00am - 9:00pm\r\n7:00am - 10:00pm\r\n7:00am - 10:00pm\r\n7:00am - 10:00pm\r\n7:00am - 10:00pm\r\n7:00am - 10:00pm\r\n7:00am - 10:00pm\r\n7:00am - 10:00pm\r\n7:00am - 10:00pm\r\n7:00am - 10:00pm",
        "christmasHoursDay": "18 Apr\r\n19 Apr\r\n20 Apr\r\n21 Apr\r\n22 Apr\r\n23 Apr\r\n24 Apr\r\n25 Apr\r\n26 Apr\r\n27 Apr",
        "updateTimeStamp": "2025-04-11 15:06:30",
        "postcodeId": "13951",
        "storeUrl": "",
        "updated": "0",
        "onlineShopUrl": "",
        "ecommerceUrl": "",
        "distance": "0.01112073855461048"
    },
    {
        "storeId": "15287",
        "retailerId": "183",
        "storeName": "IGA Bentley",
        "address": "9 Hillview Place\r\n",
        "suburb": "Bentley",
        "state": "WA",
        "postcode": "6102",
        "phone": "08 9451 4905",
        "fax": "",
        "hours": "7:00 AM - 9:00 PM\r\n7:00 AM - 9:00 PM\r\n7:00 AM - 9:00 PM\r\n7:00 AM - 9:00 PM\r\n7:00 AM - 9:00 PM\r\n7:00 AM - 9:00 PM\r\n7:00 AM - 9:00 PM",
        "hoursDay": "Monday\r\nTuesday\r\nWednesday\r\nThursday\r\nFriday\r\nSaturday\r\nSunday",
        "regionId": null,
        "latitude": "-32.009263000000000",
        "longitude": "115.902538000000000",
        "tag": "48086",
        "locationNumber": "64201391",
        "saleGroupId": "0",
        "christmasHours": "7:00am - 9:00pm\r\n7:00am - 9:00pm\r\n7:00am - 9:00pm\r\n7:00am - 9:00pm\r\n7:00am - 9:00pm\r\n7:00am - 9:00pm\r\n7:00am - 9:00pm\r\n7:00am - 9:00pm\r\n7:00am - 9:00pm\r\n7:00am - 9:00pm",
        "christmasHoursDay": "18 Apr\r\n19 Apr\r\n20 Apr\r\n21 Apr\r\n22 Apr\r\n23 Apr\r\n24 Apr\r\n25 Apr\r\n26 Apr\r\n27 Apr",
        "updateTimeStamp": "2025-04-11 15:06:26",
        "postcodeId": "13874",
        "storeUrl": "",
        "updated": "0",
        "onlineShopUrl": "",
        "ecommerceUrl": "",
        "distance": "0.017149498214233557"
    },
    {
        "storeId": "15380",
        "retailerId": "183",
        "storeName": "IGA Local Grocer Kensington",
        "address": "45-47 George Street\r\n",
        "suburb": "Kensington",
        "state": "WA",
        "postcode": "6151",
        "phone": "08 9367 8288",
        "fax": "",
        "hours": "",
        "hoursDay": "",
        "regionId": null,
        "latitude": "-31.983067000000000",
        "longitude": "115.888505000000000",
        "tag": "53450",
        "locationNumber": "1936",
        "saleGroupId": "0",
        "christmasHours": "",
        "christmasHoursDay": "Please contact the store for Easter opening hours.",
        "updateTimeStamp": "2025-04-10 13:33:09",
        "postcodeId": "13944",
        "storeUrl": "",
        "updated": "0",
        "onlineShopUrl": "",
        "ecommerceUrl": "",
        "distance": "0.01822319313402566"
    },
    {
        "storeId": "15397",
        "retailerId": "183",
        "storeName": "IGA Local Grocer Manning",
        "address": "13 Welwyn Ave\r\n",
        "suburb": "Manning",
        "state": "WA",
        "postcode": "6152",
        "phone": "08 9450 3489",
        "fax": "",
        "hours": "7AM - 8PM\r\n7AM - 8PM\r\n7AM - 8PM\r\n7AM - 8PM\r\n7AM - 8PM\r\n7AM - 8PM\r\n7AM - 8PM",
        "hoursDay": "Monday\r\nTuesday\r\nWednesday\r\nThursday\r\nFriday\r\nSaturday\r\nSunday",
        "regionId": null,
        "latitude": "-32.014809000000000",
        "longitude": "115.868937000000000",
        "tag": "48069",
        "locationNumber": "64198331",
        "saleGroupId": "0",
        "christmasHours": "",
        "christmasHoursDay": "Please contact the store for Easter opening hours.",
        "updateTimeStamp": "2025-04-10 13:33:09",
        "postcodeId": "13949",
        "storeUrl": "",
        "updated": "0",
        "onlineShopUrl": "",
        "ecommerceUrl": "",
        "distance": "0.022882242285230704"
    },
    {
        "storeId": "15338",
        "retailerId": "183",
        "storeName": "IGA East Victoria Park",
        "address": "860 Albany Highway\n",
        "suburb": "East Victoria Park",
        "state": "WA",
        "postcode": "6100",
        "phone": "08 9470 2344",
        "fax": "",
        "hours": "6:00 AM - 11:00 PM\r\n6:00 AM - 11:00 PM\r\n6:00 AM - 11:00 PM\r\n6:00 AM - 11:00 PM\r\n6:00 AM - 11:00 PM\r\n6:00 AM - 11:00 PM\r\n6:00 AM - 11:00 PM",
        "hoursDay": "Monday\r\nTuesday\r\nWednesday\r\nThursday\r\nFriday\r\nSaturday\r\nSunday",
        "regionId": "0",
        "latitude": "-31.985102000000000",
        "longitude": "115.903603000000000",
        "tag": "48264",
        "locationNumber": "64206016",
        "saleGroupId": "0",
        "christmasHours": "6:00am - 11:00pm\r\n6:00am - 11:00pm\r\n6:00am - 11:00pm\r\n6:00am - 11:00pm\r\n6:00am - 11:00pm\r\n6:00am - 11:00pm\r\n6:00am - 11:00pm\r\n6:00am - 11:00pm\r\n6:00am - 11:00pm\r\n6:00am - 11:00pm",
        "christmasHoursDay": "18 Apr\r\n19 Apr\r\n20 Apr\r\n21 Apr\r\n22 Apr\r\n23 Apr\r\n24 Apr\r\n25 Apr\r\n26 Apr\r\n27 Apr",
        "updateTimeStamp": "2025-04-11 15:06:29",
        "postcodeId": "13871",
        "storeUrl": "",
        "updated": "0",
        "onlineShopUrl": "",
        "ecommerceUrl": "",
        "distance": "0.02289830362712487"
    },
    {
        "storeId": "22362",
        "retailerId": "183",
        "storeName": "Preston Street IGA (Como)",
        "address": "25 Preston St,",
        "suburb": "Como",
        "state": "WA",
        "postcode": "6152",
        "phone": "(08) 9367 2246",
        "fax": "",
        "hours": "Open 24 Hours\r\nOpen 24 Hours\r\nOpen 24 Hours\r\nOpen 24 Hours\r\nOpen 24 Hours\r\nOpen 24 Hours\r\nOpen 24 Hours",
        "hoursDay": "Monday\r\nTuesday\r\nWednesday\r\nThursday\r\nFriday\r\nSaturday\r\nSunday",
        "regionId": null,
        "latitude": "-31.994180000000000",
        "longitude": "115.859100000000000",
        "tag": "",
        "locationNumber": "0",
        "saleGroupId": "0",
        "christmasHours": "",
        "christmasHoursDay": "",
        "updateTimeStamp": "2025-05-05 13:19:09",
        "postcodeId": "13947",
        "storeUrl": "",
        "updated": "0",
        "onlineShopUrl": "",
        "ecommerceUrl": "",
        "distance": "0.029144779189419157"
    },
    {
        "storeId": "15303",
        "retailerId": "183",
        "storeName": "IGA Canning Bridge Plus Liquor",
        "address": "916 Canning Highway\n",
        "suburb": "Applecross",
        "state": "WA",
        "postcode": "6153",
        "phone": "08 9316 3533",
        "fax": "",
        "hours": "",
        "hoursDay": "Trading Hours: 24 hours, 7 days a week\r\n",
        "regionId": "0",
        "latitude": "-32.011555000000000",
        "longitude": "115.850891000000000",
        "tag": "19851",
        "locationNumber": "64171190",
        "saleGroupId": "0",
        "christmasHours": "",
        "christmasHoursDay": "Please contact the store for Easter opening hours.",
        "updateTimeStamp": "2025-04-10 13:33:09",
        "postcodeId": "13956",
        "storeUrl": "",
        "updated": "0",
        "onlineShopUrl": "",
        "ecommerceUrl": "",
        "distance": "0.03790813005148104"
    },
    {
        "storeId": "15447",
        "retailerId": "183",
        "storeName": "All Foods Market Riverton IGA",
        "address": "Cnr High Road & Herald Avenue\r\n",
        "suburb": "Riverton",
        "state": "WA",
        "postcode": "6148",
        "phone": "08 9354 0000",
        "fax": "",
        "hours": "6:00 AM - 9:00 PM\r\n6:00 AM - 9:00 PM\r\n6:00 AM - 9:00 PM\r\n6:00 AM - 9:00 PM\r\n6:00 AM - 9:00 PM\r\n6:00 AM - 9:00 PM\r\n6:00 AM - 9:00 PM",
        "hoursDay": "Monday\r\nTuesday\r\nWednesday\r\nThursday\r\nFriday\r\nSaturday\r\nSunday",
        "regionId": null,
        "latitude": "-32.038651000000000",
        "longitude": "115.894211000000000",
        "tag": "48120",
        "locationNumber": "64194921",
        "saleGroupId": "0",
        "christmasHours": "",
        "christmasHoursDay": "Please contact the store for Easter opening hours.",
        "updateTimeStamp": "2025-04-10 13:33:09",
        "postcodeId": "13936",
        "storeUrl": "https://www.allfoodsmarket.com.au/?utm_source=igawebsite&utm_medium=tile&utm_campaign=store_locator&utm_content=cta_button",
        "updated": "0",
        "onlineShopUrl": "",
        "ecommerceUrl": "",
        "distance": "0.03801603687919086"
    },
    {
        "storeId": "15453",
        "retailerId": "183",
        "storeName": "Tucker Fresh IGA Rossmoyne",
        "address": "Rossmoyne Shopping Centre,  55 Central Road",
        "suburb": "Rossmoyne",
        "state": "WA",
        "postcode": "6148",
        "phone": "08 9457 5553",
        "fax": "",
        "hours": "7AM - 8PM\r\n7AM - 8PM\r\n7AM - 8PM\r\n7AM - 8PM\r\n7AM - 8PM\r\n7AM - 8PM\r\n7AM - 8PM",
        "hoursDay": "Monday\r\nTuesday\r\nWednesday\r\nThursday\r\nFriday\r\nSaturday\r\nSunday",
        "regionId": null,
        "latitude": "-32.038620000000000",
        "longitude": "115.867706000000000",
        "tag": "48332",
        "locationNumber": "64204900",
        "saleGroupId": "0",
        "christmasHours": "7:00am - 9:00pm\r\n7:00am - 9:00pm\r\n7:00am - 9:00pm\r\n7:00am - 9:00pm\r\n7:00am - 9:00pm\r\n7:00am - 9:00pm\r\n7:00am - 9:00pm\r\n7:00am - 9:00pm\r\n7:00am - 9:00pm\r\n7:00am - 9:00pm",
        "christmasHoursDay": "18 Apr\r\n19 Apr\r\n20 Apr\r\n21 Apr\r\n22 Apr\r\n23 Apr\r\n24 Apr\r\n25 Apr\r\n26 Apr\r\n27 Apr",
        "updateTimeStamp": "2025-04-11 15:06:33",
        "postcodeId": "13937",
        "storeUrl": "",
        "updated": "0",
        "onlineShopUrl": "",
        "ecommerceUrl": "",
        "distance": "0.042224804487410006"
    },
    {
        "storeId": "22166",
        "retailerId": "183",
        "storeName": "IGA Langley Park - Foodies Market",
        "address": "99 ADELAIDE TERRACE",
        "suburb": "East Perth",
        "state": "WA",
        "postcode": "6004",
        "phone": "",
        "fax": "",
        "hours": "",
        "hoursDay": "",
        "regionId": null,
        "latitude": "-31.961200000000000",
        "longitude": "115.873410000000000",
        "tag": "",
        "locationNumber": "0",
        "saleGroupId": "0",
        "christmasHours": "",
        "christmasHoursDay": "Please contact the store for Easter opening hours.",
        "updateTimeStamp": "2025-04-11 15:06:03",
        "postcodeId": "13650",
        "storeUrl": "",
        "updated": "0",
        "onlineShopUrl": "",
        "ecommerceUrl": "",
        "distance": "0.042418962670013514"
    },
    {
        "storeId": "19104",
        "retailerId": "183",
        "storeName": "The Good Grocer South Perth IGA",
        "address": "21 Mends Street",
        "suburb": "South Perth",
        "state": "WA",
        "postcode": "6151",
        "phone": "08 6244 5581",
        "fax": "08 6244 5584",
        "hours": "24 Hours\r\n24 Hours\r\n24 Hours\r\n24 Hours\r\n24 Hours\r\n24 Hours\r\n24 Hours",
        "hoursDay": "Monday\r\nTuesday \r\nWednesday\r\nThursday\r\nFriday\r\nSaturday\r\nSunday",
        "regionId": "0",
        "latitude": "-31.972178000000000",
        "longitude": "115.851675000000000",
        "tag": "82921",
        "locationNumber": "64206253",
        "saleGroupId": "0",
        "christmasHours": "",
        "christmasHoursDay": "Please contact the store for Easter opening hours.",
        "updateTimeStamp": "2025-04-10 13:33:09",
        "postcodeId": "13945",
        "storeUrl": "",
        "updated": "0",
        "onlineShopUrl": "",
        "ecommerceUrl": "",
        "distance": "0.04604149360088137"
    },
    {
        "storeId": "15448",
        "retailerId": "183",
        "storeName": "IGA Rivervale",
        "address": "126 Kooyong Road\n",
        "suburb": "Rivervale",
        "state": "WA",
        "postcode": "6103",
        "phone": "08 9361 6071",
        "fax": "",
        "hours": "7:00 AM - 9:00 PM\r\n7:00 AM - 9:00 PM\r\n7:00 AM - 9:00 PM\r\n7:00 AM - 9:00 PM\r\n7:00 AM - 9:00 PM\r\n7:00 AM - 9:00 PM\r\n8:00 AM - 8:00 PM",
        "hoursDay": "Monday\r\nTuesday\r\nWednesday\r\nThursday\r\nFriday\r\nSaturday\r\nSunday",
        "regionId": "0",
        "latitude": "-31.962845000000000",
        "longitude": "115.914970000000000",
        "tag": "39752",
        "locationNumber": "64108855",
        "saleGroupId": "0",
        "christmasHours": "",
        "christmasHoursDay": "Please contact the store for Easter opening hours.",
        "updateTimeStamp": "2025-04-10 13:33:09",
        "postcodeId": "13876",
        "storeUrl": "",
        "updated": "0",
        "onlineShopUrl": "",
        "ecommerceUrl": "",
        "distance": "0.047296115157589844"
    },
    {
        "storeId": "15337",
        "retailerId": "183",
        "storeName": "IGA Local Grocer East Perth",
        "address": "81 Royal Street\r\n",
        "suburb": "East Perth",
        "state": "WA",
        "postcode": "6004",
        "phone": "08 9221 2746",
        "fax": "",
        "hours": "7:00 AM - 9:00 PM\r\n7:00 AM - 9:00 PM\r\n7:00 AM - 9:00 PM\r\n7:00 AM - 9:00 PM\r\n7:00 AM - 9:00 PM\r\n7:00 AM - 9:00 PM\r\n8:00 AM - 9:00 PM",
        "hoursDay": "Monday\r\nTuesday\r\nWednesday\r\nThursday\r\nFriday\r\nSaturday\r\nSunday",
        "regionId": null,
        "latitude": "-31.953172700000000",
        "longitude": "115.878092100000000",
        "tag": "48108",
        "locationNumber": "64202240",
        "saleGroupId": "0",
        "christmasHours": "",
        "christmasHoursDay": "Please contact the store for Easter opening hours.",
        "updateTimeStamp": "2025-04-11 15:06:03",
        "postcodeId": "13650",
        "storeUrl": "",
        "updated": "0",
        "onlineShopUrl": "",
        "ecommerceUrl": "",
        "distance": "0.048969813947982284"
    },
    {
        "storeId": "15339",
        "retailerId": "183",
        "storeName": "IGA Local Grocer Eastgate",
        "address": "Cnr Great Eastern Highway & Kooyong Road, Rivervale WA 6103",
        "suburb": "Rivervale",
        "state": "WA",
        "postcode": "6103",
        "phone": "",
        "fax": "",
        "hours": "7:00 AM - 9:00 PM\r\n7:00 AM - 9:00 PM\r\n7:00 AM - 9:00 PM\r\n7:00 AM - 9:00 PM\r\n7:00 AM - 9:00 PM\r\n7:00 AM - 9:00 PM\r\n7:30 AM - 9:00 PM",
        "hoursDay": "Monday\r\nTuesday\r\nWednesday\r\nThursday\r\nFriday\r\nSaturday\r\nSunday",
        "regionId": null,
        "latitude": "-31.955901000000000",
        "longitude": "115.907081000000000",
        "tag": "48432",
        "locationNumber": "1208",
        "saleGroupId": "0",
        "christmasHours": "CLOSED\r\n7:00am - 9:00pm\r\n8:00am - 9:00pm\r\n7:00am - 9:00pm\r\n7:00am - 9:00pm\r\n7:00am - 9:00pm\r\n7:00am - 9:00pm\r\n7:00am - 9:00pm\r\n7:00am - 9:00pm\r\n8:00am - 9:00pm",
        "christmasHoursDay": "18 Apr\r\n19 Apr\r\n20 Apr\r\n21 Apr\r\n22 Apr\r\n23 Apr\r\n24 Apr\r\n25 Apr\r\n26 Apr\r\n27 Apr",
        "updateTimeStamp": "2025-04-11 15:06:25",
        "postcodeId": "13866",
        "storeUrl": "",
        "updated": "0",
        "onlineShopUrl": "",
        "ecommerceUrl": "",
        "distance": "0.04945089058854248"
    },
    {
        "storeId": "15452",
        "retailerId": "183",
        "storeName": "IGA Local Grocer Rostrata + Bottlemart Willetton",
        "address": "Cnr Glenmoy & Rostrata Avenue",
        "suburb": "Willetton",
        "state": "WA",
        "postcode": "6155",
        "phone": "08 9457 2767",
        "fax": "",
        "hours": "7:00 AM - 8:30 PM\r\n7:00 AM - 8:30 PM\r\n7:00 AM - 8:30 PM\r\n7:00 AM - 8:30 PM\r\n7:00 AM - 8:30 PM\r\n7:00 AM - 8:30 PM\r\n7:00 AM - 8:30 PM",
        "hoursDay": "Monday\r\nTuesday\r\nWednesday\r\nThursday\r\nFriday\r\nSaturday\r\nSunday",
        "regionId": null,
        "latitude": "-32.049406890000000",
        "longitude": "115.898873800000000",
        "tag": "48275",
        "locationNumber": "2201",
        "saleGroupId": "0",
        "christmasHours": "CLOSED\r\n7:00am - 8:30pm\r\nCLOSED\r\nCLOSED\r\n7:00am - 8:30pm\r\n7:00am - 8:30pm\r\n7:00am - 8:30pm\r\nCLOSED\r\n7:00am - 8:30pm\r\n7:00am - 8:30pm",
        "christmasHoursDay": "18 Apr\r\n19 Apr\r\n20 Apr\r\n21 Apr\r\n22 Apr\r\n23 Apr\r\n24 Apr\r\n25 Apr\r\n26 Apr\r\n27 Apr",
        "updateTimeStamp": "2025-04-11 15:06:32",
        "postcodeId": "13965",
        "storeUrl": "",
        "updated": "0",
        "onlineShopUrl": "",
        "ecommerceUrl": "",
        "distance": "0.049506291632600605"
    },
    {
        "storeId": "15355",
        "retailerId": "183",
        "storeName": "Hambley's IGA",
        "address": "193 Sevenoaks Street\r\n",
        "suburb": "Queens Park",
        "state": "WA",
        "postcode": "6107",
        "phone": "08 9356 1540",
        "fax": "",
        "hours": "8:00 AM - 8:00 PM\r\n8:00 AM - 8:00 PM\r\n8:00 AM - 8:00 PM\r\n8:00 AM - 8:00 PM\r\n8:00 AM - 8:00 PM\r\n8:00 AM - 8:00 PM\r\n8:00 AM - 8:00 PM",
        "hoursDay": "Monday\r\nTuesday\r\nWednesday\r\nThursday\r\nFriday\r\nSaturday\r\nSunday",
        "regionId": null,
        "latitude": "-32.007566000000000",
        "longitude": "115.938474000000000",
        "tag": "48104",
        "locationNumber": "64181455",
        "saleGroupId": "0",
        "christmasHours": "",
        "christmasHoursDay": "Please contact the store for Easter opening hours.",
        "updateTimeStamp": "2025-04-11 15:06:03",
        "postcodeId": "13888",
        "storeUrl": "",
        "updated": "0",
        "onlineShopUrl": "https://hambleys.myfoodlink.com/?utm_source=igawebsite&utm_medium=tile&utm_campaign=store_locator&utm_content=cta_button",
        "ecommerceUrl": "",
        "distance": "0.0514892311265181"
    },
    {
        "storeId": "15394",
        "retailerId": "183",
        "storeName": "Lynwood IGA",
        "address": "6-12 Lynwood Avenue\r\nShop 1 Lynwood Village",
        "suburb": "Lynwood",
        "state": "WA",
        "postcode": "6147",
        "phone": "08 9458 3796",
        "fax": "",
        "hours": "8:00 AM - 9:00 PM\r\n8:00 AM - 9:00 PM\r\n8:00 AM - 9:00 PM\r\n8:00 AM - 9:00 PM\r\n8:00 AM - 9:00 PM\r\n8:00 AM - 9:00 PM\r\n8:00 AM - 9:00 PM",
        "hoursDay": "Monday\r\nTuesday\r\nWednesday\r\nThursday\r\nFriday\r\nSaturday\r\nSunday",
        "regionId": null,
        "latitude": "-32.036079000000000",
        "longitude": "115.927230000000000",
        "tag": "48112",
        "locationNumber": "64134635",
        "saleGroupId": "0",
        "christmasHours": "",
        "christmasHoursDay": "Please contact the store for Easter opening hours.",
        "updateTimeStamp": "2025-04-11 15:06:03",
        "postcodeId": "13935",
        "storeUrl": "",
        "updated": "0",
        "onlineShopUrl": "",
        "ecommerceUrl": "",
        "distance": "0.05292722763379922"
    },
    {
        "storeId": "15513",
        "retailerId": "183",
        "storeName": "The Good Grocer Mt Pleasant IGA",
        "address": "80 Cranford Ave\r\n",
        "suburb": "Mount Pleasant",
        "state": "WA",
        "postcode": "6153",
        "phone": "08 9364 6488",
        "fax": "",
        "hours": "8:00 AM - 9:00 PM\r\n8:00 AM - 9:00 PM\r\n8:00 AM - 9:00 PM\r\n8:00 AM - 9:00 PM\r\n8:00 AM - 9:00 PM\r\n8:00 AM - 5:00 PM\r\n11:00 AM - 5:00 PM",
        "hoursDay": "Monday\r\nTuesday\r\nWednesday\r\nThursday\r\nFriday\r\nSaturday\r\nSunday",
        "regionId": null,
        "latitude": "-32.041027000000000",
        "longitude": "115.848862000000000",
        "tag": "48098",
        "locationNumber": "64204188",
        "saleGroupId": "0",
        "christmasHours": "",
        "christmasHoursDay": "Please contact the store for Easter opening hours.",
        "updateTimeStamp": "2025-04-10 13:33:09",
        "postcodeId": "13955",
        "storeUrl": "",
        "updated": "0",
        "onlineShopUrl": "",
        "ecommerceUrl": "",
        "distance": "0.05536162122806738"
    },
    {
        "storeId": "15427",
        "retailerId": "183",
        "storeName": "IGA Northbridge",
        "address": "150 Newcastle Street\r\n",
        "suburb": "Northbridge",
        "state": "WA",
        "postcode": "6003",
        "phone": "(08) 9228 2152",
        "fax": "",
        "hours": "7:00 AM - 9:00 PM\r\n7:00 AM - 9:00 PM\r\n7:00 AM - 9:00 PM\r\n7:00 AM - 9:00 PM\r\n7:00 AM - 9:00 PM\r\n8:00 AM - 9:00 PM\r\n8:00 AM - 9:00 PM",
        "hoursDay": "Monday\r\nTuesday\r\nWednesday\r\nThursday\r\nFriday\r\nSaturday\r\nSunday",
        "regionId": null,
        "latitude": "-31.945499000000000",
        "longitude": "115.859474000000000",
        "tag": "84468",
        "locationNumber": "64201340",
        "saleGroupId": "0",
        "christmasHours": "",
        "christmasHoursDay": "Please contact the store for Easter opening hours.",
        "updateTimeStamp": "2025-04-11 15:06:03",
        "postcodeId": "13649",
        "storeUrl": "",
        "updated": "0",
        "onlineShopUrl": "",
        "ecommerceUrl": "",
        "distance": "0.0623464973915937"
    },
    {
        "storeId": "15298",
        "retailerId": "183",
        "storeName": "IGA Local Grocer Bull Creek",
        "address": "8/118 Parry Ave",
        "suburb": "Bullcreek",
        "state": "WA",
        "postcode": "6149",
        "phone": "(08) 6288 0622",
        "fax": "",
        "hours": "7AM - 9PM\r\n7AM - 9PM\r\n7AM - 9PM\r\n7AM - 9PM\r\n7AM - 9PM\r\n7AM - 9PM\r\n7AM - 9PM",
        "hoursDay": "Monday\r\nTuesday\r\nWednesday\r\nThursday\r\nFriday\r\nSaturday\r\nSunday",
        "regionId": null,
        "latitude": "-32.054517390000000",
        "longitude": "115.845438800000000",
        "tag": "51309",
        "locationNumber": "64204137",
        "saleGroupId": "0",
        "christmasHours": "",
        "christmasHoursDay": "Please contact the store for Easter opening hours.",
        "updateTimeStamp": "2025-07-30 17:22:33",
        "postcodeId": "13941",
        "storeUrl": "",
        "updated": "0",
        "onlineShopUrl": "",
        "ecommerceUrl": "",
        "distance": "0.06778907963788931"
    },
    {
        "storeId": "15412",
        "retailerId": "183",
        "storeName": "The Market Place Mt Lawley IGA",
        "address": "629 Beaufort Street\r\n",
        "suburb": "Mt Lawley",
        "state": "WA",
        "postcode": "6050",
        "phone": "08 9328 8761",
        "fax": "",
        "hours": "7:30 AM - 9:00 PM\r\n7:30 AM - 9:00 PM\r\n7:30 AM - 9:00 PM\r\n7:30 AM - 9:00 PM\r\n7:30 AM - 9:00 PM\r\n7:30 AM - 9:00 PM\r\n7:30 AM - 9:00 PM",
        "hoursDay": "Monday\r\nTuesday\r\nWednesday\r\nThursday\r\nFriday\r\nSaturday\r\nSunday",
        "regionId": null,
        "latitude": "-31.935106000000000",
        "longitude": "115.871559000000000",
        "tag": "48254",
        "locationNumber": "64206288",
        "saleGroupId": "0",
        "christmasHours": "",
        "christmasHoursDay": "Please contact the store for Easter opening hours.",
        "updateTimeStamp": "2025-04-11 15:06:03",
        "postcodeId": "13648",
        "storeUrl": "",
        "updated": "0",
        "onlineShopUrl": "",
        "ecommerceUrl": "",
        "distance": "0.06801303402289888"
    },
    {
        "storeId": "15400",
        "retailerId": "183",
        "storeName": "Maylands IGA",
        "address": "238 Guildford Road\r\nShop 1",
        "suburb": "Maylands",
        "state": "WA",
        "postcode": "6051",
        "phone": "",
        "fax": "",
        "hours": "6AM - 9PM\r\n6AM - 9PM\r\n6AM - 9PM\r\n6AM - 9PM\r\n6AM - 9PM\r\n6AM - 9PM\r\n6AM - 9PM",
        "hoursDay": "Monday\r\nTuesday\r\nWednesday\r\nThursday\r\nFriday\r\nSaturday\r\nSunday",
        "regionId": null,
        "latitude": "-31.929560000000000",
        "longitude": "115.896812000000000",
        "tag": "39785",
        "locationNumber": "64201995",
        "saleGroupId": "0",
        "christmasHours": "",
        "christmasHoursDay": "Please contact the store for Easter opening hours.",
        "updateTimeStamp": "2025-07-29 10:48:59",
        "postcodeId": "13753",
        "storeUrl": "",
        "updated": "0",
        "onlineShopUrl": "",
        "ecommerceUrl": "",
        "distance": "0.0723136760647666"
    },
    {
        "storeId": "19961",
        "retailerId": "183",
        "storeName": "IGA Local Grocer Maylands",
        "address": "5/89 Eighth Avenue",
        "suburb": "Maylands",
        "state": "WA",
        "postcode": "6051",
        "phone": "",
        "fax": "",
        "hours": "6:00 AM - 9:00 PM\r\n6:00 AM - 9:00 PM\r\n6:00 AM - 9:00 PM\r\n6:00 AM - 9:00 PM\r\n6:00 AM - 9:00 PM\r\n6:00 AM - 9:00 PM\r\n6:00 AM - 9:00 PM",
        "hoursDay": "Monday\r\nTuesday\r\nWednesday\r\nThursday\r\nFriday\r\nSaturday\r\nSunday",
        "regionId": null,
        "latitude": "-31.929010000000000",
        "longitude": "115.891890000000000",
        "tag": "48132",
        "locationNumber": "0",
        "saleGroupId": "0",
        "christmasHours": "",
        "christmasHoursDay": "Please contact the store for Easter opening hours.",
        "updateTimeStamp": "2025-04-10 13:33:09",
        "postcodeId": "13753",
        "storeUrl": "",
        "updated": "0",
        "onlineShopUrl": "",
        "ecommerceUrl": "",
        "distance": "0.07238607127065262"
    },
    {
        "storeId": "15501",
        "retailerId": "183",
        "storeName": "The Good Grocer 2nd\u00a0Ave IGA",
        "address": "Cnr Second Ave & Beaufort Street\r\n",
        "suburb": "Mt Lawley",
        "state": "WA",
        "postcode": "6050",
        "phone": "08 9272 2900",
        "fax": "",
        "hours": "",
        "hoursDay": "24 hours a day, 7 days a week",
        "regionId": null,
        "latitude": "-31.927985000000000",
        "longitude": "115.878018000000000",
        "tag": "83444",
        "locationNumber": "64200590",
        "saleGroupId": "0",
        "christmasHours": "",
        "christmasHoursDay": "Please contact the store for Easter opening hours.",
        "updateTimeStamp": "2025-04-10 13:33:09",
        "postcodeId": "13752",
        "storeUrl": "",
        "updated": "0",
        "onlineShopUrl": "",
        "ecommerceUrl": "",
        "distance": "0.07386480166493375"
    },
    {
        "storeId": "15295",
        "retailerId": "183",
        "storeName": "Tucker Fresh IGA Broadway",
        "address": "Shop 33 Broadway Fair Shopping Centre, 88 Broadway",
        "suburb": "Crawley",
        "state": "WA",
        "postcode": "6009",
        "phone": "08 9386 4356",
        "fax": "",
        "hours": "7:00 AM - 10:00 PM\r\n7:00 AM - 10:00 PM\r\n7:00 AM - 10:00 PM\r\n7:00 AM - 10:00 PM\r\n7:00 AM - 10:00 PM\r\n7:00 AM - 10:00 PM\r\n7:00 AM - 10:00 PM",
        "hoursDay": "Monday\r\nTuesday\r\nWednesday\r\nThursday\r\nFriday\r\nSaturday\r\nSunday",
        "regionId": null,
        "latitude": "-31.983863600000000",
        "longitude": "115.814620300000000",
        "tag": "49967",
        "locationNumber": "64122386",
        "saleGroupId": "0",
        "christmasHours": "7:00am - 10:00pm\r\n7:00am - 10:00pm\r\n7:00am - 10:00pm\r\n7:00am - 10:00pm\r\n7:00am - 10:00pm\r\n7:00am - 10:00pm\r\n7:00am - 10:00pm\r\n7:00am - 10:00pm\r\n7:00am - 10:00pm\r\n7:00am - 10:00pm",
        "christmasHoursDay": "18 Apr\r\n19 Apr\r\n20 Apr\r\n21 Apr\r\n22 Apr\r\n23 Apr\r\n24 Apr\r\n25 Apr\r\n26 Apr\r\n27 Apr",
        "updateTimeStamp": "2025-04-11 15:06:33",
        "postcodeId": "13661",
        "storeUrl": "",
        "updated": "0",
        "onlineShopUrl": "",
        "ecommerceUrl": "",
        "distance": "0.07480251433775473"
    },
    {
        "storeId": "15281",
        "retailerId": "183",
        "storeName": "IGA Beckenham",
        "address": "190 William Street\n",
        "suburb": "Beckenham",
        "state": "WA",
        "postcode": "6107",
        "phone": "08 9458 7970",
        "fax": "",
        "hours": "7:00 AM - 7:30 PM\r\n7:00 AM - 7:30 PM\r\n7:00 AM - 7:30 PM\r\n7:00 AM - 8:00 PM\r\n7:00 AM - 8:00 PM\r\n7:00 AM - 8:00 PM\r\n7:00 AM - 7:00 PM",
        "hoursDay": "Monday\r\nTuesday\r\nWednesday\r\nThursday\r\nFriday\r\nSaturday\r\nSunday",
        "regionId": "0",
        "latitude": "-32.014046000000000",
        "longitude": "115.965019000000000",
        "tag": "6008",
        "locationNumber": "64201626",
        "saleGroupId": "0",
        "christmasHours": "",
        "christmasHoursDay": "Please contact the store for Easter opening hours.",
        "updateTimeStamp": "2025-04-10 13:33:09",
        "postcodeId": "13886",
        "storeUrl": "",
        "updated": "0",
        "onlineShopUrl": "",
        "ecommerceUrl": "",
        "distance": "0.07869250915430262"
    },
    {
        "storeId": "21460",
        "retailerId": "183",
        "storeName": "Tucker Fresh IGA Dalkeith",
        "address": "Dalkeith Village, 81 Waratah Ave",
        "suburb": "Dalkeith",
        "state": "WA",
        "postcode": "6009",
        "phone": "9386 3040",
        "fax": "",
        "hours": "7:00 AM - 7:00 PM\r\n7:00 AM - 7:00 PM\r\n7:00 AM - 7:00 PM\r\n7:00 AM - 7:00 PM\r\n7:00 AM - 7:00 PM\r\n7:00 AM - 7:00 PM\r\n7:00 AM - 7:00 PM",
        "hoursDay": "Monday\r\nTuesday\r\nWednesday\r\nThursday\r\nFriday\r\nSaturday\r\nSunday",
        "regionId": null,
        "latitude": "-31.994419000000000",
        "longitude": "115.798157000000000",
        "tag": "48242",
        "locationNumber": "0",
        "saleGroupId": "0",
        "christmasHours": "7:00am - 8:00pm\r\n7:00am - 8:00pm\r\n7:00am - 8:00pm\r\n7:00am - 8:00pm\r\n7:00am - 8:00pm\r\n7:00am - 8:00pm\r\n7:00am - 8:00pm\r\n7:00am - 8:00pm\r\n7:00am - 8:00pm\r\n7:00am - 8:00pm",
        "christmasHoursDay": "18 Apr\r\n19 Apr\r\n20 Apr\r\n21 Apr\r\n22 Apr\r\n23 Apr\r\n24 Apr\r\n25 Apr\r\n26 Apr\r\n27 Apr",
        "updateTimeStamp": "2025-04-11 15:06:33",
        "postcodeId": "13662",
        "storeUrl": "https://www.tuckerfreshiga.com.au/dalkeith/?utm_source=igawebsite&utm_medium=tile&utm_campaign=store_locator&utm_content=cta_button",
        "updated": "0",
        "onlineShopUrl": "https://dalkeith.shop.tuckerfresh.com.au/?utm_source=igawebsite&utm_medium=tile&utm_campaign=store_locator&utm_content=cta_button",
        "ecommerceUrl": "",
        "distance": "0.0894775142256422"
    },
    {
        "storeId": "15282",
        "retailerId": "183",
        "storeName": "Bedford IGA",
        "address": "174 Grand Promenade\n",
        "suburb": "Bedford",
        "state": "WA",
        "postcode": "6052",
        "phone": "08 9370 4997",
        "fax": "",
        "hours": "7AM - 9PM\r\n7AM - 9PM\r\n7AM - 9PM\r\n7AM - 9PM\r\n7AM - 9PM\r\n7AM - 9PM\r\n7AM - 9PM\r\n",
        "hoursDay": "Monday\r\nTuesday\r\nWednesday\r\nThursday\r\nFriday\r\nSaturday\r\nSunday",
        "regionId": "0",
        "latitude": "-31.910569000000000",
        "longitude": "115.887558000000000",
        "tag": "48097",
        "locationNumber": "64200379",
        "saleGroupId": "0",
        "christmasHours": "7:00am - 8:00pm\r\n7:00am - 8:00pm\r\n7:00am - 8:00pm\r\n7:00am - 8:00pm\r\n7:00am - 8:00pm\r\n7:00am - 8:00pm\r\n7:00am - 8:00pm\r\n7:00am - 8:00pm\r\n7:00am - 8:00pm\r\n7:00am - 8:00pm",
        "christmasHoursDay": "18 Apr\r\n19 Apr\r\n20 Apr\r\n21 Apr\r\n22 Apr\r\n23 Apr\r\n24 Apr\r\n25 Apr\r\n26 Apr\r\n27 Apr",
        "updateTimeStamp": "2025-04-11 15:06:24",
        "postcodeId": "13755",
        "storeUrl": "",
        "updated": "0",
        "onlineShopUrl": "",
        "ecommerceUrl": "",
        "distance": "0.09068618870037488"
    },
    {
        "storeId": "21755",
        "retailerId": "183",
        "storeName": "IGA Nicholson Tucker Fresh",
        "address": "Shop TI 459 Nicholson Rd",
        "suburb": "Canning Vale",
        "state": "WA",
        "postcode": "6155",
        "phone": "(08) 863636141",
        "fax": "",
        "hours": "7:00 AM - 9:00 PM\r\n7:00 AM - 9:00 PM\r\n7:00 AM - 9:00 PM\r\n7:00 AM - 9:00 PM\r\n7:00 AM - 9:00 PM\r\n7:00 AM - 9:00 PM\r\n7:00 AM - 9:00 PM",
        "hoursDay": "Monday\r\nTuesday\r\nWednesday\r\nThursday\r\nFriday\r\nSaturday\r\nSunday",
        "regionId": null,
        "latitude": "-32.063140000000000",
        "longitude": "115.935500000000000",
        "tag": "",
        "locationNumber": "0",
        "saleGroupId": "0",
        "christmasHours": "7:00am - 9:00pm\r\n7:00am - 9:00pm\r\n7:00am - 9:00pm\r\n7:00am - 9:00pm\r\n7:00am - 9:00pm\r\n7:00am - 9:00pm\r\n7:00am - 9:00pm\r\n7:00am - 9:00pm\r\n7:00am - 9:00pm\r\n7:00am - 9:00pm",
        "christmasHoursDay": "18 Apr\r\n19 Apr\r\n20 Apr\r\n21 Apr\r\n22 Apr\r\n23 Apr\r\n24 Apr\r\n25 Apr\r\n26 Apr\r\n27 Apr",
        "updateTimeStamp": "2025-04-11 15:06:33",
        "postcodeId": "13891",
        "storeUrl": "",
        "updated": "0",
        "onlineShopUrl": "",
        "ecommerceUrl": "",
        "distance": "0.07044718220056782"
    },
    {
        "storeId": "15504",
        "retailerId": "183",
        "storeName": "All Foods Market Leeming IGA",
        "address": "Cnr Farrington and Findlay Road\n",
        "suburb": "Leeming",
        "state": "WA",
        "postcode": "6149",
        "phone": "08 9310 3294",
        "fax": "",
        "hours": "6:00 AM - 10:00 PM\r\n6:00 AM - 10:00 PM\r\n6:00 AM - 10:00 PM\r\n6:00 AM - 10:00 PM\r\n6:00 AM - 10:00 PM\r\n6:00 AM - 10:00 PM\r\n6:00 AM - 10:00 PM",
        "hoursDay": "Monday\r\nTuesday\r\nWednesday\r\nThursday\r\nFriday\r\nSaturday\r\nSunday",
        "regionId": "0",
        "latitude": "-32.079375000000000",
        "longitude": "115.857460000000000",
        "tag": "48279",
        "locationNumber": "64135127",
        "saleGroupId": "0",
        "christmasHours": "",
        "christmasHoursDay": "Please contact the store for Easter opening hours.",
        "updateTimeStamp": "2025-04-10 13:33:09",
        "postcodeId": "13940",
        "storeUrl": "https://www.allfoodsmarket.com.au/?utm_source=igawebsite&utm_medium=tile&utm_campaign=store_locator&utm_content=cta_button",
        "updated": "0",
        "onlineShopUrl": "",
        "ecommerceUrl": "",
        "distance": "0.07311296714673807"
    },
    {
        "storeId": "15420",
        "retailerId": "183",
        "storeName": "Myaree IGA",
        "address": "67 North Lake Road\r\nMyaree Shopping Centre",
        "suburb": "Myaree",
        "state": "WA",
        "postcode": "6154",
        "phone": "08 9330 6635",
        "fax": "",
        "hours": "",
        "hoursDay": "Open 24 hours, 7 days a week",
        "regionId": null,
        "latitude": "-32.038967000000000",
        "longitude": "115.815607000000000",
        "tag": "48113",
        "locationNumber": "64206890",
        "saleGroupId": "0",
        "christmasHours": "",
        "christmasHoursDay": "Please contact the store for Easter opening hours.",
        "updateTimeStamp": "2025-04-10 13:33:09",
        "postcodeId": "13960",
        "storeUrl": "",
        "updated": "0",
        "onlineShopUrl": "https://shop.thegoodgrocer.com.au/?utm_source=igawebsite&utm_medium=tile&utm_campaign=store_locator&utm_content=cta_button",
        "ecommerceUrl": "",
        "distance": "0.07589030774743241"
    },
    {
        "storeId": "15286",
        "retailerId": "183",
        "storeName": "IGA Belmont (Belvidere St)",
        "address": "Cnr Belvidere Street & Keymer Street",
        "suburb": "Belmont",
        "state": "WA",
        "postcode": "6104",
        "phone": "08 9478 1506",
        "fax": "",
        "hours": "6:00 AM - 9:00 PM\r\n6:00 AM - 9:00 PM\r\n6:00 AM - 9:00 PM\r\n6:00 AM - 9:00 PM\r\n6:00 AM - 9:00 PM\r\n6:00 AM - 9:00 PM\r\n6:00 AM - 9:00 PM",
        "hoursDay": "Monday\r\nTuesday\r\nWednesday\r\nThursday\r\nFriday\r\nSaturday\r\nSunday",
        "regionId": null,
        "latitude": "-31.946117000000000",
        "longitude": "115.940437000000000",
        "tag": "48277",
        "locationNumber": "64187984",
        "saleGroupId": "0",
        "christmasHours": "",
        "christmasHoursDay": "Please contact the store for Easter opening hours.",
        "updateTimeStamp": "2025-04-10 13:33:09",
        "postcodeId": "13878",
        "storeUrl": "https://www.allfoodsmarket.com.au/?utm_source=igawebsite&utm_medium=tile&utm_campaign=store_locator&utm_content=cta_button",
        "updated": "0",
        "onlineShopUrl": "",
        "ecommerceUrl": "",
        "distance": "0.030469559776931467"
    },
    {
        "storeId": "15277",
        "retailerId": "183",
        "storeName": "IGA Local Grocer Bayswater",
        "address": "81 Whatley Cresent\r\n",
        "suburb": "Bayswater",
        "state": "WA",
        "postcode": "6053",
        "phone": "08 9271 2660",
        "fax": "",
        "hours": "",
        "hoursDay": "",
        "regionId": null,
        "latitude": "-31.918538000000000",
        "longitude": "115.912540000000000",
        "tag": "48262",
        "locationNumber": "1042",
        "saleGroupId": "0",
        "christmasHours": "7:30am - 5:30am\r\n7:30am - 5:30am\r\n7:30am - 5:30am\r\n7:30am - 5:30am\r\n7:00am - 6:30pm\r\n7:00am - 6:30pm\r\n7:00am - 6:30pm\r\n7:00am - 6:30pm\r\n7:30am - 5:30pm\r\n7:30am - 5:30pm",
        "christmasHoursDay": "18 Apr\r\n19 Apr\r\n20 Apr\r\n21 Apr\r\n22 Apr\r\n23 Apr\r\n24 Apr\r\n25 Apr\r\n26 Apr\r\n27 Apr",
        "updateTimeStamp": "2025-04-11 15:06:30",
        "postcodeId": "13756",
        "storeUrl": "",
        "updated": "0",
        "onlineShopUrl": "",
        "ecommerceUrl": "",
        "distance": "0.04437358616339229"
    },
    {
        "storeId": "15272",
        "retailerId": "183",
        "storeName": "IGA Local Grocer Ashfield",
        "address": "3A Colstoun Road\r\n",
        "suburb": "Ashfield",
        "state": "WA",
        "postcode": "6054",
        "phone": "08 9279 7424",
        "fax": "",
        "hours": "6:00 AM - 8:30 PM\r\n6:00 AM - 8:30 PM\r\n6:00 AM - 8:30 PM\r\n6:00 AM - 8:30 PM\r\n6:00 AM - 8:30 PM\r\n6:00 AM - 8:30 PM\r\n6:00 AM - 8:30 PM\r\n",
        "hoursDay": "Monday\r\nTuesday\r\nWednesday\r\nThursday\r\nFriday\r\nSaturday\r\nSunday",
        "regionId": null,
        "latitude": "-31.914280100000000",
        "longitude": "115.936489100000000",
        "tag": "48240",
        "locationNumber": "64204145",
        "saleGroupId": "0",
        "christmasHours": "",
        "christmasHoursDay": "Please contact the store for Easter opening hours.",
        "updateTimeStamp": "2025-04-10 13:33:09",
        "postcodeId": "13757",
        "storeUrl": "",
        "updated": "0",
        "onlineShopUrl": "",
        "ecommerceUrl": "",
        "distance": "0.05311893425907564"
    },
    {
        "storeId": "15382",
        "retailerId": "183",
        "storeName": "IGA Kiara",
        "address": "Cnr Aussat Drive & Bottlebrush Drive\r\n",
        "suburb": "Kiara",
        "state": "WA",
        "postcode": "6054",
        "phone": "08 9377 3295",
        "fax": "",
        "hours": "7:00 AM - 8:00 PM\r\n7:00 AM - 8:00 PM\r\n7:00 AM - 8:00 PM\r\n7:00 AM - 8:00 PM\r\n7:00 AM - 8:00 PM\r\n7:00 AM - 8:00 PM\r\n7:00 AM - 8:00 PM",
        "hoursDay": "Monday\r\nTuesday\r\nWednesday\r\nThursday\r\nFriday\r\nSaturday\r\nSunday",
        "regionId": null,
        "latitude": "-31.886864000000000",
        "longitude": "115.938699000000000",
        "tag": "48380",
        "locationNumber": "64199346",
        "saleGroupId": "0",
        "christmasHours": "7:00am - 8:00pm\r\n7:00am - 8:00pm\r\n7:00am - 8:00pm\r\n7:00am - 8:00pm\r\n7:00am - 8:00pm\r\n7:00am - 8:00pm\r\n7:00am - 8:00pm\r\n7:00am - 8:00pm\r\n7:00am - 8:00pm\r\n7:00am - 8:00pm",
        "christmasHoursDay": "18 Apr\r\n19 Apr\r\n20 Apr\r\n21 Apr\r\n22 Apr\r\n23 Apr\r\n24 Apr\r\n25 Apr\r\n26 Apr\r\n27 Apr",
        "updateTimeStamp": "2025-04-11 15:06:26",
        "postcodeId": "13760",
        "storeUrl": "",
        "updated": "0",
        "onlineShopUrl": "",
        "ecommerceUrl": "",
        "distance": "0.0796001118215295"
    },
    {
        "storeId": "15363",
        "retailerId": "183",
        "storeName": "IGA High Wycombe",
        "address": "37 Newburn Road",
        "suburb": "High Wycombe",
        "state": "WA",
        "postcode": "6057",
        "phone": "08 9454 5247",
        "fax": "",
        "hours": "6:00 AM - 8:00 PM\r\n6:00 AM - 8:00 PM\r\n6:00 AM - 8:00 PM\r\n6:00 AM - 8:00 PM\r\n6:00 AM - 8:00 PM\r\n6:00 AM - 8:00 PM\r\n6:00 AM - 8:00 PM",
        "hoursDay": "Monday\r\nTuesday\r\nWednesday\r\nThursday\r\nFriday\r\nSaturday\r\nSunday",
        "regionId": null,
        "latitude": "-31.940445000000000",
        "longitude": "115.992310000000000",
        "tag": "39766",
        "locationNumber": "1298",
        "saleGroupId": "0",
        "christmasHours": "",
        "christmasHoursDay": "Please contact the store for Easter opening hours.",
        "updateTimeStamp": "2025-04-11 15:06:03",
        "postcodeId": "13882",
        "storeUrl": "",
        "updated": "0",
        "onlineShopUrl": "",
        "ecommerceUrl": "",
        "distance": "0.08051854196394767"
    },
    {
        "storeId": "15391",
        "retailerId": "183",
        "storeName": "The Good Grocer Leederville IGA",
        "address": "313 Vincent Street\r\n",
        "suburb": "Leederville",
        "state": "WA",
        "postcode": "6007",
        "phone": "08 9444 8431",
        "fax": "",
        "hours": "",
        "hoursDay": "24 hours, 7 days per week",
        "regionId": null,
        "latitude": "-31.936516000000000",
        "longitude": "115.840530000000000",
        "tag": "10446",
        "locationNumber": "64199621",
        "saleGroupId": "0",
        "christmasHours": "",
        "christmasHoursDay": "Please contact the store for Easter opening hours.",
        "updateTimeStamp": "2025-04-10 13:33:09",
        "postcodeId": "13654",
        "storeUrl": "",
        "updated": "0",
        "onlineShopUrl": "",
        "ecommerceUrl": "",
        "distance": "0.04111440448310057"
    },
    {
        "storeId": "15413",
        "retailerId": "183",
        "storeName": "Naturally Fresh IGA Mt Hawthorn",
        "address": "173 Scarborough Beach Road\r\n",
        "suburb": "Mount Hawthorn",
        "state": "WA",
        "postcode": "6016",
        "phone": "08 9444 8072",
        "fax": "",
        "hours": "6:00AM - 10:00PM\r\n6:00AM - 10:00PM\r\n6:00AM - 10:00PM\r\n6:00AM - 10:00PM\r\n6:00AM - 10:00PM\r\n6:00AM - 10:00PM\r\n6:00AM - 10:00PM",
        "hoursDay": "Monday\r\nTuesday\r\nWednesday\r\nThursday\r\nFriday\r\nSaturday\r\nSunday ",
        "regionId": null,
        "latitude": "-31.921106000000000",
        "longitude": "115.838100000000000",
        "tag": "48139",
        "locationNumber": "64207489",
        "saleGroupId": "0",
        "christmasHours": "",
        "christmasHoursDay": "Please contact the store for Easter opening hours.",
        "updateTimeStamp": "2025-04-11 15:06:03",
        "postcodeId": "13678",
        "storeUrl": "",
        "updated": "0",
        "onlineShopUrl": "",
        "ecommerceUrl": "",
        "distance": "0.05342588264128165"
    },
    {
        "storeId": "15460",
        "retailerId": "183",
        "storeName": "The Good Grocer Shenton Park IGA",
        "address": "159 Onslow Road\r\n",
        "suburb": "Shenton Park",
        "state": "WA",
        "postcode": "6008",
        "phone": "08 9382 4539",
        "fax": "",
        "hours": "7:00 AM - 9:00 PM\r\n7:00 AM - 9:00 PM\r\n7:00 AM - 9:00 PM\r\n7:00 AM - 9:00 PM\r\n7:00 AM - 9:00 PM\r\n7:00 AM - 9:00 PM\r\n7:00 AM - 9:00 PM",
        "hoursDay": "Monday\r\nTuesday\r\nWednesday\r\nThursday\r\nFriday\r\nSaturday\r\nSunday",
        "regionId": null,
        "latitude": "-31.961065000000000",
        "longitude": "115.813080000000000",
        "tag": "5354",
        "locationNumber": "64204013",
        "saleGroupId": "0",
        "christmasHours": "",
        "christmasHoursDay": "Please contact the store for Easter opening hours.",
        "updateTimeStamp": "2025-04-10 13:33:09",
        "postcodeId": "13657",
        "storeUrl": "",
        "updated": "0",
        "onlineShopUrl": "",
        "ecommerceUrl": "",
        "distance": "0.06033015104406751"
    },
    {
        "storeId": "15488",
        "retailerId": "183",
        "storeName": "The Good Grocer Wembley IGA",
        "address": "320 Cambridge Street\r\n",
        "suburb": "Wembley",
        "state": "WA",
        "postcode": "6014",
        "phone": "08 9387 9500",
        "fax": "",
        "hours": "8:00 AM - 9:00 PM\r\n8:00 AM - 9:00 PM\r\n8:00 AM - 9:00 PM\r\n8:00 AM - 9:00 PM\r\n8:00 AM - 9:00 PM\r\n8:00 AM - 5:00 PM\r\n11:00 AM - 5:00 PM",
        "hoursDay": "Monday\r\nTuesday\r\nWednesday\r\nThursday\r\nFriday\r\nSaturday\r\nSunday",
        "regionId": null,
        "latitude": "-31.940746000000000",
        "longitude": "115.812550000000000",
        "tag": "48084",
        "locationNumber": "64202274",
        "saleGroupId": "0",
        "christmasHours": "",
        "christmasHoursDay": "Please contact the store for Easter opening hours.",
        "updateTimeStamp": "2025-04-10 13:33:09",
        "postcodeId": "13674",
        "storeUrl": "",
        "updated": "0",
        "onlineShopUrl": "",
        "ecommerceUrl": "",
        "distance": "0.06420518449471195"
    },
    {
        "storeId": "15351",
        "retailerId": "183",
        "storeName": "Glendalough IGA",
        "address": "4-8 Jon Sanders Drive\nShop 1",
        "suburb": "Glendalough",
        "state": "WA",
        "postcode": "6016",
        "phone": "08 9444 6837",
        "fax": "",
        "hours": "7AM - 8PM\r\n7AM - 8PM\r\n7AM - 8PM\r\n7AM - 8PM\r\n7AM - 8PM\r\n7AM - 8PM\r\n8AM - 8PM",
        "hoursDay": "Monday\r\nTuesday\r\nWednesday\r\nThursday\r\nFriday\r\nSaturday\r\nSunday",
        "regionId": "0",
        "latitude": "-31.922585000000000",
        "longitude": "115.819366000000000",
        "tag": "48312",
        "locationNumber": "64201740",
        "saleGroupId": "0",
        "christmasHours": "",
        "christmasHoursDay": "Please contact the store for Easter opening hours.",
        "updateTimeStamp": "2025-04-11 15:06:03",
        "postcodeId": "13677",
        "storeUrl": "",
        "updated": "0",
        "onlineShopUrl": "",
        "ecommerceUrl": "",
        "distance": "0.06642192530332133"
    },
    {
        "storeId": "15505",
        "retailerId": "183",
        "storeName": "Taylor Rd IGA",
        "address": "152 Stirling Highway\n",
        "suburb": "Nedlands",
        "state": "WA",
        "postcode": "6009",
        "phone": "08 9389 8301",
        "fax": "",
        "hours": "",
        "hoursDay": "24 hours, 7 days per week",
        "regionId": "0",
        "latitude": "-31.980703000000000",
        "longitude": "115.795319000000000",
        "tag": "2745",
        "locationNumber": "64118885",
        "saleGroupId": "0",
        "christmasHours": "",
        "christmasHoursDay": "Please contact the store for Easter opening hours.",
        "updateTimeStamp": "2025-04-11 15:06:03",
        "postcodeId": "13663",
        "storeUrl": "",
        "updated": "0",
        "onlineShopUrl": "",
        "ecommerceUrl": "",
        "distance": "0.08048957255446197"
    },
    {
        "storeId": "15487",
        "retailerId": "183",
        "storeName": "Noranda IGA",
        "address": "Cnr Noranda Avenue & Wellington Street\r\n",
        "suburb": "Morley",
        "state": "WA",
        "postcode": "6062",
        "phone": "08 9375 2800",
        "fax": "",
        "hours": "",
        "hoursDay": "",
        "regionId": null,
        "latitude": "-31.879561000000000",
        "longitude": "115.880296000000000",
        "tag": "48319",
        "locationNumber": "64204404",
        "saleGroupId": "0",
        "christmasHours": "",
        "christmasHoursDay": "Please contact the store for Easter opening hours.",
        "updateTimeStamp": "2025-04-11 15:06:03",
        "postcodeId": "13801",
        "storeUrl": "",
        "updated": "0",
        "onlineShopUrl": "",
        "ecommerceUrl": "",
        "distance": "0.08192889183310123"
    },
    {
        "storeId": "15494",
        "retailerId": "183",
        "storeName": "IGA Winthrop Gardens",
        "address": "Cnr Jackson Ave & Somerville Blvd\nWinthrop Shopping Centre",
        "suburb": "Winthrop",
        "state": "WA",
        "postcode": "6150",
        "phone": "08 9310 5022",
        "fax": "",
        "hours": "8:00 AM - 8:00 PM\r\n8:00 AM - 8:00 PM\r\n8:00 AM - 8:00 PM\r\n8:00 AM - 8:00 PM\r\n8:00 AM - 8:00 PM\r\n8:00 AM - 8:00 PM\r\n8:00 AM - 8:00 PM",
        "hoursDay": "Monday\r\nTuesday\r\nWednesday\r\nThursday\r\nFriday\r\nSaturday\r\nSunday",
        "regionId": "0",
        "latitude": "-32.058819000000000",
        "longitude": "115.833008000000000",
        "tag": "48290",
        "locationNumber": "64131288",
        "saleGroupId": "0",
        "christmasHours": "7:30am - 8:00pm\r\n7:30am - 8:00pm\r\nCLOSED\r\n7:30am - 8:00pm\r\n7:30am - 8:00pm\r\n7:30am - 8:00pm\r\n7:30am - 8:00pm\r\n7:30am - 8:00pm\r\n7:30am - 8:00pm\r\n7:30am - 8:00pm",
        "christmasHoursDay": "18 Apr\r\n19 Apr\r\n20 Apr\r\n21 Apr\r\n22 Apr\r\n23 Apr\r\n24 Apr\r\n25 Apr\r\n26 Apr\r\n27 Apr",
        "updateTimeStamp": "2025-04-11 15:06:31",
        "postcodeId": "13943",
        "storeUrl": "",
        "updated": "0",
        "onlineShopUrl": "",
        "ecommerceUrl": "",
        "distance": "0.05053402205445357"
    },
    {
        "storeId": "19401",
        "retailerId": "183",
        "storeName": "IGA Xpress Murdoch",
        "address": "Unit R1/90 South Street, Murdoch Unit Student Hub",
        "suburb": "Murdoch",
        "state": "WA",
        "postcode": "6150",
        "phone": "",
        "fax": "",
        "hours": "7:00 AM - 7:00 PM\r\n7:00 AM - 7:00 PM\r\n7:00 AM - 7:00 PM\r\n7:00 AM - 7:00 PM\r\n7:00 AM - 7:00 PM\r\n9:00 AM - 4:00 PM\r\n9:00 AM - 4:00 PM",
        "hoursDay": "Monday\r\nTuesday\r\nWednesday\r\nThursday\r\nFriday\r\nSaturday\r\nSunday",
        "regionId": null,
        "latitude": "-32.064110000000000",
        "longitude": "115.829970000000000",
        "tag": "205696",
        "locationNumber": "0",
        "saleGroupId": "0",
        "christmasHours": "",
        "christmasHoursDay": "Please contact the store for Easter opening hours.",
        "updateTimeStamp": "2025-04-10 13:33:09",
        "postcodeId": "13942",
        "storeUrl": "",
        "updated": "0",
        "onlineShopUrl": "",
        "ecommerceUrl": "",
        "distance": "0.056566034561386744"
    },
    {
        "storeId": "15491",
        "retailerId": "183",
        "storeName": "IGA Willagee",
        "address": "70 Archibald Street\n",
        "suburb": "Willagee",
        "state": "WA",
        "postcode": "6156",
        "phone": "08 9337 1606",
        "fax": "",
        "hours": "7:30 AM - 8:00 PM\r\n7:30 AM - 8:00 PM\r\n7:30 AM - 8:00 PM\r\n7:30 AM - 8:00 PM\r\n7:30 AM - 8:00 PM\r\n7:30 AM - 8:00 PM\r\n7:30 AM - 8:00 PM",
        "hoursDay": "Monday\r\nTuesday\r\nWednesday\r\nThursday\r\nFriday\r\nSaturday\r\nSunday",
        "regionId": "0",
        "latitude": "-32.053116000000000",
        "longitude": "115.806679000000000",
        "tag": "48256",
        "locationNumber": "64199699",
        "saleGroupId": "0",
        "christmasHours": "",
        "christmasHoursDay": "Please contact the store for Easter opening hours.",
        "updateTimeStamp": "2025-04-10 13:33:09",
        "postcodeId": "13968",
        "storeUrl": "",
        "updated": "0",
        "onlineShopUrl": "",
        "ecommerceUrl": "",
        "distance": "0.06067963138483951"
    },
    {
        "storeId": "15290",
        "retailerId": "183",
        "storeName": "IGA Local Grocer Bibra Lake",
        "address": "Parkway & Annois Roads\r\nShop 7",
        "suburb": "Bibra Lake",
        "state": "WA",
        "postcode": "6163",
        "phone": "08 9417 2433",
        "fax": "",
        "hours": "7:00 AM - 8:00 PM\r\n7:00 AM - 8:00 PM\r\n7:00 AM - 8:00 PM\r\n7:00 AM - 8:00 PM\r\n7:00 AM - 8:00 PM\r\n7:00 AM - 8:00 PM\r\n7:00 AM - 8:00 PM",
        "hoursDay": "Monday\r\nTuesday\r\nWednesday\r\nThursday\r\nFriday\r\nSaturday\r\nSunday",
        "regionId": null,
        "latitude": "-32.092755200000000",
        "longitude": "115.840251400000000",
        "tag": "48323",
        "locationNumber": "1065",
        "saleGroupId": "0",
        "christmasHours": "",
        "christmasHoursDay": "Please contact the store for Easter opening hours.",
        "updateTimeStamp": "2025-04-10 13:33:09",
        "postcodeId": "13998",
        "storeUrl": "",
        "updated": "0",
        "onlineShopUrl": "",
        "ecommerceUrl": "",
        "distance": "0.08189428287859904"
    },
    {
        "storeId": "15411",
        "retailerId": "183",
        "storeName": "Mosman Park IGA",
        "address": "130 Wellington Street\r\nShop 1",
        "suburb": "Mosman Park",
        "state": "WA",
        "postcode": "6012",
        "phone": "08 9384 9071",
        "fax": "",
        "hours": "7:00 AM - 9:00 PM\r\n7:00 AM - 9:00 PM\r\n7:00 AM - 9:00 PM\r\n7:00 AM - 9:00 PM\r\n7:00 AM - 9:00 PM\r\n7:00 AM - 9:00 PM\r\n7:00 AM - 9:00 PM",
        "hoursDay": "Monday\r\nTuesday\r\nWednesday\r\nThursday\r\nFriday\r\nSaturday\r\nSunday",
        "regionId": null,
        "latitude": "-32.015407000000000",
        "longitude": "115.769047000000000",
        "tag": "51580",
        "locationNumber": "64199095",
        "saleGroupId": "0",
        "christmasHours": "",
        "christmasHoursDay": "Please contact the store for Easter opening hours.",
        "updateTimeStamp": "2025-04-11 15:06:03",
        "postcodeId": "13672",
        "storeUrl": "http://mosmanpark.igaonline.com.au/?utm_source=igawebsite&utm_medium=tile&utm_campaign=store_locator&utm_content=cta_button",
        "updated": "0",
        "onlineShopUrl": "",
        "ecommerceUrl": "",
        "distance": "0.08193459733226252"
    },
    {
        "storeId": "15306",
        "retailerId": "183",
        "storeName": "IGA Canning Vale",
        "address": "Cnr Ranford and Campbell Road\r\n",
        "suburb": "Canning Vale",
        "state": "WA",
        "postcode": "6155",
        "phone": "08 6253 5555",
        "fax": "",
        "hours": "7:00 AM - 9:00 PM\r\n7:00 AM - 9:00 PM\r\n7:00 AM - 9:00 PM\r\n7:00 AM - 9:00 PM\r\n7:00 AM - 9:00 PM\r\n7:00 AM - 9:00 PM\r\n7:00 AM - 9:00 PM",
        "hoursDay": "Monday\r\nTuesday\r\nWednesday\r\nThursday\r\nFriday\r\nSaturday\r\nSunday",
        "regionId": null,
        "latitude": "-32.092846100000000",
        "longitude": "115.925846100000000",
        "tag": "48144",
        "locationNumber": "64132993",
        "saleGroupId": "0",
        "christmasHours": "7:00am - 9:00pm\r\n7:00am - 9:00pm\r\n7:00am - 9:00pm\r\n7:00am - 9:00pm\r\n7:00am - 9:00pm\r\n7:00am - 9:00pm\r\n7:00am - 9:00pm\r\n7:00am - 9:00pm\r\n7:00am - 9:00pm\r\n7:00am - 9:00pm",
        "christmasHoursDay": "18 Apr\r\n19 Apr\r\n20 Apr\r\n21 Apr\r\n22 Apr\r\n23 Apr\r\n24 Apr\r\n25 Apr\r\n26 Apr\r\n27 Apr",
        "updateTimeStamp": "2025-04-11 15:06:30",
        "postcodeId": "13964",
        "storeUrl": "http://canningvaleiga.com.au/?utm_source=igawebsite&utm_medium=tile&utm_campaign=store_locator&utm_content=cta_button",
        "updated": "0",
        "onlineShopUrl": "",
        "ecommerceUrl": "",
        "distance": "0.08620997224463073"
    },
    {
        "storeId": "19666",
        "retailerId": "183",
        "storeName": "IGA Foodies Market Claremont",
        "address": "1 Davies Road",
        "suburb": "Claremont",
        "state": "WA",
        "postcode": "6010",
        "phone": "08 6424 8838",
        "fax": "",
        "hours": "",
        "hoursDay": "",
        "regionId": null,
        "latitude": "-31.979370000000000",
        "longitude": "115.782080000000000",
        "tag": "221008",
        "locationNumber": "64207675",
        "saleGroupId": "0",
        "christmasHours": "",
        "christmasHoursDay": "Please contact the store for Easter opening hours.",
        "updateTimeStamp": "2025-04-10 13:33:09",
        "postcodeId": "13665",
        "storeUrl": "",
        "updated": "0",
        "onlineShopUrl": "",
        "ecommerceUrl": "",
        "distance": "0.07843096646095853"
    },
    {
        "storeId": "15357",
        "retailerId": "183",
        "storeName": "IGA Local Grocer Hamilton Hill",
        "address": "Southwell Crs\r\nShop 1",
        "suburb": "Hamilton Hill",
        "state": "WA",
        "postcode": "6163",
        "phone": "08 9418 6104",
        "fax": "",
        "hours": "6:30 AM - 7:30 PM\r\n6:30 AM - 7:30 PM\r\n6:30 AM - 7:30 PM\r\n6:30 AM - 7:30 PM\r\n6:30 AM - 7:30 PM\r\n7:00 AM - 7:00 PM\r\n7:00 AM - 7:00 PM",
        "hoursDay": "Monday\r\nTuesday\r\nWednesday\r\nThursday\r\nFriday\r\nSaturday\r\nSunday",
        "regionId": null,
        "latitude": "-32.088965000000000",
        "longitude": "115.791345000000000",
        "tag": "48342",
        "locationNumber": "1282",
        "saleGroupId": "0",
        "christmasHours": "",
        "christmasHoursDay": "Please contact the store for Easter opening hours.",
        "updateTimeStamp": "2025-04-10 13:33:09",
        "postcodeId": "13986",
        "storeUrl": "",
        "updated": "0",
        "onlineShopUrl": "",
        "ecommerceUrl": "",
        "distance": "0.0641309366308656"
    },
    {
        "storeId": "15356",
        "retailerId": "183",
        "storeName": "IGA Hamilton Hill",
        "address": "2 Simms Road\n",
        "suburb": "Hamilton Hill",
        "state": "WA",
        "postcode": "6163",
        "phone": "08 9337 2140",
        "fax": "",
        "hours": "7:30 AM - 7:30 PM\r\n7:30 AM - 7:30 PM\r\n7:30 AM - 7:30 PM\r\n7:30 AM - 8:00 PM\r\n7:30 AM - 7:30 PM\r\n7:30 AM - 7:00 PM\r\n8:00 AM - 7:00 PM",
        "hoursDay": "Monday\r\nTuesday\r\nWednesday\r\nThursday\r\nFriday\r\nSaturday\r\nSunday",
        "regionId": "0",
        "latitude": "-32.074751970000000",
        "longitude": "115.781926800000000",
        "tag": "48082",
        "locationNumber": "64132837",
        "saleGroupId": "0",
        "christmasHours": "7:00am - 7:00pm\r\n7:00am - 7:00pm\r\n7:00am - 7:00pm\r\n7:00am - 7:00pm\r\n7:00am - 8:00pm\r\n7:00am - 8:00pm\r\n7:00am - 8:00pm\r\n11:00am - 8:00pm\r\n7:00am - 8:00pm\r\n7:00am - 8:00pm",
        "christmasHoursDay": "18 Apr\r\n19 Apr\r\n20 Apr\r\n21 Apr\r\n22 Apr\r\n23 Apr\r\n24 Apr\r\n25 Apr\r\n26 Apr\r\n27 Apr",
        "updateTimeStamp": "2025-04-11 15:06:27",
        "postcodeId": "13983",
        "storeUrl": "",
        "updated": "0",
        "onlineShopUrl": "",
        "ecommerceUrl": "",
        "distance": "0.06665742548116001"
    },
    {
        "storeId": "15499",
        "retailerId": "183",
        "storeName": "IGA Yangebup",
        "address": "31 Moorhen Drive\n",
        "suburb": "Yangebup",
        "state": "WA",
        "postcode": "6164",
        "phone": "08 9417 1104",
        "fax": "",
        "hours": "7:00 AM - 8:30 PM\r\n7:00 AM - 8:30 PM\r\n7:00 AM - 8:30 PM\r\n7:00 AM - 8:30 PM\r\n7:00 AM - 8:30 PM\r\n7:00 AM - 8:30 PM\r\n7:00 AM - 8:30 PM",
        "hoursDay": "Monday\r\nTuesday\r\nWednesday\r\nThursday\r\nFriday\r\nSaturday\r\nSunday\r\n",
        "regionId": "0",
        "latitude": "-32.119919000000000",
        "longitude": "115.817848000000000",
        "tag": "48072",
        "locationNumber": "64205125",
        "saleGroupId": "0",
        "christmasHours": "",
        "christmasHoursDay": "Please contact the store for Easter opening hours.",
        "updateTimeStamp": "2025-04-10 13:33:09",
        "postcodeId": "13994",
        "storeUrl": "",
        "updated": "0",
        "onlineShopUrl": "",
        "ecommerceUrl": "",
        "distance": "0.07098325742900292"
    },
    {
        "storeId": "22317",
        "retailerId": "183",
        "storeName": "The Good Grocer East Fremantle IGA",
        "address": "6 Silas St",
        "suburb": "East Fremantle",
        "state": "WA",
        "postcode": "6158",
        "phone": "",
        "fax": "",
        "hours": "",
        "hoursDay": "Monday\r\nTuesday\r\nWednesday\r\nThursday\r\nFriday\r\nSaturday\r\nSunday",
        "regionId": null,
        "latitude": "-32.041595000000000",
        "longitude": "115.764755000000000",
        "tag": "",
        "locationNumber": "0",
        "saleGroupId": "0",
        "christmasHours": "",
        "christmasHoursDay": "Please contact the store for Easter opening hours.",
        "updateTimeStamp": "2025-04-10 13:33:09",
        "postcodeId": "13973",
        "storeUrl": "",
        "updated": "0",
        "onlineShopUrl": "",
        "ecommerceUrl": "",
        "distance": "0.08171207833455284"
    },
    {
        "storeId": "21625",
        "retailerId": "183",
        "storeName": "Fusions IGA Fremantle",
        "address": "Shop G18, 2 Newman Court",
        "suburb": "Fremantle",
        "state": "WA",
        "postcode": "6160",
        "phone": "08 9336 6700",
        "fax": "",
        "hours": "7:00 AM - 09:00 PM\r\n7:00 AM - 09:00 PM\r\n7:00 AM - 09:00 PM\r\n7:00 AM - 09:00 PM\r\n7:00 AM - 09:00 PM\r\n7:00 AM - 09:00 PM\r\n7:00 AM - 09:00 PM",
        "hoursDay": "Monday\r\nTuesday\r\nWednesday\r\nThursday\r\nFriday\r\nSaturday\r\nSunday",
        "regionId": null,
        "latitude": "-32.054210000000000",
        "longitude": "115.749220000000000",
        "tag": "83476",
        "locationNumber": "0",
        "saleGroupId": "0",
        "christmasHours": "",
        "christmasHoursDay": "Please contact the store for Easter opening hours.",
        "updateTimeStamp": "2025-07-22 11:38:03",
        "postcodeId": "13975",
        "storeUrl": "",
        "updated": "0",
        "onlineShopUrl": "",
        "ecommerceUrl": "",
        "distance": "0.09621929100784363"
    },
    {
        "storeId": "15430",
        "retailerId": "183",
        "storeName": "IGA Osborne Park",
        "address": "212 Main Street\n",
        "suburb": "Osborne Park",
        "state": "WA",
        "postcode": "6017",
        "phone": "08 9349 8816",
        "fax": "",
        "hours": "7:30 AM - 8:00 PM\r\n7:30 AM - 8:00 PM\r\n7:30 AM - 8:00 PM\r\n7:30 AM - 8:00 PM\r\n7:30 AM - 8:00 PM\r\n7:30 AM - 8:00 PM\r\n7:30 AM - 8:00 PM",
        "hoursDay": "Monday\r\nTuesday\r\nWednesday\r\nThursday\r\nFriday\r\nSaturday\r\nSunday",
        "regionId": "0",
        "latitude": "-31.897648000000000",
        "longitude": "115.828407000000000",
        "tag": "39754",
        "locationNumber": "64202282",
        "saleGroupId": "0",
        "christmasHours": "",
        "christmasHoursDay": "Please contact the store for Easter opening hours.",
        "updateTimeStamp": "2025-04-11 15:06:03",
        "postcodeId": "13792",
        "storeUrl": "",
        "updated": "0",
        "onlineShopUrl": "",
        "ecommerceUrl": "",
        "distance": "0.057141901158431894"
    },
    {
        "storeId": "15423",
        "retailerId": "183",
        "storeName": "IGA Nollamara",
        "address": "63 Nollamara Avenue\nNollamara Shopping Centre",
        "suburb": "Nollamara",
        "state": "WA",
        "postcode": "6061",
        "phone": "08 9349 2146",
        "fax": "",
        "hours": "7:00 AM - 9:00 PM\r\n7:00 AM - 9:00 PM\r\n7:00 AM - 9:00 PM\r\n7:00 AM - 9:00 PM\r\n7:00 AM - 9:00 PM\r\n7:00 AM - 9:00 PM\r\n7:00 AM - 9:00 PM",
        "hoursDay": "Monday\r\nTuesday\r\nWednesday\r\nThursday\r\nFriday\r\nSaturday\r\nSunday",
        "regionId": "0",
        "latitude": "-31.881245000000000",
        "longitude": "115.841743000000000",
        "tag": "48742",
        "locationNumber": "64200557",
        "saleGroupId": "0",
        "christmasHours": "",
        "christmasHoursDay": "Please contact the store for Easter opening hours.",
        "updateTimeStamp": "2025-04-10 13:33:09",
        "postcodeId": "13797",
        "storeUrl": "",
        "updated": "0",
        "onlineShopUrl": "",
        "ecommerceUrl": "https://igashop.com.au/?utm_source=igawebsite&utm_medium=tile&utm_campaign=store_locator&utm_content=cta_button",
        "distance": "0.061562985445801764"
    },
    {
        "storeId": "15405",
        "retailerId": "183",
        "storeName": "IGA Mirrabooka",
        "address": "Shop 6/73 Honeywell Boulevard\r\n",
        "suburb": "Mirrabooka",
        "state": "WA",
        "postcode": "6061",
        "phone": "08 9249 3999",
        "fax": "",
        "hours": "8:00 AM - 8:30 PM\r\n8:00 AM - 8:30 PM\r\n8:00 AM - 8:30 PM\r\n8:00 AM - 8:30 PM\r\n8:00 AM - 8:30 PM\r\n8:00 AM - 8:30 PM\r\n8:00 AM - 8:30 PM",
        "hoursDay": "Monday\r\nTuesday\r\nWednesday\r\nThursday\r\nFriday\r\nSaturday\r\nSunday",
        "regionId": null,
        "latitude": "-31.855322000000000",
        "longitude": "115.867210000000000",
        "tag": "48138",
        "locationNumber": "64120863",
        "saleGroupId": "0",
        "christmasHours": "",
        "christmasHoursDay": "Please contact the store for Easter opening hours.",
        "updateTimeStamp": "2025-04-10 13:33:09",
        "postcodeId": "13796",
        "storeUrl": "",
        "updated": "0",
        "onlineShopUrl": "",
        "ecommerceUrl": "",
        "distance": "0.07990244337315348"
    },
    {
        "storeId": "15283",
        "retailerId": "183",
        "storeName": "IGA Beechboro",
        "address": "161 Amazon Drive\r\n",
        "suburb": "Beechboro",
        "state": "WA",
        "postcode": "6063",
        "phone": "08 9377 5122",
        "fax": "",
        "hours": "7:00 AM - 8:00 PM\r\n7:00 AM - 8:00 PM\r\n7:00 AM - 8:00 PM\r\n7:00 AM - 8:00 PM\r\n7:00 AM - 8:00 PM\r\n7:00 AM - 8:00 PM\r\n7:00 AM - 8:00 PM",
        "hoursDay": "Monday\r\nTuesday\r\nWednesday\r\nThursday\r\nFriday\r\nSaturday\r\nSunday",
        "regionId": null,
        "latitude": "-31.867130000000000",
        "longitude": "115.928469000000000",
        "tag": "48077",
        "locationNumber": "64202401",
        "saleGroupId": "0",
        "christmasHours": "",
        "christmasHoursDay": "Please contact the store for Easter opening hours.",
        "updateTimeStamp": "2025-04-10 13:33:09",
        "postcodeId": "13802",
        "storeUrl": "",
        "updated": "0",
        "onlineShopUrl": "",
        "ecommerceUrl": "",
        "distance": "0.05967123797944869"
    },
    {
        "storeId": "20596",
        "retailerId": "183",
        "storeName": "IGA Ballajura City",
        "address": "Ballajura City Shopping Centre, 225 Illawarra Cres S",
        "suburb": "Ballajura",
        "state": "WA",
        "postcode": "6066",
        "phone": "(08) 9209 2868",
        "fax": "",
        "hours": "7:00 AM - 9:00 PM\r\n7:00 AM - 9:00 PM\r\n7:00 AM - 9:00 PM\r\n7:00 AM - 9:00 PM\r\n7:00 AM - 9:00 PM\r\n7:00 AM - 9:00 PM\r\n7:00 AM - 9:00 PM",
        "hoursDay": "Monday\r\nTuesday\r\nWednesday\r\nThursday\r\nFriday\r\nSaturday\r\nSunday",
        "regionId": null,
        "latitude": "-31.840170000000000",
        "longitude": "115.896060000000000",
        "tag": "48134",
        "locationNumber": "0",
        "saleGroupId": "0",
        "christmasHours": "7:00am - 8:00pm\r\n7:00am - 8:00pm\r\n7:00am - 8:00pm\r\n7:00am - 8:00pm\r\n7:00am - 8:00pm\r\n7:00am - 8:00pm\r\n7:00am - 8:00pm\r\n7:00am - 8:00pm\r\n7:00am - 8:00pm\r\n7:00am - 8:00pm",
        "christmasHoursDay": "18 Apr\r\n19 Apr\r\n20 Apr\r\n21 Apr\r\n22 Apr\r\n23 Apr\r\n24 Apr\r\n25 Apr\r\n26 Apr\r\n27 Apr",
        "updateTimeStamp": "2025-04-11 15:06:28",
        "postcodeId": "13820",
        "storeUrl": "https://ballajuracityiga.com.au/?utm_source=igawebsite&utm_medium=tile&utm_campaign=store_locator&utm_content=cta_button",
        "updated": "0",
        "onlineShopUrl": "",
        "ecommerceUrl": "",
        "distance": "0.07091052957777146"
    },
    {
        "storeId": "15475",
        "retailerId": "183",
        "storeName": "The Market Place Ballajura IGA",
        "address": "12 Illawarra Crescent North",
        "suburb": "Ballajura",
        "state": "WA",
        "postcode": "6066",
        "phone": "08 9249 6269",
        "fax": "",
        "hours": "8:00 AM - 8:00 PM\r\n8:00 AM - 8:00 PM\r\n8:00 AM - 8:00 PM\r\n8:00 AM - 8:00 PM\r\n8:00 AM - 8:00 PM\r\n8:00 AM - 8:00 PM\r\n8:00 AM - 8:00 PM",
        "hoursDay": "Monday\r\nTuesday\r\nWednesday\r\nThursday\r\nFriday\r\nSaturday\r\nSunday",
        "regionId": null,
        "latitude": "-31.826314000000000",
        "longitude": "115.878242000000000",
        "tag": "48274",
        "locationNumber": "64197971",
        "saleGroupId": "0",
        "christmasHours": "8:00am - 8:00pm\r\n8:00am - 8:00pm\r\n8:00am - 8:00pm\r\n8:00am - 8:00pm\r\n8:00am - 8:00pm\r\n8:00am - 8:00pm\r\n8:00am - 8:00pm\r\n8:00am - 8:00pm\r\n8:00am - 8:00pm\r\n8:00am - 8:00pm",
        "christmasHoursDay": "18 Apr\r\n19 Apr\r\n20 Apr\r\n21 Apr\r\n22 Apr\r\n23 Apr\r\n24 Apr\r\n25 Apr\r\n26 Apr\r\n27 Apr",
        "updateTimeStamp": "2025-04-11 15:06:29",
        "postcodeId": "13820",
        "storeUrl": "",
        "updated": "0",
        "onlineShopUrl": "",
        "ecommerceUrl": "",
        "distance": "0.08476846631265661"
    },
    {
        "storeId": "15472",
        "retailerId": "183",
        "storeName": "IGA Local Grocer Swanbourne Market",
        "address": "127 Claremont Cres\r\n",
        "suburb": "Swanbourne",
        "state": "WA",
        "postcode": "6010",
        "phone": "08 9383 3920",
        "fax": "",
        "hours": "6:30 AM - 9:00 PM\r\n6:30 AM - 9:00 PM\r\n6:30 AM - 9:00 PM\r\n6:30 AM - 9:00 PM\r\n6:30 AM - 9:00 PM\r\n6:30 AM - 9:00 PM\r\n6:30 AM - 9:00 PM",
        "hoursDay": "Monday\r\nTuesday\r\nWednesday\r\nThursday\r\nFriday\r\nSaturday\r\nSunday",
        "regionId": null,
        "latitude": "-31.982751000000000",
        "longitude": "115.769506000000000",
        "tag": "50491",
        "locationNumber": "2322",
        "saleGroupId": "0",
        "christmasHours": "",
        "christmasHoursDay": "Please contact the store for Easter opening hours.",
        "updateTimeStamp": "2025-04-11 15:06:03",
        "postcodeId": "13665",
        "storeUrl": "",
        "updated": "0",
        "onlineShopUrl": "",
        "ecommerceUrl": "",
        "distance": "0.03093577257803658"
    },
    {
        "storeId": "15319",
        "retailerId": "183",
        "storeName": "IGA Cottesloe",
        "address": "36 Eric Street\r\nShop 1",
        "suburb": "Cottesloe",
        "state": "WA",
        "postcode": "6011",
        "phone": "08 9383 1808",
        "fax": "",
        "hours": "7AM - 8PM\r\n7AM - 8PM\r\n7AM - 8PM\r\n7AM - 8PM\r\n7AM - 8PM\r\n7AM - 8PM\r\n7AM - 8PM",
        "hoursDay": "Monday\r\nTuesday\r\nWednesday\r\nThursday\r\nFriday\r\nSaturday\r\nSunday",
        "regionId": null,
        "latitude": "-31.989546000000000",
        "longitude": "115.756950000000000",
        "tag": "48327",
        "locationNumber": "64205290",
        "saleGroupId": "0",
        "christmasHours": "",
        "christmasHoursDay": "Please contact the store for Easter opening hours.",
        "updateTimeStamp": "2025-04-11 15:06:03",
        "postcodeId": "13670",
        "storeUrl": "",
        "updated": "0",
        "onlineShopUrl": "",
        "ecommerceUrl": "",
        "distance": "0.04149413185017853"
    },
    {
        "storeId": "16909",
        "retailerId": "183",
        "storeName": "The Boulevard IGA",
        "address": "31 Gayton Rd",
        "suburb": "City Beach",
        "state": "WA",
        "postcode": "6015",
        "phone": "(08) 9285 1909",
        "fax": "",
        "hours": "24 hours\r\n24 hours\r\n24 hours\r\n24 hours\r\n24 hours\r\n24 hours\r\n24 hours",
        "hoursDay": "Monday\r\nTuesday\r\nWednesday\r\nThursday\r\nFriday\r\nSaturday\r\nSunday",
        "regionId": "0",
        "latitude": "-31.926328000000000",
        "longitude": "115.767087000000000",
        "tag": "48235",
        "locationNumber": "64203769",
        "saleGroupId": "0",
        "christmasHours": "",
        "christmasHoursDay": "Please contact the store for Easter opening hours.",
        "updateTimeStamp": "2025-04-10 13:33:09",
        "postcodeId": "13690",
        "storeUrl": "",
        "updated": "0",
        "onlineShopUrl": "",
        "ecommerceUrl": "",
        "distance": "0.07484470042027024"
    },
    {
        "storeId": "22148",
        "retailerId": "183",
        "storeName": "IGA Tucker Fresh Treeby",
        "address": "CILANTRO PARKWAY,",
        "suburb": "TREEBY",
        "state": "WA",
        "postcode": "6164",
        "phone": "",
        "fax": "",
        "hours": "",
        "hoursDay": "",
        "regionId": null,
        "latitude": "-32.128160000000000",
        "longitude": "115.875550000000000",
        "tag": "176978",
        "locationNumber": "0",
        "saleGroupId": "0",
        "christmasHours": "7:00am - 9:00pm\r\n7:00am - 9:00pm\r\n7:00am - 9:00pm\r\n7:00am - 9:00pm\r\n7:00am - 9:00pm\r\n7:00am - 9:00pm\r\n7:00am - 9:00pm\r\n7:00am - 9:00pm\r\n7:00am - 9:00pm\r\n7:00am - 9:00pm",
        "christmasHoursDay": "18 Apr\r\n19 Apr\r\n20 Apr\r\n21 Apr\r\n22 Apr\r\n23 Apr\r\n24 Apr\r\n25 Apr\r\n26 Apr\r\n27 Apr",
        "updateTimeStamp": "2025-04-11 15:06:33",
        "postcodeId": "13993",
        "storeUrl": "",
        "updated": "0",
        "onlineShopUrl": "",
        "ecommerceUrl": "",
        "distance": "0.08988292349495537"
    },
    {
        "storeId": "15515",
        "retailerId": "183",
        "storeName": "Tucker Fresh IGA Atwell",
        "address": "Stargate Shopping Centre 129 Lydon Boulevard, Atwell WA 6164",
        "suburb": "Atwell",
        "state": "WA",
        "postcode": "6164",
        "phone": "08 9414 6027",
        "fax": "",
        "hours": "7:00 AM - 8:00 PM\r\n7:00 AM - 8:00 PM\r\n7:00 AM - 8:00 PM\r\n7:00 AM - 8:00 PM\r\n7:00 AM - 8:00 PM\r\n7:00 AM - 8:00 PM\r\n7:00 AM - 8:00 PM",
        "hoursDay": "Monday\r\nTuesday\r\nWednesday\r\nThursday\r\nFriday\r\nSaturday\r\nSunday",
        "regionId": null,
        "latitude": "-32.136400000000000",
        "longitude": "115.866440000000000",
        "tag": "50473",
        "locationNumber": "64203203",
        "saleGroupId": "0",
        "christmasHours": "7:00am - 9:00pm\r\n7:00am - 9:00pm\r\n7:00am - 9:00pm\r\n7:00am - 9:00pm\r\n7:00am - 9:00pm\r\n7:00am - 9:00pm\r\n7:00am - 9:00pm\r\n7:00am - 9:00pm\r\n7:00am - 9:00pm\r\n7:00am - 9:00pm",
        "christmasHoursDay": "18 Apr\r\n19 Apr\r\n20 Apr\r\n21 Apr\r\n22 Apr\r\n23 Apr\r\n24 Apr\r\n25 Apr\r\n26 Apr\r\n27 Apr",
        "updateTimeStamp": "2025-04-11 15:06:33",
        "postcodeId": "13991",
        "storeUrl": "",
        "updated": "0",
        "onlineShopUrl": "",
        "ecommerceUrl": "",
        "distance": "0.09778819538165126"
    },
    {
        "storeId": "22222",
        "retailerId": "183",
        "storeName": "IGA Maddington",
        "address": "134 Westfield St",
        "suburb": "Maddington",
        "state": "WA",
        "postcode": "6109",
        "phone": "",
        "fax": "",
        "hours": "7:00 AM - 9:00 PM\r\n7:00 AM - 9:00 PM\r\n7:00 AM - 9:00 PM\r\n7:00 AM - 9:00 PM\r\n7:00 AM - 9:00 PM\r\n7:00 AM - 9:00 PM\r\n7:00 AM - 9:00 PM",
        "hoursDay": "Monday\r\nTuesday\r\nWednesday\r\nThursday\r\nFriday\r\nSaturday\r\nSunday",
        "regionId": null,
        "latitude": "-32.053490000000000",
        "longitude": "116.001320000000000",
        "tag": "",
        "locationNumber": "0",
        "saleGroupId": "0",
        "christmasHours": "",
        "christmasHoursDay": "Please contact the store for Easter opening hours.",
        "updateTimeStamp": "2025-04-10 13:33:09",
        "postcodeId": "13892",
        "storeUrl": "",
        "updated": "0",
        "onlineShopUrl": "",
        "ecommerceUrl": "",
        "distance": "0.05360589274510779"
    },
    {
        "storeId": "15366",
        "retailerId": "183",
        "storeName": "Huntingdale IGA",
        "address": "Shop 1/5 Pipit Cl",
        "suburb": "Huntingdale",
        "state": "WA",
        "postcode": "6110",
        "phone": "08 9490 6556",
        "fax": "",
        "hours": "6:00 AM - 9:00 PM\r\n6:00 AM - 9:00 PM\r\n6:00 AM - 9:00 PM\r\n6:00 AM - 9:00 PM\r\n6:00 AM - 9:00 PM\r\n6:00 AM - 9:00 PM\r\n7:00 AM - 9:00 PM",
        "hoursDay": "Monday\r\nTuesday\r\nWednesday\r\nThursday\r\nFriday\r\nSaturday\r\nSunday",
        "regionId": null,
        "latitude": "-32.082193000000000",
        "longitude": "115.968515000000000",
        "tag": "39750",
        "locationNumber": "64105953",
        "saleGroupId": "0",
        "christmasHours": "7:00am - 9:00pm\r\n7:00am - 9:00pm\r\n7:00am - 9:00pm\r\n7:00am - 9:00pm\r\n6:00am - 9:00pm\r\n6:00am - 9:00pm\r\n6:00am - 9:00pm\r\n7:00am - 9:00pm\r\n7:00am - 9:00pm\r\n7:00am - 9:00pm",
        "christmasHoursDay": "18 Apr\r\n19 Apr\r\n20 Apr\r\n21 Apr\r\n22 Apr\r\n23 Apr\r\n24 Apr\r\n25 Apr\r\n26 Apr\r\n27 Apr",
        "updateTimeStamp": "2025-04-11 15:06:31",
        "postcodeId": "13895",
        "storeUrl": "",
        "updated": "0",
        "onlineShopUrl": "",
        "ecommerceUrl": "",
        "distance": "0.06823661498784944"
    },
    {
        "storeId": "15457",
        "retailerId": "183",
        "storeName": "Sanderson Road IGA",
        "address": "Cnr Sanderson & Willoughby Rds\r\nSanderson Road Shopping Centre",
        "suburb": "Lesmurdie",
        "state": "WA",
        "postcode": "6076",
        "phone": "08 9291 7181",
        "fax": "",
        "hours": "7:00 AM - 8:00 PM\r\n7:00 AM - 8:00 PM\r\n7:00 AM - 8:00 PM\r\n7:00 AM - 8:00 PM\r\n7:00 AM - 8:00 PM\r\n7:00 AM - 8:00 PM\r\n7:00 AM - 8:00 PM",
        "hoursDay": "Monday\r\nTuesday\r\nWednesday\r\nThursday\r\nFriday\r\nSaturday\r\nSunday\r\n",
        "regionId": null,
        "latitude": "-32.009735000000000",
        "longitude": "116.046150000000000",
        "tag": "",
        "locationNumber": "64200174",
        "saleGroupId": "0",
        "christmasHours": "7:00am - 8:00pm\r\n7:00am - 8:00pm\r\n7:00am - 8:00pm\r\n7:00am - 8:00pm\r\n7:00am - 8:00pm\r\n7:00am - 8:00pm\r\n7:00am - 8:00pm\r\n7:00am - 8:00pm\r\n7:00am - 8:00pm\r\n7:00am - 8:00pm",
        "christmasHoursDay": "18 Apr\r\n19 Apr\r\n20 Apr\r\n21 Apr\r\n22 Apr\r\n23 Apr\r\n24 Apr\r\n25 Apr\r\n26 Apr\r\n27 Apr",
        "updateTimeStamp": "2025-04-11 15:06:29",
        "postcodeId": "13841",
        "storeUrl": "",
        "updated": "0",
        "onlineShopUrl": "",
        "ecommerceUrl": "",
        "distance": "0.08124545453131515"
    },
    {
        "storeId": "22131",
        "retailerId": "183",
        "storeName": "IGA Tucker Fresh Piara Waters",
        "address": "CRN Warton and Nicholson Rd",
        "suburb": "Piara Waters",
        "state": "WA",
        "postcode": "6112",
        "phone": "",
        "fax": "",
        "hours": "",
        "hoursDay": "",
        "regionId": null,
        "latitude": "-32.131460000000000",
        "longitude": "115.925190000000000",
        "tag": "251705",
        "locationNumber": "0",
        "saleGroupId": "0",
        "christmasHours": "7:00am - 9:00pm\r\n7:00am - 9:00pm\r\n7:00am - 9:00pm\r\n7:00am - 9:00pm\r\n7:00am - 9:00pm\r\n7:00am - 9:00pm\r\n7:00am - 9:00pm\r\n7:00am - 9:00pm\r\n7:00am - 9:00pm\r\n7:00am - 9:00pm",
        "christmasHoursDay": "18 Apr\r\n19 Apr\r\n20 Apr\r\n21 Apr\r\n22 Apr\r\n23 Apr\r\n24 Apr\r\n25 Apr\r\n26 Apr\r\n27 Apr",
        "updateTimeStamp": "2025-04-11 15:06:33",
        "postcodeId": "13916",
        "storeUrl": "",
        "updated": "0",
        "onlineShopUrl": "",
        "ecommerceUrl": "",
        "distance": "0.09540281317131062"
    },
    {
        "storeId": "15317",
        "retailerId": "183",
        "storeName": "Corfield Fresh IGA",
        "address": "292 Corfield Street\r\nShop 18",
        "suburb": "Gosnells",
        "state": "WA",
        "postcode": "6110",
        "phone": "08 9490 1455",
        "fax": "",
        "hours": "7:00 AM - 9:00 PM\r\n7:00 AM - 9:00 PM\r\n7:00 AM - 9:00 PM\r\n7:00 AM - 9:00 PM\r\n7:00 AM - 9:00 PM\r\n7:00 AM - 9:00 PM\r\n7:00 AM - 9:00 PM",
        "hoursDay": "Monday\r\nTuesday\r\nWednesday\r\nThursday\r\nFriday\r\nSaturday\r\nSunday",
        "regionId": null,
        "latitude": "-32.089607000000000",
        "longitude": "115.999199000000000",
        "tag": "48116",
        "locationNumber": "64198269",
        "saleGroupId": "0",
        "christmasHours": "",
        "christmasHoursDay": "Please contact the store for Easter opening hours.",
        "updateTimeStamp": "2025-04-10 13:33:09",
        "postcodeId": "13901",
        "storeUrl": "",
        "updated": "0",
        "onlineShopUrl": "",
        "ecommerceUrl": "",
        "distance": "0.0689787263582041"
    },
    {
        "storeId": "15284",
        "retailerId": "183",
        "storeName": "IGA Beeliar",
        "address": "28 Lakefront Avenue\nBeeliar Shopping Centre",
        "suburb": "Beeliar",
        "state": "WA",
        "postcode": "6164",
        "phone": "08 9437 5033",
        "fax": "",
        "hours": "7:00 AM - 9:00 PM\r\n7:00 AM - 9:00 PM\r\n7:00 AM - 9:00 PM\r\n7:00 AM - 9:00 PM\r\n7:00 AM - 9:00 PM\r\n7:00 AM - 9:00 PM\r\n7:00 AM - 9:00 PM",
        "hoursDay": "Monday\r\nTuesday\r\nWednesday\r\nThursday\r\nFriday\r\nSaturday\r\nSunday",
        "regionId": "0",
        "latitude": "-32.132716000000000",
        "longitude": "115.816086000000000",
        "tag": "48272",
        "locationNumber": "64200360",
        "saleGroupId": "0",
        "christmasHours": "",
        "christmasHoursDay": "Please contact the store for Easter opening hours.",
        "updateTimeStamp": "2025-04-10 13:33:09",
        "postcodeId": "13994",
        "storeUrl": "",
        "updated": "0",
        "onlineShopUrl": "",
        "ecommerceUrl": "",
        "distance": "0.0675060749636653"
    },
    {
        "storeId": "15476",
        "retailerId": "183",
        "storeName": "The Park Hive IGA",
        "address": "Shop T1 The Park Hive S/Centre\r\n1 Macquarie Boulevard",
        "suburb": "Hammond Park",
        "state": "WA",
        "postcode": "6164",
        "phone": "08 9499 1024",
        "fax": "",
        "hours": "7:00 AM - 11:00 PM\r\n7:00 AM - 11:00 PM\r\n7:00 AM - 11:00 PM\r\n7:00 AM - 11:00 PM\r\n7:00 AM - 11:00 PM\r\n7:00 AM - 11:00 PM\r\n7:00 AM - 11:00 PM",
        "hoursDay": "Monday\r\nTuesday\r\nWednesday\r\nThursday\r\nFriday\r\nSaturday\r\nSunday",
        "regionId": null,
        "latitude": "-32.162280000000000",
        "longitude": "115.846584000000000",
        "tag": "53160",
        "locationNumber": "64198986",
        "saleGroupId": "0",
        "christmasHours": "",
        "christmasHoursDay": "Please contact the store for Easter opening hours.",
        "updateTimeStamp": "2025-04-11 15:06:03",
        "postcodeId": "13996",
        "storeUrl": "",
        "updated": "0",
        "onlineShopUrl": "",
        "ecommerceUrl": "",
        "distance": "0.08361534787944137"
    },
    {
        "storeId": "15456",
        "retailerId": "183",
        "storeName": "Scarvaci's IGA Hamilton Hill",
        "address": "51-57 Rockingham Road\nShop 5",
        "suburb": "Hamilton Hill",
        "state": "WA",
        "postcode": "6163",
        "phone": "08 9335 4327",
        "fax": "",
        "hours": "7:30AM - 7:30PM\r\n7:30AM - 7:30PM\r\n7:30AM - 7:30PM\r\n7:30AM - 7:30PM\r\n7:30AM - 7:30PM\r\n7:30AM - 7:30PM\r\n7:30AM - 7:30PM",
        "hoursDay": "Monday\r\nTuesday\r\nWednesday\r\nThursday\r\nFriday\r\nSaturday\r\nSunday",
        "regionId": "0",
        "latitude": "-32.082245000000000",
        "longitude": "115.769531000000000",
        "tag": "48149",
        "locationNumber": "64160571",
        "saleGroupId": "0",
        "christmasHours": "",
        "christmasHoursDay": "Please contact the store for Easter opening hours.",
        "updateTimeStamp": "2025-04-10 13:33:09",
        "postcodeId": "13983",
        "storeUrl": "",
        "updated": "0",
        "onlineShopUrl": "",
        "ecommerceUrl": "",
        "distance": "0.08797582588984316"
    },
    {
        "storeId": "15371",
        "retailerId": "183",
        "storeName": "IGA Local Grocer Aubin Grove",
        "address": "6/5 Talisker Gate\r\n",
        "suburb": "Aubin Grove",
        "state": "WA",
        "postcode": "6164",
        "phone": "08 9499 4688",
        "fax": "",
        "hours": "7:00 AM - 8:00 PM\r\n7:00 AM - 8:00 PM\r\n7:00 AM - 8:00 PM\r\n7:00 AM - 8:00 PM\r\n7:00 AM - 8:00 PM\r\n7:00 AM - 8:00 PM\r\n8:00 AM - 8:00 PM",
        "hoursDay": "Monday\r\nTuesday\r\nWednesday\r\nThursday\r\nFriday\r\nSaturday\r\nSunday",
        "regionId": null,
        "latitude": "-32.167486000000000",
        "longitude": "115.862035000000000",
        "tag": "52556",
        "locationNumber": "1788",
        "saleGroupId": "0",
        "christmasHours": "",
        "christmasHoursDay": "Please contact the store for Easter opening hours.",
        "updateTimeStamp": "2025-04-10 13:33:09",
        "postcodeId": "13992",
        "storeUrl": "",
        "updated": "0",
        "onlineShopUrl": "",
        "ecommerceUrl": "",
        "distance": "0.0882296942417914"
    },
    {
        "storeId": "15463",
        "retailerId": "183",
        "storeName": "IGA South Fremantle",
        "address": "195 Hampton Road\n",
        "suburb": "South Fremantle",
        "state": "WA",
        "postcode": "6162",
        "phone": "08 9335 5777",
        "fax": "",
        "hours": "7:00 AM - 9:00 PM\r\n7:00 AM - 9:00 PM\r\n7:00 AM - 9:00 PM\r\n7:00 AM - 9:00 PM\r\n7:00 AM - 9:00 PM\r\n7:00 AM - 9:00 PM\r\n7:00 AM - 9:00 PM",
        "hoursDay": "Monday\r\nTuesday\r\nWednesday\r\nThursday\r\nFriday\r\nSaturday\r\nSunday",
        "regionId": "0",
        "latitude": "-32.070889000000000",
        "longitude": "115.757797000000000",
        "tag": "48222",
        "locationNumber": "64134562",
        "saleGroupId": "0",
        "christmasHours": "",
        "christmasHoursDay": "Please contact the store for Easter opening hours.",
        "updateTimeStamp": "2025-04-11 15:06:03",
        "postcodeId": "13978",
        "storeUrl": "",
        "updated": "0",
        "onlineShopUrl": "",
        "ecommerceUrl": "",
        "distance": "0.06603794503162556"
    },
    {
        "storeId": "16108",
        "retailerId": "183",
        "storeName": "Waterhall IGA South Guildford",
        "address": "9 Waterhall Road",
        "suburb": "South Guildford",
        "state": "WA",
        "postcode": "6055",
        "phone": "(08) 9279 2322",
        "fax": "",
        "hours": "7AM - 7PM\r\n7AM - 7PM\r\n7AM - 7PM\r\n7AM - 7PM\r\n7AM - 8PM\r\n7AM - 8PM\r\n8AM - 7PM",
        "hoursDay": "Monday:\r\nTuesday:\r\nWednesday:\r\nThursday:\r\nFriday:\r\nSaturday:\r\nSunday:",
        "regionId": null,
        "latitude": "-31.906042000000000",
        "longitude": "115.988049000000000",
        "tag": "83919",
        "locationNumber": "64204005",
        "saleGroupId": "0",
        "christmasHours": "",
        "christmasHoursDay": "Please contact the store for Easter opening hours.",
        "updateTimeStamp": "2025-04-11 15:06:03",
        "postcodeId": "13786",
        "storeUrl": "",
        "updated": "0",
        "onlineShopUrl": "",
        "ecommerceUrl": "",
        "distance": "0.062232693730867865"
    },
    {
        "storeId": "15361",
        "retailerId": "183",
        "storeName": "IGA Wittenoom Road",
        "address": "1/120 Wittenoom Rd",
        "suburb": "High Wycombe",
        "state": "WA",
        "postcode": "6057",
        "phone": "(08) 9454 2797",
        "fax": "",
        "hours": "6:00 AM - 9:00 PM\r\n6:00 AM - 9:00 PM\r\n6:00 AM - 9:00 PM\r\n6:00 AM - 9:00 PM\r\n6:00 AM - 9:00 PM\r\n7:00 AM - 9:00 PM\r\n7:00 AM - 9:00 PM",
        "hoursDay": "Monday\r\nTuesday\r\nWednesday\r\nThursday\r\nFriday\r\nSaturday\r\nSunday",
        "regionId": null,
        "latitude": "-31.939175000000000",
        "longitude": "116.003373000000000",
        "tag": "48329",
        "locationNumber": "64201430",
        "saleGroupId": "0",
        "christmasHours": "",
        "christmasHoursDay": "Please contact the store for Easter opening hours.",
        "updateTimeStamp": "2025-04-11 15:06:03",
        "postcodeId": "13787",
        "storeUrl": "",
        "updated": "0",
        "onlineShopUrl": "",
        "ecommerceUrl": "",
        "distance": "0.06331770257992626"
    },
    {
        "storeId": "21597",
        "retailerId": "183",
        "storeName": "IGA Maida Vale",
        "address": "31 Maida Vale Rd",
        "suburb": "Maida Vale",
        "state": "WA",
        "postcode": "6057",
        "phone": "08 9454 7790",
        "fax": "",
        "hours": "7:00 AM - 9:00 PM\r\n7:00 AM - 9:00 PM\r\n7:00 AM - 9:00 PM\r\n7:00 AM - 9:00 PM\r\n7:00 AM - 9:00 PM\r\n7:00 AM - 9:00 PM\r\n7:00 AM - 9:00 PM",
        "hoursDay": "Monday\r\nTuesday\r\nWednesday\r\nThursday\r\nFriday\r\nSaturday\r\nSunday",
        "regionId": null,
        "latitude": "-31.952750000000000",
        "longitude": "116.018990000000000",
        "tag": "83716",
        "locationNumber": "0",
        "saleGroupId": "0",
        "christmasHours": "7:00am - 9:00pm\r\n7:00am - 9:00pm\r\n7:00am - 9:00pm\r\n7:00am - 9:00pm\r\n7:00am - 9:00pm\r\n7:00am - 9:00pm\r\n7:00am - 9:00pm\r\n7:00am - 9:00pm\r\n7:00am - 9:00pm\r\n7:00am - 9:00pm",
        "christmasHoursDay": "18 Apr\r\n19 Apr\r\n20 Apr\r\n21 Apr\r\n22 Apr\r\n23 Apr\r\n24 Apr\r\n25 Apr\r\n26 Apr\r\n27 Apr",
        "updateTimeStamp": "2025-04-11 15:06:26",
        "postcodeId": "13788",
        "storeUrl": "",
        "updated": "0",
        "onlineShopUrl": "",
        "ecommerceUrl": "",
        "distance": "0.07883254719974485"
    },
    {
        "storeId": "15404",
        "retailerId": "183",
        "storeName": "IGA Midland",
        "address": "295 Great Eastern Highway\r\n",
        "suburb": "Midland",
        "state": "WA",
        "postcode": "6056",
        "phone": "08 9274 1067",
        "fax": "",
        "hours": "5:30AM - 10:00PM\r\n5:30AM - 10:00PM\r\n5:30AM - 10:00PM\r\n5:30AM - 10:00PM\r\n5:30AM - 10:00PM\r\n5:30AM - 10:00PM\r\n5:30AM - 10:00PM\r\n",
        "hoursDay": "Monday\r\nTuesday\r\nWednesday\r\nThursday\r\nFriday\r\nSaturday\r\nSunday ",
        "regionId": null,
        "latitude": "-31.890245000000000",
        "longitude": "116.004242000000000",
        "tag": "48096",
        "locationNumber": "64199583",
        "saleGroupId": "0",
        "christmasHours": "7:00am - 9:00pm\r\n5:30am - 10:00pm\r\n7:00am - 9:00pm\r\n7:00am - 9:00pm\r\n5:30am - 10:00pm\r\n5:30am - 10:00pm\r\n5:30am - 10:00pm\r\n7:00am - 9:00pm\r\n5:30am - 10:00pm\r\n5:30am - 10:00pm",
        "christmasHoursDay": "18 Apr\r\n19 Apr\r\n20 Apr\r\n21 Apr\r\n22 Apr\r\n23 Apr\r\n24 Apr\r\n25 Apr\r\n26 Apr\r\n27 Apr",
        "updateTimeStamp": "2025-04-11 15:06:29",
        "postcodeId": "13779",
        "storeUrl": "",
        "updated": "0",
        "onlineShopUrl": "",
        "ecommerceUrl": "",
        "distance": "0.07188978710790567"
    },
    {
        "storeId": "15362",
        "retailerId": "183",
        "storeName": "IGA Helena Valley",
        "address": "Torquata Boulevard\nUnit 1",
        "suburb": "Helena Valley",
        "state": "WA",
        "postcode": "6056",
        "phone": "08 9274 5744",
        "fax": "",
        "hours": "7:00 AM - 9:00 PM\r\n7:00 AM - 9:00 PM\r\n7:00 AM - 9:00 PM\r\n7:00 AM - 9:00 PM\r\n7:00 AM - 9:00 PM\r\n7:00 AM - 9:00 PM\r\n7:00 AM - 9:00 PM",
        "hoursDay": "Monday\r\nTuesday\r\nWednesday\r\nThursday\r\nFriday\r\nSaturday\r\nSunday",
        "regionId": "0",
        "latitude": "-31.915676000000000",
        "longitude": "116.029323000000000",
        "tag": "48133",
        "locationNumber": "64128724",
        "saleGroupId": "0",
        "christmasHours": "6:00am - 9:00pm\r\n6:00am - 9:00pm\r\n6:00am - 9:00pm\r\n6:00am - 9:00pm\r\n6:00am - 9:00pm\r\n6:00am - 9:00pm\r\n6:00am - 9:00pm\r\n6:00am - 9:00pm\r\n6:00am - 9:00pm\r\n6:00am - 9:00pm",
        "christmasHoursDay": "18 Apr\r\n19 Apr\r\n20 Apr\r\n21 Apr\r\n22 Apr\r\n23 Apr\r\n24 Apr\r\n25 Apr\r\n26 Apr\r\n27 Apr",
        "updateTimeStamp": "2025-04-11 15:06:27",
        "postcodeId": "13774",
        "storeUrl": "",
        "updated": "0",
        "onlineShopUrl": "",
        "ecommerceUrl": "https://igashop.com.au/?utm_source=igawebsite&utm_medium=tile&utm_campaign=store_locator&utm_content=cta_button",
        "distance": "0.09284439415505925"
    },
    {
        "storeId": "20707",
        "retailerId": "183",
        "storeName": "Naturally Fresh IGA Kalamunda",
        "address": "12 Canning Road",
        "suburb": "Kalamunda",
        "state": "WA",
        "postcode": "6076",
        "phone": "08 9257 1656",
        "fax": "",
        "hours": "6:00 AM - 10:00 PM\r\n6:00 AM - 10:00 PM\r\n6:00 AM - 10:00 PM\r\n6:00 AM - 10:00 PM\r\n6:00 AM - 10:00 PM\r\n6:00 AM - 10:00 PM\r\n6:00 AM - 10:00 PM",
        "hoursDay": "Monday\r\nTuesday\r\nWednesday\r\nThursday\r\nFriday\r\nSaturday\r\nSunday",
        "regionId": null,
        "latitude": "-31.971650000000000",
        "longitude": "116.056250000000000",
        "tag": "48075",
        "locationNumber": "0",
        "saleGroupId": "0",
        "christmasHours": "",
        "christmasHoursDay": "Please contact the store for Easter opening hours.",
        "updateTimeStamp": "2025-04-10 13:33:09",
        "postcodeId": "13840",
        "storeUrl": "",
        "updated": "0",
        "onlineShopUrl": "",
        "ecommerceUrl": "",
        "distance": "0.07114826508777287"
    },
    {
        "storeId": "15469",
        "retailerId": "183",
        "storeName": "IGA Stirling",
        "address": "Cnr Sanderling & Cedric Street\n",
        "suburb": "Stirling",
        "state": "WA",
        "postcode": "6021",
        "phone": "08 9344 5302",
        "fax": "",
        "hours": "7:00 AM - 7:00 PM\r\n7:00 AM - 7:00 PM\r\n7:00 AM - 7:00 PM\r\n7:00 AM - 7:00 PM\r\n7:00 AM - 7:00 PM\r\n7:00 AM - 6:00 PM\r\n8:00 AM - 1:00 PM",
        "hoursDay": "Monday\r\nTuesday\r\nWednesday\r\nThursday\r\nFriday\r\nSaturday\r\nSunday",
        "regionId": "0",
        "latitude": "-31.880745000000000",
        "longitude": "115.809731000000000",
        "tag": "48276",
        "locationNumber": "64196444",
        "saleGroupId": "0",
        "christmasHours": "CLOSED\r\n7:00am - 6:00pm\r\nCLOSED\r\n8:00am  - 1:00pm\r\n7:00am - 7:00pm\r\n7:00am - 7:00pm\r\n7:00am - 7:00pm\r\n8:00am - 5:00pm\r\n7:00am - 6:00pm\r\n8:00am - 1:00pm",
        "christmasHoursDay": "18 Apr\r\n19 Apr\r\n20 Apr\r\n21 Apr\r\n22 Apr\r\n23 Apr\r\n24 Apr\r\n25 Apr\r\n26 Apr\r\n27 Apr",
        "updateTimeStamp": "2025-04-11 15:06:27",
        "postcodeId": "13697",
        "storeUrl": "",
        "updated": "0",
        "onlineShopUrl": "",
        "ecommerceUrl": "",
        "distance": "0.06371014708819939"
    },
    {
        "storeId": "15507",
        "retailerId": "183",
        "storeName": "Tucker Fresh IGA Morris",
        "address": "Morris Place Shopping Centre,  Shop 1, 27 Morris Place",
        "suburb": "Innaloo",
        "state": "WA",
        "postcode": "6018",
        "phone": "08 9244 1618",
        "fax": "",
        "hours": "7AM - 8PM\r\n7AM - 8PM\r\n7AM - 8PM\r\n7AM - 8PM\r\n7AM - 8PM\r\n7AM - 8PM\r\n7AM - 8PM",
        "hoursDay": "Monday:\r\nTuesday:\r\nWednesday:\r\nThursday:\r\nFriday:\r\nSaturday:\r\nSunday:",
        "regionId": null,
        "latitude": "-31.890379000000000",
        "longitude": "115.792059000000000",
        "tag": "52119",
        "locationNumber": "64201928",
        "saleGroupId": "0",
        "christmasHours": "7:00am - 9:00pm\r\n7:00am - 9:00pm\r\n7:00am - 9:00pm\r\n7:00am - 9:00pm\r\n7:00am - 9:00pm\r\n7:00am - 9:00pm\r\n7:00am - 9:00pm\r\n7:00am - 9:00pm\r\n7:00am - 9:00pm\r\n7:00am - 9:00pm",
        "christmasHoursDay": "18 Apr\r\n19 Apr\r\n20 Apr\r\n21 Apr\r\n22 Apr\r\n23 Apr\r\n24 Apr\r\n25 Apr\r\n26 Apr\r\n27 Apr",
        "updateTimeStamp": "2025-04-11 15:06:33",
        "postcodeId": "13686",
        "storeUrl": "",
        "updated": "0",
        "onlineShopUrl": "",
        "ecommerceUrl": "",
        "distance": "0.06691831296438965"
    },
    {
        "storeId": "15474",
        "retailerId": "183",
        "storeName": "The Downs IGA",
        "address": "Wembley Downs Shopping Centre, Bournemouth Crescent",
        "suburb": "Wembley Downs",
        "state": "WA",
        "postcode": "6019",
        "phone": "08 9341 6093",
        "fax": "",
        "hours": "7AM - 9PM\r\n7AM - 9PM\r\n7AM - 9PM\r\n7AM - 9PM\r\n7AM - 9PM\r\n7AM - 9PM\r\n7AM - 9PM\r\n",
        "hoursDay": "Monday\r\nTuesday\r\nWednesday\r\nThursday\r\nFriday\r\nSaturday\r\nSunday",
        "regionId": null,
        "latitude": "-31.911047000000000",
        "longitude": "115.774983000000000",
        "tag": "50771",
        "locationNumber": "64198625",
        "saleGroupId": "0",
        "christmasHours": "",
        "christmasHoursDay": "Please contact the store for Easter opening hours.",
        "updateTimeStamp": "2025-04-11 15:06:03",
        "postcodeId": "13690",
        "storeUrl": "",
        "updated": "0",
        "onlineShopUrl": "",
        "ecommerceUrl": "",
        "distance": "0.07032125688580942"
    },
    {
        "storeId": "15313",
        "retailerId": "183",
        "storeName": "IGA City Beach",
        "address": "Kilpa Court\n3 Ocean Village Shopping Centre",
        "suburb": "City Beach",
        "state": "WA",
        "postcode": "6015",
        "phone": "08 9341 2250",
        "fax": "",
        "hours": "8AM - 8PM\r\n8AM - 8PM\r\n8AM - 8PM\r\n8AM - 8PM\r\n8AM - 8PM\r\n8AM - 8PM\r\n8AM - 8PM",
        "hoursDay": "Monday\r\nTuesday\r\nWednesday\r\nThursday\r\nFriday\r\nSaturday\r\nSunday ",
        "regionId": "0",
        "latitude": "-31.912627150000000",
        "longitude": "115.766007900000000",
        "tag": "",
        "locationNumber": "1138",
        "saleGroupId": "0",
        "christmasHours": "",
        "christmasHoursDay": "Please contact the store for Easter opening hours.",
        "updateTimeStamp": "2025-04-10 13:33:09",
        "postcodeId": "13676",
        "storeUrl": "",
        "updated": "0",
        "onlineShopUrl": "",
        "ecommerceUrl": "",
        "distance": "0.07825739928423701"
    },
    {
        "storeId": "15274",
        "retailerId": "183",
        "storeName": "IGA Balga",
        "address": "108 Princess Road\nLot 16",
        "suburb": "Balga",
        "state": "WA",
        "postcode": "6061",
        "phone": "08 9349 1055",
        "fax": "",
        "hours": "7:00 AM - 8:00 PM\r\n7:00 AM - 8:00 PM\r\n7:00 AM - 8:00 PM\r\n7:00 AM - 8:00 PM\r\n7:00 AM - 8:00 PM\r\n7:00 AM - 8:00 PM\r\n7:00 AM - 8:00 PM",
        "hoursDay": "Monday\r\nTuesday\r\nWednesday\r\nThursday\r\nFriday\r\nSaturday\r\nSunday",
        "regionId": "0",
        "latitude": "-31.855771000000000",
        "longitude": "115.837634000000000",
        "tag": "48102",
        "locationNumber": "64201936",
        "saleGroupId": "0",
        "christmasHours": "",
        "christmasHoursDay": "Please contact the store for Easter opening hours.",
        "updateTimeStamp": "2025-04-10 13:33:09",
        "postcodeId": "13795",
        "storeUrl": "",
        "updated": "0",
        "onlineShopUrl": "",
        "ecommerceUrl": "",
        "distance": "0.08079691727411387"
    },
    {
        "storeId": "15333",
        "retailerId": "183",
        "storeName": "IGA Doubleview",
        "address": "187 Scarborough Beach Road\n",
        "suburb": "Doubleview",
        "state": "WA",
        "postcode": "6018",
        "phone": "08 9244 3398",
        "fax": "",
        "hours": "7:00 AM - 8:00 PM\r\n7:00 AM - 8:00 PM\r\n7:00 AM - 8:00 PM\r\n7:00 AM - 8:00 PM\r\n7:00 AM - 8:00 PM\r\n7:00 AM - 8:00 PM\r\n7:00 AM - 8:00 PM",
        "hoursDay": "Monday\r\nTuesday\r\nWednesday\r\nThursday\r\nFriday\r\nSaturday\r\nSunday",
        "regionId": "0",
        "latitude": "-31.894144000000000",
        "longitude": "115.777321000000000",
        "tag": "48221",
        "locationNumber": "64196010",
        "saleGroupId": "0",
        "christmasHours": "",
        "christmasHoursDay": "Please contact the store for Easter opening hours.",
        "updateTimeStamp": "2025-04-11 15:06:03",
        "postcodeId": "13683",
        "storeUrl": "",
        "updated": "0",
        "onlineShopUrl": "",
        "ecommerceUrl": "",
        "distance": "0.06649087369707214"
    },
    {
        "storeId": "22282",
        "retailerId": "183",
        "storeName": "IGA Local Grocer Sackville",
        "address": "151 Sackville Terrace",
        "suburb": "Doubleview",
        "state": "6018",
        "postcode": "WA",
        "phone": "",
        "fax": "",
        "hours": "",
        "hoursDay": "Monday\r\nTuesday\r\nWednesday\r\nThursday\r\nFriday\r\nSaturday\r\nSunday",
        "regionId": null,
        "latitude": "-31.888180000000000",
        "longitude": "115.779840000000000",
        "tag": "",
        "locationNumber": "0",
        "saleGroupId": "0",
        "christmasHours": "",
        "christmasHoursDay": "Please contact the store for Easter opening hours.",
        "updateTimeStamp": "2025-04-10 13:33:09",
        "postcodeId": "13683",
        "storeUrl": "",
        "updated": "0",
        "onlineShopUrl": "",
        "ecommerceUrl": "",
        "distance": "0.06692046828885763"
    },
    {
        "storeId": "15307",
        "retailerId": "183",
        "storeName": "Tucker Fresh IGA Carine",
        "address": "Shop 11 Carine Glades Shopping Centre, 485 Beach Road",
        "suburb": "Duncraig",
        "state": "WA",
        "postcode": "6023",
        "phone": "08 9447 4926",
        "fax": "",
        "hours": "7AM - 8PM\r\n7AM - 8PM\r\n7AM - 8PM\r\n7AM - 8PM\r\n7AM - 8PM\r\n7AM - 8PM\r\n7AM - 8PM",
        "hoursDay": "Monday\r\nTuesday\r\nWednesday\r\nThursday\r\nFriday\r\nSaturday\r\nSunday",
        "regionId": null,
        "latitude": "-31.845764940000000",
        "longitude": "115.786306900000000",
        "tag": "48131",
        "locationNumber": "64196665",
        "saleGroupId": "0",
        "christmasHours": "7:00am - 8:00pm\r\n7:00am - 8:00pm\r\n7:00am - 8:00pm\r\n7:00am - 8:00pm\r\n7:00am - 8:00pm\r\n7:00am - 8:00pm\r\n7:00am - 8:00pm\r\n7:00am - 8:00pm\r\n7:00am - 8:00pm\r\n7:00am - 8:00pm",
        "christmasHoursDay": "18 Apr\r\n19 Apr\r\n20 Apr\r\n21 Apr\r\n22 Apr\r\n23 Apr\r\n24 Apr\r\n25 Apr\r\n26 Apr\r\n27 Apr",
        "updateTimeStamp": "2025-04-11 15:06:33",
        "postcodeId": "13691",
        "storeUrl": "",
        "updated": "0",
        "onlineShopUrl": "",
        "ecommerceUrl": "",
        "distance": "0.06681519538977343"
    },
    {
        "storeId": "22245",
        "retailerId": "183",
        "storeName": "IGA Greenwood Naturally Fresh",
        "address": "Unit 2/130 Coolibah Drive",
        "suburb": "Greenwood",
        "state": "WA",
        "postcode": "6024",
        "phone": "",
        "fax": "",
        "hours": "",
        "hoursDay": "Monday\r\nTuesday\r\nWednesday\r\nThursday\r\nFriday\r\nSaturday\r\nSunday",
        "regionId": null,
        "latitude": "-31.833600000000000",
        "longitude": "115.802370000000000",
        "tag": "",
        "locationNumber": "0",
        "saleGroupId": "0",
        "christmasHours": "6:00am - 10:00pm\r\n6:00am - 10:00pm\r\n6:00am - 10:00pm\r\n6:00am - 10:00pm\r\n6:00am - 10:00pm\r\n6:00am - 10:00pm\r\n6:00am - 10:00pm\r\n6:00am - 10:00pm\r\n6:00am - 10:00pm\r\n6:00am - 10:00pm",
        "christmasHoursDay": "18 Apr\r\n19 Apr\r\n20 Apr\r\n21 Apr\r\n22 Apr\r\n23 Apr\r\n24 Apr\r\n25 Apr\r\n26 Apr\r\n27 Apr",
        "updateTimeStamp": "2025-04-11 15:06:25",
        "postcodeId": "13700",
        "storeUrl": "",
        "updated": "0",
        "onlineShopUrl": "",
        "ecommerceUrl": "",
        "distance": "0.06913806240414898"
    },
    {
        "storeId": "15326",
        "retailerId": "183",
        "storeName": "Darch IGA",
        "address": "225 Kingsway Road\r\nShop 1",
        "suburb": "Darch",
        "state": "WA",
        "postcode": "6065",
        "phone": "08 9303 4144",
        "fax": "",
        "hours": "",
        "hoursDay": "Open 24 hours 7 days a week.",
        "regionId": null,
        "latitude": "-31.813055000000000",
        "longitude": "115.837278000000000",
        "tag": "52411",
        "locationNumber": "64199117",
        "saleGroupId": "0",
        "christmasHours": "",
        "christmasHoursDay": "Please contact the store for Easter opening hours.",
        "updateTimeStamp": "2025-04-11 15:06:03",
        "postcodeId": "13811",
        "storeUrl": "",
        "updated": "0",
        "onlineShopUrl": "",
        "ecommerceUrl": "",
        "distance": "0.08505686503745598"
    },
    {
        "storeId": "22235",
        "retailerId": "183",
        "storeName": "Naturally Fresh IGA Greenwood",
        "address": "Shop2, 130 Coolibah Drive",
        "suburb": "Greenwood",
        "state": "WA",
        "postcode": "6024",
        "phone": "(08) 61844600",
        "fax": "",
        "hours": "6:00 AM - 10:00 PM\r\n6:00 AM - 10:00 PM\r\n6:00 AM - 10:00 PM\r\n6:00 AM - 10:00 PM\r\n6:00 AM - 10:00 PM\r\n6:00 AM - 10:00 PM\r\n6:00 AM - 10:00 PM",
        "hoursDay": "Monday\r\nTuesday\r\nWednesday\r\nThursday\r\nFriday\r\nSaturday\r\nSunday",
        "regionId": null,
        "latitude": "-31.822614300000000",
        "longitude": "115.790570000000000",
        "tag": "",
        "locationNumber": "0",
        "saleGroupId": "0",
        "christmasHours": "",
        "christmasHoursDay": "Please contact the store for Easter opening hours.",
        "updateTimeStamp": "2025-04-10 13:33:09",
        "postcodeId": "13706",
        "storeUrl": "",
        "updated": "0",
        "onlineShopUrl": "",
        "ecommerceUrl": "",
        "distance": "0.08775002771560816"
    },
    {
        "storeId": "15398",
        "retailerId": "183",
        "storeName": "IGA Marmion",
        "address": "Sheppard Way\r\nMarmion Village Shopping Centre",
        "suburb": "Marmion",
        "state": "WA",
        "postcode": "6020",
        "phone": "08 9448 5317",
        "fax": "",
        "hours": "7:00 AM - 8:00 PM\r\n7:00 AM - 8:00 PM\r\n7:00 AM - 8:00 PM\r\n7:00 AM - 8:00 PM\r\n7:00 AM - 8:00 PM\r\n7:00 AM - 8:00 PM\r\n7:00 AM - 8:00 PM",
        "hoursDay": "Monday\r\nTuesday\r\nWednesday\r\nThursday\r\nFriday\r\nSaturday\r\nSunday",
        "regionId": null,
        "latitude": "-31.843215000000000",
        "longitude": "115.756070000000000",
        "tag": "48125",
        "locationNumber": "64129011",
        "saleGroupId": "0",
        "christmasHours": "",
        "christmasHoursDay": "Please contact the store for Easter opening hours.",
        "updateTimeStamp": "2025-04-11 15:06:03",
        "postcodeId": "13695",
        "storeUrl": "",
        "updated": "0",
        "onlineShopUrl": "",
        "ecommerceUrl": "",
        "distance": "0.08383999676765262"
    },
    {
        "storeId": "15334",
        "retailerId": "183",
        "storeName": "Duncraig Fresh IGA",
        "address": "50 Marri Road\r\nShop 15 Duncraig Shopping Centre",
        "suburb": "Duncraig",
        "state": "WA",
        "postcode": "6023",
        "phone": "(08) 9246 4422",
        "fax": "",
        "hours": "7AM - 8PM\r\n7AM - 8PM\r\n7AM - 8PM\r\n7AM - 8PM\r\n7AM - 8PM\r\n7AM - 8PM\r\n7AM - 8PM",
        "hoursDay": "Monday:\r\nTuesday:\r\nWednesday:\r\nThursday:\r\nFriday:\r\nSaturday:\r\nSunday:",
        "regionId": null,
        "latitude": "-31.831081000000000",
        "longitude": "115.768929000000000",
        "tag": "48124",
        "locationNumber": "64200352",
        "saleGroupId": "0",
        "christmasHours": "",
        "christmasHoursDay": "Please contact the store for Easter opening hours.",
        "updateTimeStamp": "2025-04-11 15:06:03",
        "postcodeId": "13699",
        "storeUrl": "",
        "updated": "0",
        "onlineShopUrl": "",
        "ecommerceUrl": "",
        "distance": "0.09526480973056105"
    },
    {
        "storeId": "15378",
        "retailerId": "183",
        "storeName": "IGA Local Grocer Kelmscott",
        "address": "2838 Albany Highway\r\n",
        "suburb": "Kelmscott",
        "state": "WA",
        "postcode": "6111",
        "phone": "08 9390 5849",
        "fax": "",
        "hours": "8:00 AM - 8:00 PM\r\n8:00 AM - 8:00 PM\r\n8:00 AM - 8:00 PM\r\n8:00 AM - 8:00 PM\r\n8:00 AM - 8:00 PM\r\n8:00 AM - 8:00 PM\r\n8:00 AM - 8:00 PM",
        "hoursDay": "Monday\r\nTuesday\r\nWednesday\r\nThursday\r\nFriday\r\nSaturday\r\nSunday",
        "regionId": null,
        "latitude": "-32.114410000000000",
        "longitude": "116.014920000000000",
        "tag": "48090",
        "locationNumber": "1933",
        "saleGroupId": "0",
        "christmasHours": "",
        "christmasHoursDay": "Please contact the store for Easter opening hours.",
        "updateTimeStamp": "2025-04-11 15:06:03",
        "postcodeId": "13903",
        "storeUrl": "",
        "updated": "0",
        "onlineShopUrl": "",
        "ecommerceUrl": "",
        "distance": "0.062419599486058866"
    },
    {
        "storeId": "15393",
        "retailerId": "183",
        "storeName": "IGA Local Grocer Lesmurdie",
        "address": "241 Lesmurdie Road\r\n",
        "suburb": "Lesmurdie",
        "state": "WA",
        "postcode": "6076",
        "phone": "08 9291 6685",
        "fax": "",
        "hours": "7:00 AM - 7:00 PM\r\n7:00 AM - 7:00 PM\r\n7:00 AM - 7:00 PM\r\n7:00 AM - 7:00 PM\r\n7:00 AM - 7:00 PM\r\n7:00 AM - 7:00 PM\r\n7:00 AM - 7:00 PM",
        "hoursDay": "Monday\r\nTuesday\r\nWednesday\r\nThursday\r\nFriday\r\nSaturday\r\nSunday",
        "regionId": null,
        "latitude": "-31.999140000000000",
        "longitude": "116.052953000000000",
        "tag": "39765",
        "locationNumber": "64127159",
        "saleGroupId": "0",
        "christmasHours": "",
        "christmasHoursDay": "Please contact the store for Easter opening hours.",
        "updateTimeStamp": "2025-04-11 15:06:03",
        "postcodeId": "13846",
        "storeUrl": "",
        "updated": "0",
        "onlineShopUrl": "",
        "ecommerceUrl": "",
        "distance": "0.012591061670883833"
    },
    {
        "storeId": "15271",
        "retailerId": "183",
        "storeName": "IGA Local Grocer Armadale",
        "address": "61 Seventh Road\r\n",
        "suburb": "Armadale",
        "state": "WA",
        "postcode": "6112",
        "phone": "08 9399 2230",
        "fax": "",
        "hours": "7:00 AM - 8:00 PM\r\n7:00 AM - 8:00 PM\r\n7:00 AM - 8:00 PM\r\n7:00 AM - 8:00 PM\r\n7:00 AM - 8:00 PM\r\n7:00 AM - 8:00 PM\r\n7:00 AM - 8:00 PM",
        "hoursDay": "Monday\r\nTuesday\r\nWednesday\r\nThursday\r\nFriday\r\nSaturday\r\nSunday",
        "regionId": null,
        "latitude": "-32.157413000000000",
        "longitude": "116.008018000000000",
        "tag": "51402",
        "locationNumber": "1020",
        "saleGroupId": "0",
        "christmasHours": "",
        "christmasHoursDay": "Please contact the store for Easter opening hours.",
        "updateTimeStamp": "2025-04-10 13:33:09",
        "postcodeId": "13912",
        "storeUrl": "",
        "updated": "0",
        "onlineShopUrl": "",
        "ecommerceUrl": "",
        "distance": "0.06837710433324887"
    },
    {
        "storeId": "15451",
        "retailerId": "183",
        "storeName": "Roleystone Fresh IGA",
        "address": "21 Jarrah Road\r\n",
        "suburb": "Roleystone",
        "state": "WA",
        "postcode": "6111",
        "phone": "08 9397 5585",
        "fax": "",
        "hours": "8:00 AM - 7:00 PM\r\n8:00 AM - 7:00 PM\r\n8:00 AM - 7:00 PM\r\n8:00 AM - 8:00 PM\r\n8:00 AM - 7:00 PM\r\n8:00 AM - 7:00 PM\r\n8:00 AM - 7:00 PM",
        "hoursDay": "Monday\r\nTuesday\r\nWednesday\r\nThursday\r\nFriday\r\nSaturday\r\nSunday",
        "regionId": null,
        "latitude": "-32.112549000000000",
        "longitude": "116.069763000000000",
        "tag": "31742",
        "locationNumber": "64127469",
        "saleGroupId": "0",
        "christmasHours": "",
        "christmasHoursDay": "Please contact the store for Easter opening hours.",
        "updateTimeStamp": "2025-04-10 13:33:09",
        "postcodeId": "13906",
        "storeUrl": "http://roleystonesupaiga.com.au/?utm_source=igawebsite&utm_medium=tile&utm_campaign=store_locator&utm_content=cta_button",
        "updated": "0",
        "onlineShopUrl": "",
        "ecommerceUrl": "",
        "distance": "0.07419982115881413"
    },
    {
        "storeId": "15508",
        "retailerId": "183",
        "storeName": "IGA Bertram",
        "address": "1 Hero Crescent\n",
        "suburb": "Bertram",
        "state": "WA",
        "postcode": "6167",
        "phone": "08 9439 6794",
        "fax": "",
        "hours": "7:00 AM - 10:00 PM\r\n7:00 AM - 10:00 PM\r\n7:00 AM - 10:00 PM\r\n7:00 AM - 10:00 PM\r\n7:00 AM - 10:00 PM\r\n7:00 AM - 10:00 PM\r\n7:00 AM - 10:00 PM",
        "hoursDay": "Monday\r\nTuesday\r\nWednesday\r\nThursday\r\nFriday\r\nSaturday\r\nSunday",
        "regionId": "0",
        "latitude": "-32.246743000000000",
        "longitude": "115.846864000000000",
        "tag": "52564",
        "locationNumber": "64198790",
        "saleGroupId": "0",
        "christmasHours": "",
        "christmasHoursDay": "Please contact the store for Easter opening hours.",
        "updateTimeStamp": "2025-04-10 13:33:09",
        "postcodeId": "14008",
        "storeUrl": "",
        "updated": "0",
        "onlineShopUrl": "",
        "ecommerceUrl": "",
        "distance": "0.08446346410726947"
    },
    {
        "storeId": "15471",
        "retailerId": "183",
        "storeName": "Swan View IGA",
        "address": "6/309 Morrison Road\r\n",
        "suburb": "Swan View",
        "state": "WA",
        "postcode": "6056",
        "phone": "08 9294 2036",
        "fax": "",
        "hours": "7:00 AM - 8:00 PM\r\n7:00 AM - 8:00 PM\r\n7:00 AM - 8:00 PM\r\n7:00 AM - 8:00 PM\r\n7:00 AM - 8:00 PM\r\n7:00 AM - 8:00 PM\r\n7:00 AM - 8:00 PM",
        "hoursDay": "Monday\r\nTuesday\r\nWednesday\r\nThursday\r\nFriday\r\nSaturday\r\nSunday",
        "regionId": null,
        "latitude": "-31.885899000000000",
        "longitude": "116.042192000000000",
        "tag": "49156",
        "locationNumber": "64134589",
        "saleGroupId": "0",
        "christmasHours": "7:00am - 8:00pm\r\n7:00am - 8:00pm\r\n7:00am - 8:00pm\r\n7:00am - 8:00pm\r\n6:30am - 8:00pm\r\n6:30am - 8:00pm\r\n6:30am - 8:00pm\r\n7:00am - 8:00pm\r\n7:00am - 8:00pm\r\n7:00am - 8:00pm",
        "christmasHoursDay": "18 Apr\r\n19 Apr\r\n20 Apr\r\n21 Apr\r\n22 Apr\r\n23 Apr\r\n24 Apr\r\n25 Apr\r\n26 Apr\r\n27 Apr",
        "updateTimeStamp": "2025-04-11 15:06:25",
        "postcodeId": "13784",
        "storeUrl": "",
        "updated": "0",
        "onlineShopUrl": "",
        "ecommerceUrl": "",
        "distance": "0.05776854592250007"
    },
    {
        "storeId": "15470",
        "retailerId": "183",
        "storeName": "Stratton IGA",
        "address": "7 OConnor Road\r\nShop 10",
        "suburb": "Stratton",
        "state": "WA",
        "postcode": "6056",
        "phone": "08 6270 0797",
        "fax": "",
        "hours": "7:00 AM - 9:00 PM\r\n7:00 AM - 9:00 PM\r\n7:00 AM - 9:00 PM\r\n7:00 AM - 9:00 PM\r\n7:00 AM - 9:00 PM\r\n7:00 AM - 9:00 PM\r\n7:00 AM - 9:00 PM",
        "hoursDay": "Monday\r\nTuesday\r\nWednesday\r\nThursday\r\nFriday\r\nSaturday\r\nSunday",
        "regionId": null,
        "latitude": "-31.871548000000000",
        "longitude": "116.037902000000000",
        "tag": "104265",
        "locationNumber": "64204811",
        "saleGroupId": "0",
        "christmasHours": "",
        "christmasHoursDay": "Please contact the store for Easter opening hours.",
        "updateTimeStamp": "2025-04-10 13:33:09",
        "postcodeId": "13988",
        "storeUrl": "",
        "updated": "0",
        "onlineShopUrl": "",
        "ecommerceUrl": "",
        "distance": "0.06062307848501262"
    },
    {
        "storeId": "15349",
        "retailerId": "183",
        "storeName": "IGA Glen Forrest",
        "address": "1320 Great Eastern Highway",
        "suburb": "Glen Forrest",
        "state": "WA",
        "postcode": "6071",
        "phone": "08 9298 8459",
        "fax": "",
        "hours": "8:00 AM - 8:00 PM\r\n8:00 AM - 8:00 PM\r\n8:00 AM - 8:00 PM\r\n8:00 AM - 8:00 PM\r\n8:00 AM - 8:00 PM\r\n8:00 AM - 8:00 PM\r\n8:00 AM - 8:00 PM",
        "hoursDay": "Monday\r\nTuesday\r\nWednesday\r\nThursday\r\nFriday\r\nSaturday\r\nSunday",
        "regionId": "0",
        "latitude": "-31.903162000000000",
        "longitude": "116.104118000000000",
        "tag": "51986",
        "locationNumber": "64129623",
        "saleGroupId": "0",
        "christmasHours": "8:00am - 8:00pm\r\n8:00am - 8:00pm\r\n8:00am - 8:00pm\r\n8:00am - 8:00pm\r\n8:00am - 8:00pm\r\n8:00am - 8:00pm\r\n8:00am - 8:00pm\r\n8:00am - 8:00pm\r\n8:00am - 8:00pm\r\n8:00am - 8:00pm",
        "christmasHoursDay": "18 Apr\r\n19 Apr\r\n20 Apr\r\n21 Apr\r\n22 Apr\r\n23 Apr\r\n24 Apr\r\n25 Apr\r\n26 Apr\r\n27 Apr",
        "updateTimeStamp": "2025-04-11 15:06:25",
        "postcodeId": "13830",
        "storeUrl": "",
        "updated": "0",
        "onlineShopUrl": "",
        "ecommerceUrl": "",
        "distance": "0.07583463734336705"
    },
    {
        "storeId": "15512",
        "retailerId": "183",
        "storeName": "Glengarry Fresh IGA",
        "address": "Glengarry Shopping Centre\n",
        "suburb": "Duncraig",
        "state": "WA",
        "postcode": "6023",
        "phone": "08 9448 4450",
        "fax": "",
        "hours": "",
        "hoursDay": "",
        "regionId": "0",
        "latitude": "-31.834180520000000",
        "longitude": "115.782573200000000",
        "tag": "48288",
        "locationNumber": "64201561",
        "saleGroupId": "0",
        "christmasHours": "6:00am - 9:00pm\r\n6:00am - 9:00pm\r\n6:00am - 9:00pm\r\n6:00am - 9:00pm\r\n6:00am - 9:00pm\r\n6:00am - 9:00pm\r\n6:00am - 9:00pm\r\n6:00am - 9:00pm\r\n6:00am - 9:00pm\r\n6:00am - 9:00pm",
        "christmasHoursDay": "18 Apr\r\n19 Apr\r\n20 Apr\r\n21 Apr\r\n22 Apr\r\n23 Apr\r\n24 Apr\r\n25 Apr\r\n26 Apr\r\n27 Apr",
        "updateTimeStamp": "2025-04-11 15:06:26",
        "postcodeId": "13691",
        "storeUrl": "",
        "updated": "0",
        "onlineShopUrl": "",
        "ecommerceUrl": "",
        "distance": "0.05390544405262236"
    },
    {
        "storeId": "15381",
        "retailerId": "183",
        "storeName": "All Foods Market Kingsley IGA",
        "address": "Kingsley Drive\nShop 6 Kingsley Village",
        "suburb": "Kingsley",
        "state": "WA",
        "postcode": "6026",
        "phone": "08 9409 7088",
        "fax": "",
        "hours": "6:00 AM - 9:00 PM\r\n6:00 AM - 9:00 PM\r\n6:00 AM - 9:00 PM\r\n6:00 AM - 9:00 PM\r\n6:00 AM - 9:00 PM\r\n6:00 AM - 9:00 PM\r\n6:00 AM - 9:00 PM",
        "hoursDay": "Monday\r\nTuesday\r\nWednesday\r\nThursday\r\nFriday\r\nSaturday\r\nSunday",
        "regionId": "0",
        "latitude": "-31.808929000000000",
        "longitude": "115.788925000000000",
        "tag": "48316",
        "locationNumber": "64201553",
        "saleGroupId": "0",
        "christmasHours": "",
        "christmasHoursDay": "Please contact the store for Easter opening hours.",
        "updateTimeStamp": "2025-04-10 13:33:09",
        "postcodeId": "13706",
        "storeUrl": "https://www.allfoodsmarket.com.au/?utm_source=igawebsite&utm_medium=tile&utm_campaign=store_locator&utm_content=cta_button",
        "updated": "0",
        "onlineShopUrl": "",
        "ecommerceUrl": "",
        "distance": "0.07476916137017989"
    },
    {
        "storeId": "15434",
        "retailerId": "183",
        "storeName": "Pearsall IGA",
        "address": "155 Willespie Drive\r\nPearsall Shopping Centre",
        "suburb": "Pearsall",
        "state": "WA",
        "postcode": "6065",
        "phone": "08 9406 2600",
        "fax": "",
        "hours": "7:00 AM - 9:00 PM\r\n7:00 AM - 9:00 PM\r\n7:00 AM - 9:00 PM\r\n7:00 AM - 9:00 PM\r\n7:00 AM - 9:00 PM\r\n7:00 AM - 9:00 PM\r\n7:00 AM - 9:00 PM",
        "hoursDay": "Monday\r\nTuesday\r\nWednesday\r\nThursday\r\nFriday\r\nSaturday\r\nSunday",
        "regionId": null,
        "latitude": "-31.781272000000000",
        "longitude": "115.818631000000000",
        "tag": "71994",
        "locationNumber": "64200140",
        "saleGroupId": "0",
        "christmasHours": "",
        "christmasHoursDay": "Please contact the store for Easter opening hours.",
        "updateTimeStamp": "2025-04-10 13:33:09",
        "postcodeId": "13814",
        "storeUrl": "https://pearsalliga.com.au/?utm_source=igawebsite&utm_medium=tile&utm_campaign=store_locator&utm_content=cta_button",
        "updated": "0",
        "onlineShopUrl": "",
        "ecommerceUrl": "",
        "distance": "0.07688442631638737"
    },
    {
        "storeId": "15431",
        "retailerId": "183",
        "storeName": "All Foods Market Padbury IGA",
        "address": "Warburton Avenue\nShop 10/11 Padbury Shopping Centre",
        "suburb": "Padbury",
        "state": "WA",
        "postcode": "6025",
        "phone": "08 9401 7035",
        "fax": "",
        "hours": "6:00 AM - 9:00 PM\r\n6:00 AM - 9:00 PM\r\n6:00 AM - 9:00 PM\r\n6:00 AM - 9:00 PM\r\n6:00 AM - 9:00 PM\r\n6:00 AM - 9:00 PM\r\n6:00 AM - 9:00 PM",
        "hoursDay": "Monday\r\nTuesday\r\nWednesday\r\nThursday\r\nFriday\r\nSaturday\r\nSunday",
        "regionId": "0",
        "latitude": "-31.811111000000000",
        "longitude": "115.765457000000000",
        "tag": "48314",
        "locationNumber": "64189006",
        "saleGroupId": "0",
        "christmasHours": "",
        "christmasHoursDay": "Please contact the store for Easter opening hours.",
        "updateTimeStamp": "2025-04-11 15:06:03",
        "postcodeId": "13705",
        "storeUrl": "https://www.allfoodsmarket.com.au/?utm_source=igawebsite&utm_medium=tile&utm_campaign=store_locator&utm_content=cta_button",
        "updated": "0",
        "onlineShopUrl": "",
        "ecommerceUrl": "",
        "distance": "0.08387629930439229"
    },
    {
        "storeId": "15496",
        "retailerId": "183",
        "storeName": "IGA Woodvale",
        "address": "153 Trappers Drive",
        "suburb": "Woodvale",
        "state": "WA",
        "postcode": "6026",
        "phone": "08 9309 2468",
        "fax": "",
        "hours": "7:00 AM - 9:00 PM\r\n7:00 AM - 9:00 PM\r\n7:00 AM - 9:00 PM\r\n7:00 AM - 9:00 PM\r\n7:00 AM - 9:00 PM\r\n7:00 AM - 9:00 PM\r\n7:00 AM - 9:00 PM",
        "hoursDay": "Monday\r\nTuesday\r\nWednesday\r\nThursday\r\nFriday\r\nSaturday\r\nSunday",
        "regionId": null,
        "latitude": "-31.790916000000000",
        "longitude": "115.787453000000000",
        "tag": "48127",
        "locationNumber": "64207730",
        "saleGroupId": "0",
        "christmasHours": "7:00am - 9:00pm\r\n7:00am - 9:00pm\r\n7:00am - 9:00pm\r\n7:00am - 9:00pm\r\n7:00am - 9:00pm\r\n7:00am - 9:00pm\r\n7:00am - 9:00pm\r\n7:00am - 9:00pm\r\n7:00am - 9:00pm\r\n7:00am - 9:00pm",
        "christmasHoursDay": "18 Apr\r\n19 Apr\r\n20 Apr\r\n21 Apr\r\n22 Apr\r\n23 Apr\r\n24 Apr\r\n25 Apr\r\n26 Apr\r\n27 Apr",
        "updateTimeStamp": "2025-04-11 15:06:26",
        "postcodeId": "13707",
        "storeUrl": "",
        "updated": "0",
        "onlineShopUrl": "",
        "ecommerceUrl": "",
        "distance": "0.05486091290102271"
    },
    {
        "storeId": "15320",
        "retailerId": "183",
        "storeName": "All Foods Market Craigie IGA",
        "address": "Craigie Plaza 15 Perilya Road\nEddystone Avenue",
        "suburb": "Craigie",
        "state": "WA",
        "postcode": "6025",
        "phone": "08 9401 4501",
        "fax": "",
        "hours": "6:00 AM - 9:00 PM\r\n6:00 AM - 9:00 PM\r\n6:00 AM - 9:00 PM\r\n6:00 AM - 9:00 PM\r\n6:00 AM - 9:00 PM\r\n6:00 AM - 9:00 PM\r\n6:00 AM - 9:00 PM",
        "hoursDay": "Monday\r\nTuesday\r\nWednesday\r\nThursday\r\nFriday\r\nSaturday\r\nSunday",
        "regionId": "0",
        "latitude": "-31.785111000000000",
        "longitude": "115.767177000000000",
        "tag": "48285",
        "locationNumber": "64206431",
        "saleGroupId": "0",
        "christmasHours": "",
        "christmasHoursDay": "Please contact the store for Easter opening hours.",
        "updateTimeStamp": "2025-04-10 13:33:09",
        "postcodeId": "13702",
        "storeUrl": "https://www.allfoodsmarket.com.au/?utm_source=igawebsite&utm_medium=tile&utm_campaign=store_locator&utm_content=cta_button",
        "updated": "0",
        "onlineShopUrl": "",
        "ecommerceUrl": "",
        "distance": "0.06359916282101204"
    },
    {
        "storeId": "15340",
        "retailerId": "183",
        "storeName": "IGA Local Grocer Edgewater",
        "address": "Shop 1, 1 Wisteria Parade",
        "suburb": "Edgewater",
        "state": "WA",
        "postcode": "6027",
        "phone": "08 9405 3748",
        "fax": "",
        "hours": "",
        "hoursDay": "",
        "regionId": null,
        "latitude": "-31.773640000000000",
        "longitude": "115.789078000000000",
        "tag": "48310",
        "locationNumber": "64205214",
        "saleGroupId": "0",
        "christmasHours": "7:00am - 8:00pm\r\n7:00am - 8:00pm\r\n7:00am - 8:00pm\r\n7:00am - 8:00pm\r\n7:00am - 8:00pm\r\n7:00am - 8:00pm\r\n7:00am - 8:00pm\r\n7:00am - 8:00pm\r\n7:00am - 8:00pm\r\n7:00am - 8:00pm",
        "christmasHoursDay": "18 Apr\r\n19 Apr\r\n20 Apr\r\n21 Apr\r\n22 Apr\r\n23 Apr\r\n24 Apr\r\n25 Apr\r\n26 Apr\r\n27 Apr",
        "updateTimeStamp": "2025-04-11 15:06:24",
        "postcodeId": "13710",
        "storeUrl": "",
        "updated": "0",
        "onlineShopUrl": "",
        "ecommerceUrl": "",
        "distance": "0.07217815434889978"
    },
    {
        "storeId": "15418",
        "retailerId": "183",
        "storeName": "IGA Mullaloo",
        "address": "Koorana Road\nShop 1 Mullaloo Shopping Centre",
        "suburb": "Mullaloo",
        "state": "WA",
        "postcode": "6027",
        "phone": "08 9307 6161",
        "fax": "",
        "hours": "",
        "hoursDay": "Open 24 hours, 7 days a week",
        "regionId": "0",
        "latitude": "-31.780172000000000",
        "longitude": "115.744949000000000",
        "tag": "48311",
        "locationNumber": "64201910",
        "saleGroupId": "0",
        "christmasHours": "OPEN 24 HOURS - OPEN 24 HOURS\r\nOPEN 24 HOURS - OPEN 24 HOURS\r\nOPEN 24 HOURS - OPEN 24 HOURS\r\nOPEN 24 HOURS - OPEN 24 HOURS\r\nOPEN 24 HOURS - OPEN 24 HOURS\r\nOPEN 24 HOURS - OPEN 24 HOURS\r\nOPEN 24 HOURS - OPEN 24 HOURS\r\nOPEN 24 HOURS - OPEN 24 HOURS\r\nOPEN 24 HOURS - OPEN 24 HOURS\r\nOPEN 24 HOURS - OPEN 24 HOURS",
        "christmasHoursDay": "18 Apr\r\n19 Apr\r\n20 Apr\r\n21 Apr\r\n22 Apr\r\n23 Apr\r\n24 Apr\r\n25 Apr\r\n26 Apr\r\n27 Apr",
        "updateTimeStamp": "2025-04-11 15:06:25",
        "postcodeId": "13714",
        "storeUrl": "",
        "updated": "0",
        "onlineShopUrl": "",
        "ecommerceUrl": "",
        "distance": "0.06231070911400383"
    },
    {
        "storeId": "15360",
        "retailerId": "183",
        "storeName": "IGA Heathridge",
        "address": "Caridean Street\nShop 8 Heathridge Shopping Centre",
        "suburb": "Heathridge",
        "state": "WA",
        "postcode": "6027",
        "phone": "08 93077178",
        "fax": "",
        "hours": "7:00AM - 7:30PM\r\n7:00AM - 7:30PM\r\n7:00AM - 7:30PM\r\n7:00AM - 8:00PM\r\n7:00AM - 7:30PM\r\n7:00AM - 7:30PM\r\n7:00AM - 7:30PM",
        "hoursDay": "Monday:\r\nTuesday:\r\nWednesday:\r\nThursday:\r\nFriday:\r\nSaturday:\r\nSunday:",
        "regionId": "0",
        "latitude": "-31.759389000000000",
        "longitude": "115.763186000000000",
        "tag": "48143",
        "locationNumber": "64130664",
        "saleGroupId": "0",
        "christmasHours": "",
        "christmasHoursDay": "Please contact the store for Easter opening hours.",
        "updateTimeStamp": "2025-04-10 13:33:09",
        "postcodeId": "13711",
        "storeUrl": "",
        "updated": "0",
        "onlineShopUrl": "",
        "ecommerceUrl": "",
        "distance": "0.06890081288410173"
    },
    {
        "storeId": "19186",
        "retailerId": "183",
        "storeName": "IGA Lakeside Fresh ",
        "address": "15 Convenant Lane",
        "suburb": "Byford",
        "state": "WA",
        "postcode": "6122",
        "phone": "08 9798 4129",
        "fax": "",
        "hours": "6:00 AM - 9:00 PM\r\n6:00 AM - 9:00 PM\r\n6:00 AM - 9:00 PM\r\n6:00 AM - 9:00 PM\r\n6:00 AM - 9:00 PM\r\n7:00 AM - 9:00 PM\r\n7:00 AM - 9:00 PM",
        "hoursDay": "Monday\r\nTuesday\r\nWednesday\r\nThursday\r\nFriday\r\nSaturday\r\nSunday ",
        "regionId": null,
        "latitude": "-32.225650000000000",
        "longitude": "115.984630000000000",
        "tag": "181627",
        "locationNumber": "64206326",
        "saleGroupId": "0",
        "christmasHours": "7:00am - 9:00pm\r\n7:00am - 9:00pm\r\n7:00am - 9:00pm\r\n7:00am - 9:00pm\r\n6:00am - 9:00pm\r\n6:00am - 9:00pm\r\n6:00am - 9:00pm\r\n7:00am - 9:00pm\r\n7:00am - 9:00pm\r\n7:00am - 9:00pm",
        "christmasHoursDay": "18 Apr\r\n19 Apr\r\n20 Apr\r\n21 Apr\r\n22 Apr\r\n23 Apr\r\n24 Apr\r\n25 Apr\r\n26 Apr\r\n27 Apr",
        "updateTimeStamp": "2025-04-11 15:06:31",
        "postcodeId": "13921",
        "storeUrl": "",
        "updated": "0",
        "onlineShopUrl": "",
        "ecommerceUrl": "",
        "distance": "0.07213381116369771"
    },
    {
        "storeId": "15401",
        "retailerId": "183",
        "storeName": "IGA Medina",
        "address": "14-16 Pace Road\n",
        "suburb": "Medina",
        "state": "WA",
        "postcode": "6167",
        "phone": "08 9415 1345",
        "fax": "",
        "hours": "7AM - 9PM\r\n7AM - 9PM\r\n7AM - 9PM\r\n7AM - 9PM\r\n7AM - 9PM\r\n8AM - 8PM\r\n8AM - 8PM",
        "hoursDay": "Monday\r\nTuesday\r\nWednesday\r\nThursday\r\nFriday\r\nSaturday\r\nSunday ",
        "regionId": "0",
        "latitude": "-32.235829000000000",
        "longitude": "115.806521000000000",
        "tag": "48213",
        "locationNumber": "64198510",
        "saleGroupId": "0",
        "christmasHours": "",
        "christmasHoursDay": "Please contact the store for Easter opening hours.",
        "updateTimeStamp": "2025-04-11 15:06:03",
        "postcodeId": "14014",
        "storeUrl": "",
        "updated": "0",
        "onlineShopUrl": "",
        "ecommerceUrl": "",
        "distance": "0.04179321769139103"
    },
    {
        "storeId": "15280",
        "retailerId": "183",
        "storeName": "IGA Beaumaris (Ocean Reef)",
        "address": "Constellation Drive\n",
        "suburb": "Ocean Reef",
        "state": "WA",
        "postcode": "6027",
        "phone": "08 9300 4848",
        "fax": "",
        "hours": "7:00 AM - 8:00 PM\r\n7:00 AM - 8:00 PM\r\n7:00 AM - 8:00 PM\r\n7:00 AM - 9:00 PM\r\n7:00 AM - 8:00 PM\r\n7:00 AM - 8:00 PM\r\n7:00 AM - 8:00 PM",
        "hoursDay": "Monday\r\nTuesday\r\nWednesday\r\nThursday\r\nFriday\r\nSaturday\r\nSunday",
        "regionId": "0",
        "latitude": "-31.750650000000000",
        "longitude": "115.732979000000000",
        "tag": "48283",
        "locationNumber": "64105651",
        "saleGroupId": "0",
        "christmasHours": "",
        "christmasHoursDay": "Please contact the store for Easter opening hours.",
        "updateTimeStamp": "2025-04-10 13:33:09",
        "postcodeId": "13715",
        "storeUrl": "",
        "updated": "0",
        "onlineShopUrl": "",
        "ecommerceUrl": "",
        "distance": "0.06863201151794984"
    },
    {
        "storeId": "15304",
        "retailerId": "183",
        "storeName": "IGA Candlewood",
        "address": "9/45 Candlewood Boulevard\n",
        "suburb": "Joondalup",
        "state": "WA",
        "postcode": "6027",
        "phone": "08 9300 0441",
        "fax": "",
        "hours": "5:00 AM - 12:00 AM\r\n5:00 AM - 12:00 AM\r\n5:00 AM - 12:00 AM\r\n5:00 AM - 12:00 AM\r\n5:00 AM - 12:00 AM\r\n5:00 AM - 12:00 AM\r\n5:00 AM - 12:00 AM",
        "hoursDay": "Monday\r\nTuesday\r\nWednesday\r\nThursday\r\nFriday\r\nSaturday\r\nSunday",
        "regionId": "0",
        "latitude": "-31.729444700000000",
        "longitude": "115.764420000000000",
        "tag": "49850",
        "locationNumber": "64125121",
        "saleGroupId": "0",
        "christmasHours": "",
        "christmasHoursDay": "Please contact the store for Easter opening hours.",
        "updateTimeStamp": "2025-04-11 15:06:03",
        "postcodeId": "13712",
        "storeUrl": "http://www.candlewoodiga.com.au/?utm_source=igawebsite&utm_medium=tile&utm_campaign=store_locator&utm_content=cta_button",
        "updated": "0",
        "onlineShopUrl": "",
        "ecommerceUrl": "",
        "distance": "0.08167288365602135"
    },
    {
        "storeId": "20410",
        "retailerId": "183",
        "storeName": "Tucker Fresh IGA Iluka",
        "address": "Iluka Plaza, 98 O'Mara Boulevard\r\n",
        "suburb": "Iluka",
        "state": "WA",
        "postcode": "6028",
        "phone": "08 6424 8445",
        "fax": "",
        "hours": "7:00 AM - 9:00 PM\r\n7:00 AM - 9:00 PM\r\n7:00 AM - 9:00 PM\r\n7:00 AM - 9:00 PM\r\n7:00 AM - 9:00 PM\r\n7:00 AM - 9:00 PM\r\n7:00 AM - 9:00 PM",
        "hoursDay": "Monday\r\nTuesday\r\nWednesday\r\nThursday\r\nFriday\r\nSaturday\r\nSunday",
        "regionId": null,
        "latitude": "-31.733180000000000",
        "longitude": "115.723720000000000",
        "tag": "83288",
        "locationNumber": "0",
        "saleGroupId": "0",
        "christmasHours": "7:00am - 9:00pm\r\n7:00am - 9:00pm\r\n7:00am - 9:00pm\r\n7:00am - 9:00pm\r\n7:00am - 9:00pm\r\n7:00am - 9:00pm\r\n7:00am - 9:00pm\r\n7:00am - 9:00pm\r\n7:00am - 9:00pm\r\n7:00am - 9:00pm",
        "christmasHoursDay": "18 Apr\r\n19 Apr\r\n20 Apr\r\n21 Apr\r\n22 Apr\r\n23 Apr\r\n24 Apr\r\n25 Apr\r\n26 Apr\r\n27 Apr",
        "updateTimeStamp": "2025-04-11 15:06:33",
        "postcodeId": "13716",
        "storeUrl": "",
        "updated": "0",
        "onlineShopUrl": "",
        "ecommerceUrl": "",
        "distance": "0.06771513575265134"
    },
    {
        "storeId": "15383",
        "retailerId": "183",
        "storeName": "Tucker Fresh IGA Kinross",
        "address": "Kinross Central Shopping Centre, Cnr Selkirk Ave & Connolly Drive",
        "suburb": "Kinross",
        "state": "WA",
        "postcode": "6028",
        "phone": "08 9304 9748",
        "fax": "",
        "hours": "8:00 AM - 9:00 PM\r\n8:00 AM - 9:00 PM\r\n8:00 AM - 9:00 PM\r\n8:00 AM - 9:00 PM\r\n8:00 AM - 9:00 PM\r\n8:00 AM - 9:00 PM\r\n8:00 AM - 9:00 PM",
        "hoursDay": "Monday\r\nTuesday\r\nWednesday\r\nThursday\r\nFriday\r\nSaturday\r\nSunday",
        "regionId": null,
        "latitude": "-31.718968000000000",
        "longitude": "115.741112000000000",
        "tag": "48123",
        "locationNumber": "64131377",
        "saleGroupId": "0",
        "christmasHours": "7:00am - 9:00pm\r\n7:00am - 9:00pm\r\n7:00am - 9:00pm\r\n7:00am - 9:00pm\r\n7:00am - 9:00pm\r\n7:00am - 9:00pm\r\n7:00am - 9:00pm\r\n7:00am - 9:00pm\r\n7:00am - 9:00pm\r\n7:00am - 9:00pm",
        "christmasHoursDay": "18 Apr\r\n19 Apr\r\n20 Apr\r\n21 Apr\r\n22 Apr\r\n23 Apr\r\n24 Apr\r\n25 Apr\r\n26 Apr\r\n27 Apr",
        "updateTimeStamp": "2025-04-11 15:06:33",
        "postcodeId": "13719",
        "storeUrl": "",
        "updated": "0",
        "onlineShopUrl": "",
        "ecommerceUrl": "",
        "distance": "0.07109346435503056"
    },
    {
        "storeId": "15419",
        "retailerId": "183",
        "storeName": "IGA Mundijong",
        "address": "Patterson Street\r\nLot 20",
        "suburb": "Mundijong",
        "state": "WA",
        "postcode": "6123",
        "phone": "08 9525 5010",
        "fax": "",
        "hours": "7:00AM - 7:00PM\r\n7:00AM - 7:00PM\r\n7:00AM - 7:00PM\r\n7:00AM - 7:00PM\r\n7:00AM - 7:00PM\r\n7:00AM - 7:00PM\r\n7:00AM - 7:00PM",
        "hoursDay": "Monday\r\nTuesday\r\nWednesday\r\nThursday\r\nFriday\r\nSaturday\r\nSunday",
        "regionId": null,
        "latitude": "-32.292023000000000",
        "longitude": "115.987160000000000",
        "tag": "26746",
        "locationNumber": "64109061",
        "saleGroupId": "0",
        "christmasHours": "CLOSED\r\n7:00am - 7:00pm\r\n7:00am - 7:00pm\r\n7:00am - 7:00pm\r\n7:00am - 7:00pm\r\n7:00am - 7:00pm\r\n7:00am - 7:00pm\r\n7:00am - 7:00pm\r\n7:00am - 7:00pm\r\n7:00am - 7:00pm",
        "christmasHoursDay": "18 Apr\r\n19 Apr\r\n20 Apr\r\n21 Apr\r\n22 Apr\r\n23 Apr\r\n24 Apr\r\n25 Apr\r\n26 Apr\r\n27 Apr",
        "updateTimeStamp": "2025-04-11 15:06:31",
        "postcodeId": "13925",
        "storeUrl": "",
        "updated": "0",
        "onlineShopUrl": "",
        "ecommerceUrl": "",
        "distance": "0.06642120165278553"
    },
    {
        "storeId": "15403",
        "retailerId": "183",
        "storeName": "Merriwa IGA",
        "address": "Shop 5/44 Baltimore Parade",
        "suburb": "Merriwa",
        "state": "WA",
        "postcode": "6030",
        "phone": "08 9304 3077",
        "fax": "",
        "hours": "7:00 AM - 9:00 PM\r\n7:00 AM - 9:00 PM\r\n7:00 AM - 9:00 PM\r\n7:00 AM - 9:00 PM\r\n7:00 AM - 9:00 PM\r\n7:00 AM - 9:00 PM\r\n7:00 AM - 9:00 PM",
        "hoursDay": "Monday\r\nTuesday\r\nWednesday\r\nThursday\r\nFriday\r\nSaturday\r\nSunday",
        "regionId": null,
        "latitude": "-31.670285000000000",
        "longitude": "115.715089000000000",
        "tag": "48271",
        "locationNumber": "64121002",
        "saleGroupId": "0",
        "christmasHours": "7:00am - 9:00pm\r\n7:00am - 9:00pm\r\n7:00am - 9:00pm\r\n7:00am - 9:00pm\r\n7:00am - 9:00pm\r\n7:00am - 9:00pm\r\n7:00am - 9:00pm\r\n7:00am - 9:00pm\r\n7:00am - 9:00pm\r\n7:00am - 9:00pm",
        "christmasHoursDay": "18 Apr\r\n19 Apr\r\n20 Apr\r\n21 Apr\r\n22 Apr\r\n23 Apr\r\n24 Apr\r\n25 Apr\r\n26 Apr\r\n27 Apr",
        "updateTimeStamp": "2025-04-11 15:06:25",
        "postcodeId": "13722",
        "storeUrl": "",
        "updated": "0",
        "onlineShopUrl": "",
        "ecommerceUrl": "",
        "distance": "0.08233216458347249"
    },
    {
        "storeId": "15443",
        "retailerId": "183",
        "storeName": "Quinns Rocks Fresh IGA",
        "address": "Quinns Road\nShop 7 Quinns Rock Shopping Centre",
        "suburb": "Quinns Rocks",
        "state": "WA",
        "postcode": "6030",
        "phone": "08 9305 1644",
        "fax": "",
        "hours": "",
        "hoursDay": "Open 24 hours, 7 days a week",
        "regionId": "0",
        "latitude": "-31.672699000000000",
        "longitude": "115.708702000000000",
        "tag": "48147",
        "locationNumber": "64111368",
        "saleGroupId": "0",
        "christmasHours": "",
        "christmasHoursDay": "Please contact the store for Easter opening hours.",
        "updateTimeStamp": "2025-04-11 15:06:03",
        "postcodeId": "13722",
        "storeUrl": "",
        "updated": "0",
        "onlineShopUrl": "",
        "ecommerceUrl": "",
        "distance": "0.062317667518930774"
    },
    {
        "storeId": "15997",
        "retailerId": "183",
        "storeName": "IGA Alkimos Fresh",
        "address": "2 Graceful Boulevard",
        "suburb": "Alkimos",
        "state": "WA",
        "postcode": "6038",
        "phone": "08 9502 9737",
        "fax": "",
        "hours": "7AM - 9PM\r\n7AM - 9PM\r\n7AM - 9PM\r\n7AM - 9PM\r\n7AM - 9PM\r\n7AM - 9PM\r\n7AM - 9PM",
        "hoursDay": "Monday:\r\nTuesday:\r\nWednesday:\r\nThursday:\r\nFriday:\r\nSaturday:\r\nSunday:",
        "regionId": null,
        "latitude": "-31.619673000000000",
        "longitude": "115.685356000000000",
        "tag": "180238",
        "locationNumber": "64203840",
        "saleGroupId": "0",
        "christmasHours": "",
        "christmasHoursDay": "Please contact the store for Easter opening hours.",
        "updateTimeStamp": "2025-04-10 13:33:09",
        "postcodeId": "13737",
        "storeUrl": "",
        "updated": "0",
        "onlineShopUrl": "",
        "ecommerceUrl": "",
        "distance": "0.05869945343016406"
    }
]