{
    "metadata": {
        "number_of_stores": 10,
        "company": "coles",
        "state": "NSW",
        "date_scraped": "2025-08-07"
    },
    "stores": [
        {
            "id": "VIN:3982",
            "name": "Vintage Cellars Bondi",
            "phone": "(02) 9883 0585",
            "isTrading": true,
            "address": {
                "state": "NSW",
                "suburb": "Bondi",
                "addressLine": "1 Glenayr Street",
                "postcode": "2026"
            },
            "position": {
                "latitude": -33.882072,
                "longitude": 151.275626
            },
            "brand": {
                "name": "Vintage Cellars",
                "storeFinderId": 5,
                "id": "VIN"
            }
        },
        {
            "id": "VIN:3530",
            "name": "Vintage Cellars Rushcutters Bay",
            "phone": "(02) 9121 7856",
            "isTrading": true,
            "address": {
                "state": "NSW",
                "suburb": "Rushcutters Bay",
                "addressLine": "123-125 Bayswater Road",
                "postcode": "2011"
            },
            "position": {
                "latitude": -33.876362,
                "longitude": 151.228349
            },
            "brand": {
                "name": "Vintage Cellars",
                "storeFinderId": 5,
                "id": "VIN"
            }
        },
        {
            "id": "VIN:3185",
            "name": "Vintage Cellars Waterloo",
            "phone": "(02) 9121 7882",
            "isTrading": true,
            "address": {
                "state": "NSW",
                "suburb": "Waterloo",
                "addressLine": "782 Bourke Street",
                "postcode": "2017"
            },
            "position": {
                "latitude": -33.897607,
                "longitude": 151.212746
            },
            "brand": {
                "name": "Vintage Cellars",
                "storeFinderId": 5,
                "id": "VIN"
            }
        },
        {
            "id": "VIN:3984",
            "name": "Vintage Cellars Cremorne",
            "phone": "(02) 9883 0586",
            "isTrading": true,
            "address": {
                "state": "NSW",
                "suburb": "Cremorne",
                "addressLine": "388 Military Road",
                "postcode": "2090"
            },
            "position": {
                "latitude": -33.827883,
                "longitude": 151.230383
            },
            "brand": {
                "name": "Vintage Cellars",
                "storeFinderId": 5,
                "id": "VIN"
            }
        },
        {
            "id": "VIN:3461",
            "name": "Vintage Cellars Seaforth",
            "phone": "(02) 9883 0512",
            "isTrading": true,
            "address": {
                "state": "NSW",
                "suburb": "Seaforth",
                "addressLine": "548 Sydney Road",
                "postcode": "2092"
            },
            "position": {
                "latitude": -33.796916,
                "longitude": 151.251548
            },
            "brand": {
                "name": "Vintage Cellars",
                "storeFinderId": 5,
                "id": "VIN"
            }
        },
        {
            "id": "VIN:3986",
            "name": "Vintage Cellars Neutral Bay Junction",
            "phone": "(02) 9121 7871",
            "isTrading": true,
            "address": {
                "state": "NSW",
                "suburb": "Neutral Bay",
                "addressLine": "202 Military Road",
                "postcode": "2089"
            },
            "position": {
                "latitude": -33.831092,
                "longitude": 151.222615
            },
            "brand": {
                "name": "Vintage Cellars",
                "storeFinderId": 5,
                "id": "VIN"
            }
        },
        {
            "id": "VIN:3426",
            "name": "Vintage Cellars Terrigal",
            "phone": "(02) 9121 7805",
            "isTrading": true,
            "address": {
                "state": "NSW",
                "suburb": "Terrigal",
                "addressLine": "66 Terrigal Esplanade",
                "postcode": "2260"
            },
            "position": {
                "latitude": -33.446914,
                "longitude": 151.444535
            },
            "brand": {
                "name": "Vintage Cellars",
                "storeFinderId": 5,
                "id": "VIN"
            }
        },
        {
            "id": "VIN:3983",
            "name": "Vintage Cellars Cooks Hill",
            "phone": "(02) 9121 7828",
            "isTrading": true,
            "address": {
                "state": "NSW",
                "suburb": "Cooks Hill",
                "addressLine": "235 Darby Street",
                "postcode": "2300"
            },
            "position": {
                "latitude": -32.935696,
                "longitude": 151.768259
            },
            "brand": {
                "name": "Vintage Cellars",
                "storeFinderId": 5,
                "id": "VIN"
            }
        },
        {
            "id": "VIN:3570",
            "name": "Vintage Cellars Round Corner",
            "phone": "(02) 9883 0554",
            "isTrading": true,
            "address": {
                "state": "NSW",
                "suburb": "Dural",
                "addressLine": "22 Kenthurst Road",
                "postcode": "2158"
            },
            "position": {
                "latitude": -33.692719,
                "longitude": 151.0191
            },
            "brand": {
                "name": "Vintage Cellars",
                "storeFinderId": 5,
                "id": "VIN"
            }
        },
        {
            "id": "VIN:3404",
            "name": "Vintage Cellars Beecroft",
            "phone": "(02) 9883 0526",
            "isTrading": true,
            "address": {
                "state": "NSW",
                "suburb": "Beecroft",
                "addressLine": "100 Beecroft Road",
                "postcode": "2119"
            },
            "position": {
                "latitude": -33.752763,
                "longitude": 151.065521
            },
            "brand": {
                "name": "Vintage Cellars",
                "storeFinderId": 5,
                "id": "VIN"
            }
        }
    ]
}