{
    "metadata": {
        "number_of_stores": 2,
        "company": "coles",
        "state": "NT",
        "date_scraped": "2025-08-07"
    },
    "stores": [
        {
            "id": "VIN:2478",
            "name": "Vintage Cellars Oasis Palmerston",
            "phone": "(08) 8998 4780",
            "isTrading": true,
            "address": {
                "state": "NT",
                "suburb": "Palmerston",
                "addressLine": "15 Temple Terrace",
                "postcode": "0830"
            },
            "position": {
                "latitude": -12.483354,
                "longitude": 130.985361
            },
            "brand": {
                "name": "Vintage Cellars",
                "storeFinderId": 5,
                "id": "VIN"
            }
        },
        {
            "id": "VIN:2694",
            "name": "Vintage Cellars Darwin",
            "phone": "(08) 8968 3314",
            "isTrading": true,
            "address": {
                "state": "NT",
                "suburb": "Darwin",
                "addressLine": "44 Cavenagh Street",
                "postcode": "0800"
            },
            "position": {
                "latitude": -12.461163,
                "longitude": 130.842248
            },
            "brand": {
                "name": "Vintage Cellars",
                "storeFinderId": 5,
                "id": "VIN"
            }
        }
    ]
}