{
    "metadata": {
        "number_of_stores": 17,
        "company": "iga",
        "state": "ACT",
        "date_scraped": "2025-08-07"
    },
    "stores": [
        {
            "storeId": "14150",
            "retailerStoreId": "33299",
            "storeName": "IGA Local Grocer Swinger Hill",
            "address": "84 Ainsworth Street\r\n",
            "suburb": "Swinger Hill",
            "state": "ACT",
            "postcode": "2606",
            "phone": "",
            "fax": "",
            "hours": "",
            "hoursDay": "",
            "regionId": null,
            "latitude": "-35.347978000000000",
            "longitude": "149.094837000000000",
            "locationNumber": "1896",
            "saleGroupId": "0",
            "christmasHours": "",
            "christmasHoursDay": "Please contact the store for Easter opening hours.",
            "updateTimeStamp": "2025-04-10 13:33:09",
            "postcodeId": "3640",
            "storeUrl": "",
            "updated": "0",
            "onlineShopUrl": "",
            "ecommerceUrl": ""
        },
        {
            "storeId": "14149",
            "retailerStoreId": "53313",
            "storeName": "IGA Local Grocer Farrer",
            "address": "1 Farrer Place\r\n",
            "suburb": "Farrer",
            "state": "ACT",
            "postcode": "2607",
            "phone": "02 6286 6207",
            "fax": "",
            "hours": "8:00 AM - 7:30 PM\r\n8:00 AM - 7:30 PM\r\n8:00 AM - 7:30 PM\r\n8:00 AM - 7:30 PM\r\n8:00 AM - 7:30 PM\r\n8:00 AM - 7:30 PM\r\n8:00 AM - 7:30 PM",
            "hoursDay": "Monday\r\nTuesday\r\nWednesday\r\nThursday\r\nFriday\r\nSaturday\r\nSunday",
            "regionId": null,
            "latitude": "-35.375050000000000",
            "longitude": "149.101404000000000",
            "locationNumber": "61051297",
            "saleGroupId": "0",
            "christmasHours": "7:30am - 6:00pm\r\n7:30am - 6:00pm\r\n7:30am - 6:00pm\r\n7:30am - 6:00pm\r\n7:30am - 7:30pm\r\n7:30am - 7:30pm\r\n7:30am - 7:30pm\r\n7:30am - 6:00pm\r\n7:30am - 7:30pm\r\n7:30am - 7:30pm",
            "christmasHoursDay": "18 Apr\r\n19 Apr\r\n20 Apr\r\n21 Apr\r\n22 Apr\r\n23 Apr\r\n24 Apr\r\n25 Apr\r\n26 Apr\r\n27 Apr",
            "updateTimeStamp": "2025-04-11 15:06:30",
            "postcodeId": "3642",
            "storeUrl": "",
            "updated": "0",
            "onlineShopUrl": "",
            "ecommerceUrl": "",
            "id": "4803bba3-4dc7-471b-a760-7d07dd8317d0",
            "status": "Active",
            "type": "Regular",
            "email": "igafarrer@outlook.com",
            "siteId": "8c744d67-1ce2-4e4b-81d1-e29966f362a7",
            "categoryHierarchyId": "93c41c59-c564-4639-ae57-2cff46842aa0",
            "shoppingModes": [
                "planning",
                "delivery",
                "pickup"
            ]
        },
        {
            "storeId": "16910",
            "retailerStoreId": "22027",
            "storeName": "IGA X-press Waramanga",
            "address": "Shop 1 Waramanga Place",
            "suburb": "Waramanga",
            "state": "ACT",
            "postcode": "2611",
            "phone": "02 6288 1557",
            "fax": "",
            "hours": "7AM - 8PM\r\n7AM - 8PM\r\n7AM - 8PM\r\n7AM - 8PM\r\n7AM - 8PM\r\n7AM - 8PM\r\n7AM - 8.30PM",
            "hoursDay": "Monday:\r\nTuesday:\r\nWednesday:\r\nThursday:\r\nFriday:\r\nSaturday:\r\nSunday:",
            "regionId": null,
            "latitude": "-35.352440000000000",
            "longitude": "149.059491000000000",
            "locationNumber": "61079287",
            "saleGroupId": "0",
            "christmasHours": "",
            "christmasHoursDay": "Please contact the store for Easter opening hours.",
            "updateTimeStamp": "2025-04-10 13:33:09",
            "postcodeId": "3666",
            "storeUrl": "",
            "updated": "0",
            "onlineShopUrl": "",
            "ecommerceUrl": ""
        },
        {
            "storeId": "22229",
            "retailerId": "183",
            "storeName": "BRUCE LOCAL GROCER IGA",
            "address": "SH 5-7, 27 THYNNE STREET",
            "suburb": "BRUCE ",
            "state": "ACT",
            "postcode": "2617",
            "phone": "",
            "fax": "",
            "hours": "7:00 AM - 9:00 PM\r\n7:00 AM - 9:00 PM\r\n7:00 AM - 9:00 PM\r\n7:00 AM - 9:00 PM\r\n7:00 AM - 9:00 PM\r\n7:00 AM - 9:00 PM\r\n8:00 AM - 8:00 PM",
            "hoursDay": "Monday\r\nTuesday\r\nWednesday\r\nThursday\r\nFriday\r\nSaturday\r\nSunday",
            "regionId": null,
            "latitude": "-35.241420000000000",
            "longitude": "149.099510000000000",
            "locationNumber": "0",
            "saleGroupId": "0",
            "christmasHours": "",
            "christmasHoursDay": "Please contact the store for Easter opening hours.",
            "updateTimeStamp": "2025-04-10 13:33:09",
            "postcodeId": "3696",
            "storeUrl": "",
            "updated": "0",
            "onlineShopUrl": "",
            "ecommerceUrl": "",
            "retailerStoreId": ""
        },
        {
            "storeId": "14132",
            "retailerStoreId": "92811",
            "storeName": "IGA Local Grocer Drakeford",
            "address": "9 Jenke Circuit\r\nUnit 10-13",
            "suburb": "Kambah",
            "state": "ACT",
            "postcode": "2902",
            "phone": "02 6162 0649",
            "fax": "",
            "hours": "7:30AM - 8PM\r\n7:30AM - 8PM\r\n7:30AM - 8PM\r\n7:30AM - 8PM\r\n7:30AM - 8PM\r\n7:30AM - 8PM\r\n7:30AM - 8PM",
            "hoursDay": "Monday\r\nTuesday\r\nWednesday\r\nThursday\r\nFriday\r\nSaturday\r\nSunday",
            "regionId": null,
            "latitude": "-35.393077000000000",
            "longitude": "149.068890000000000",
            "locationNumber": "61018728",
            "saleGroupId": "0",
            "christmasHours": "",
            "christmasHoursDay": "Please contact the store for Easter opening hours.",
            "updateTimeStamp": "2025-04-10 13:33:09",
            "postcodeId": "3656",
            "storeUrl": "",
            "updated": "0",
            "onlineShopUrl": "",
            "ecommerceUrl": ""
        },
        {
            "storeId": "22219",
            "retailerStoreId": "",
            "storeName": "IGA Kambah Plus Liquor",
            "address": "2 Castley Circuit",
            "suburb": "Kambah",
            "state": "ACT",
            "postcode": "2902",
            "phone": "(02) 6231 8723",
            "fax": "",
            "hours": "8:00 AM - 8:00 PM\r\n8:00 AM - 8:00 PM\r\n8:00 AM - 8:00 PM\r\n8:00 AM - 8:00 PM\r\n8:00 AM - 8:00 PM\r\n8:00 AM - 8:00 PM\r\n8:00 AM - 8:00 PM",
            "hoursDay": "Monday\r\nTuesday\r\nWednesday\r\nThursday\r\nFriday\r\nSaturday\r\nSunday",
            "regionId": null,
            "latitude": "-35.388580000000000",
            "longitude": "149.051600000000000",
            "locationNumber": "0",
            "saleGroupId": "0",
            "christmasHours": "",
            "christmasHoursDay": "Please contact the store for Easter opening hours.",
            "updateTimeStamp": "2025-05-02 14:02:54",
            "postcodeId": "5152",
            "storeUrl": "",
            "updated": "0",
            "onlineShopUrl": "",
            "ecommerceUrl": ""
        },
        {
            "storeId": "14143",
            "retailerStoreId": "32400",
            "storeName": "IGA Local Grocer Ngunnawal Platypus",
            "address": "4 Riley Street\r\nShop 8",
            "suburb": "Ngunnawal",
            "state": "ACT",
            "postcode": "2913",
            "phone": "02 6262 4511",
            "fax": "",
            "hours": "7:00 AM - 8:00 PM\r\n7:00 AM - 8:00 PM\r\n7:00 AM - 8:00 PM\r\n7:00 AM - 8:00 PM\r\n7:00 AM - 8:00 PM\r\n7:00 AM - 8:00 PM\r\n8:00 AM - 8:00 PM",
            "hoursDay": "Monday\r\nTuesday\r\nWednesday\r\nThursday\r\nFriday\r\nSaturday\r\nSunday",
            "regionId": null,
            "latitude": "-35.174706000000000",
            "longitude": "149.119705000000000",
            "locationNumber": "61185389",
            "saleGroupId": "0",
            "christmasHours": "7:00am - 8:00pm\r\n7:00am - 8:00pm\r\n8:00am - 7:00pm\r\n8:00am - 7:00pm\r\n7:00am - 8:00pm\r\n7:00am - 8:00pm\r\n7:00am - 8:00pm\r\n7:00am - 8:00pm\r\n7:00am - 8:00pm\r\n8:00am - 8:00pm",
            "christmasHoursDay": "18 Apr\r\n19 Apr\r\n20 Apr\r\n21 Apr\r\n22 Apr\r\n23 Apr\r\n24 Apr\r\n25 Apr\r\n26 Apr\r\n27 Apr",
            "updateTimeStamp": "2025-04-11 15:06:31",
            "postcodeId": "5182",
            "storeUrl": "",
            "updated": "0",
            "onlineShopUrl": "",
            "ecommerceUrl": "",
            "id": "25f9b6f3-cacb-4742-9daa-0bac6f53e008",
            "status": "Active",
            "type": "Regular",
            "email": "admin@igangunnawal.com.au",
            "siteId": "8c744d67-1ce2-4e4b-81d1-e29966f362a7",
            "categoryHierarchyId": "0bbb4bd7-0e09-4743-9cc1-2e994960a08c",
            "shoppingModes": [
                "planning",
                "delivery",
                "pickup"
            ]
        },
        {
            "storeId": "14144",
            "retailerStoreId": "19244",
            "storeName": "IGA Nicholls",
            "address": "88 Kelleway Avenue\r\n",
            "suburb": "Nicholls",
            "state": "ACT",
            "postcode": "2913",
            "phone": "02 6241 7122",
            "fax": "",
            "hours": "7:30 AM - 8:00 PM\r\n7:30 AM - 8:00 PM\r\n7:30 AM - 8:00 PM\r\n7:30 AM - 8:00 PM\r\n7:30 AM - 8:00 PM\r\n7:30 AM - 8:00 PM\r\n7:30 AM - 8:00 PM",
            "hoursDay": "Monday\r\nTuesday\r\nWednesday\r\nThursday\r\nFriday\r\nSaturday\r\nSunday",
            "regionId": null,
            "latitude": "-35.183029000000000",
            "longitude": "149.097153000000000",
            "locationNumber": "61181589",
            "saleGroupId": "0",
            "christmasHours": "",
            "christmasHoursDay": "Please contact the store for Easter opening hours.",
            "updateTimeStamp": "2025-04-10 13:33:09",
            "postcodeId": "5179",
            "storeUrl": "",
            "updated": "0",
            "onlineShopUrl": "",
            "ecommerceUrl": "",
            "id": "b5906deb-bee5-4fd2-87fc-23e6271f9527",
            "status": "Active",
            "type": "Regular",
            "email": "ar_nicholls@hotmail.com",
            "siteId": "8c744d67-1ce2-4e4b-81d1-e29966f362a7",
            "categoryHierarchyId": "0bbb4bd7-0e09-4743-9cc1-2e994960a08c",
            "shoppingModes": [
                "planning",
                "delivery",
                "pickup"
            ]
        },
        {
            "storeId": "17719",
            "retailerStoreId": "20876",
            "storeName": "IGA Local Grocer Palmerston",
            "address": "2/16A Kosciuszko Ave",
            "suburb": "Palmerston",
            "state": "ACT",
            "postcode": "2913",
            "phone": "",
            "fax": "",
            "hours": "7:30AM - 8:00PM\r\n7:30AM - 8:00PM\r\n7:30AM - 8:00PM\r\n7:30AM - 8:00PM\r\n7:30AM - 8:00PM\r\n7:30AM - 8:00PM\r\n8:00AM - 8:00PM\r\n",
            "hoursDay": "Monday\r\nTuesday\r\nWednesday\r\nThursday\r\nFriday\r\nSaturday\r\nSunday",
            "regionId": null,
            "latitude": "-35.194442000000000",
            "longitude": "149.125774000000000",
            "locationNumber": "61182739",
            "saleGroupId": "0",
            "christmasHours": "",
            "christmasHoursDay": "Please contact the store for Easter opening hours.",
            "updateTimeStamp": "2025-06-02 11:23:59",
            "postcodeId": "5180",
            "storeUrl": "",
            "updated": "0",
            "onlineShopUrl": "",
            "ecommerceUrl": ""
        },
        {
            "storeId": "22312",
            "retailerStoreId": "",
            "storeName": "IGA Local Grocer Giralang",
            "address": "4 Atalumba Cl",
            "suburb": "Giralang",
            "state": "ACT",
            "postcode": "2617",
            "phone": "",
            "fax": "",
            "hours": "",
            "hoursDay": "Monday\r\nTuesday\r\nWednesday\r\nThursday\r\nFriday\r\nSaturday\r\nSunday",
            "regionId": null,
            "latitude": "-35.213587000000000",
            "longitude": "149.095872000000000",
            "locationNumber": "0",
            "saleGroupId": "0",
            "christmasHours": "",
            "christmasHoursDay": "Please contact the store for Easter opening hours.",
            "updateTimeStamp": "2025-04-10 13:33:09",
            "postcodeId": "3698",
            "storeUrl": "",
            "updated": "0",
            "onlineShopUrl": "",
            "ecommerceUrl": ""
        },
        {
            "storeId": "22468",
            "retailerStoreId": "",
            "storeName": "Giralang IGA",
            "address": "4 Atalumba Cl,",
            "suburb": "Giralang",
            "state": "ACT",
            "postcode": "2617",
            "phone": "",
            "fax": "",
            "hours": "7:00 AM - 9:00 PM\r\n7:00 AM - 9:00 PM\r\n7:00 AM - 9:00 PM\r\n7:00 AM - 9:00 PM\r\n7:00 AM - 9:00 PM\r\n7:00 AM - 9:00 PM\r\n7:00 AM - 9:00 PM",
            "hoursDay": "Monday\r\nTuesday\r\nWednesday\r\nThursday\r\nFriday\r\nSaturday\r\nSunday",
            "regionId": null,
            "latitude": "-35.213587000000000",
            "longitude": "149.095872000000000",
            "locationNumber": "0",
            "saleGroupId": "0",
            "christmasHours": "",
            "christmasHoursDay": "",
            "updateTimeStamp": "2025-08-04 11:49:45",
            "postcodeId": "3698",
            "storeUrl": "",
            "updated": "0",
            "onlineShopUrl": "",
            "ecommerceUrl": ""
        },
        {
            "storeId": "14133",
            "retailerStoreId": "21312",
            "storeName": "IGA Evatt",
            "address": "Heydon Place\r\n",
            "suburb": "Evatt",
            "state": "ACT",
            "postcode": "2617",
            "phone": "02 6259 0386",
            "fax": "",
            "hours": "7:30 AM - 8:00 PM\r\n7:30 AM - 8:00 PM\r\n7:30 AM - 8:00 PM\r\n7:30 AM - 8:00 PM\r\n7:30 AM - 8:00 PM\r\n7:30 AM - 8:00 PM\r\n7:30 AM - 8:00 PM",
            "hoursDay": "Monday\r\nTuesday\r\nWednesday\r\nThursday\r\nFriday\r\nSaturday\r\nSunday",
            "regionId": null,
            "latitude": "-35.209110000000000",
            "longitude": "149.073669000000000",
            "locationNumber": "61080911",
            "saleGroupId": "0",
            "christmasHours": "",
            "christmasHoursDay": "Please contact the store for Easter opening hours.",
            "updateTimeStamp": "2025-04-10 13:33:09",
            "postcodeId": "3697",
            "storeUrl": "",
            "updated": "0",
            "onlineShopUrl": "",
            "ecommerceUrl": "",
            "id": "2be81f03-e583-4cd8-9064-6f96f896b630",
            "status": "Active",
            "type": "Regular",
            "email": "evattiga@hotmail.com",
            "siteId": "8c744d67-1ce2-4e4b-81d1-e29966f362a7",
            "categoryHierarchyId": "0bbb4bd7-0e09-4743-9cc1-2e994960a08c",
            "shoppingModes": [
                "planning",
                "delivery",
                "pickup"
            ]
        },
        {
            "storeId": "14141",
            "retailerStoreId": "32866",
            "storeName": "IGA Local Grocer Melba",
            "address": "1/4-6 Melba Court",
            "suburb": "Melba",
            "state": "ACT",
            "postcode": "2615",
            "phone": "02 6258 1336",
            "fax": "",
            "hours": "7:30 AM - 8:30 PM\r\n7:30 AM - 8:30 PM\r\n7:30 AM - 8:30 PM\r\n7:30 AM - 8:30 PM\r\n7:30 AM - 8:30 PM\r\n7:30 AM - 8:30 PM\r\n8:00 AM - 8:00 PM\r\n",
            "hoursDay": "Monday\r\nTuesday\r\nWednesday\r\nThursday\r\nFriday\r\nSaturday\r\nSunday",
            "regionId": null,
            "latitude": "-35.208088000000000",
            "longitude": "149.048874000000000",
            "locationNumber": "61082434",
            "saleGroupId": "0",
            "christmasHours": "",
            "christmasHoursDay": "Please contact the store for Easter opening hours.",
            "updateTimeStamp": "2025-04-10 13:33:09",
            "postcodeId": "3685",
            "storeUrl": "",
            "updated": "0",
            "onlineShopUrl": "",
            "ecommerceUrl": "https://igashop.com.au/?utm_source=igawebsite&utm_medium=tile&utm_campaign=store_locator&utm_content=cta_button"
        },
        {
            "storeId": "14147",
            "retailerStoreId": "32650",
            "storeName": "IGA Hackett",
            "address": "1 Hackett Place\r\n",
            "suburb": "Hackett",
            "state": "ACT",
            "postcode": "2602",
            "phone": "02 6249 6099",
            "fax": "",
            "hours": "7:30 AM - 8:30 PM\r\n7:30 AM - 8:30 PM\r\n7:30 AM - 8:30 PM\r\n7:30 AM - 8:30 PM\r\n7:30 AM - 8:30 PM\r\n8:00 AM - 8:30 PM\r\n8:00 AM - 8:30 PM",
            "hoursDay": "Monday\r\nTuesday\r\nWednesday\r\nThursday\r\nFriday\r\nSaturday\r\nSunday",
            "regionId": null,
            "latitude": "-35.248356000000000",
            "longitude": "149.163284000000000",
            "locationNumber": "61014596",
            "saleGroupId": "0",
            "christmasHours": "",
            "christmasHoursDay": "Please contact the store for Easter opening hours.",
            "updateTimeStamp": "2025-04-11 15:06:03",
            "postcodeId": "3623",
            "storeUrl": "",
            "updated": "0",
            "onlineShopUrl": "",
            "ecommerceUrl": "",
            "id": "b0adc995-e14f-4960-bfe7-5fb942856093",
            "status": "Active",
            "type": "Regular",
            "email": "igahackett@outlook.com",
            "siteId": "8c744d67-1ce2-4e4b-81d1-e29966f362a7",
            "categoryHierarchyId": "0bbb4bd7-0e09-4743-9cc1-2e994960a08c",
            "shoppingModes": [
                "planning",
                "delivery",
                "pickup"
            ]
        },
        {
            "storeId": "14127",
            "retailerStoreId": "19569",
            "storeName": "IGA Ainslie",
            "address": "9-11 Edgar St\r\n",
            "suburb": "Ainslie",
            "state": "ACT",
            "postcode": "2602",
            "phone": "02 6248 5486",
            "fax": "",
            "hours": "7:30 AM - 8:00 PM\r\n7:30 AM - 8:00 PM\r\n7:30 AM - 8:00 PM\r\n7:30 AM - 8:00 PM\r\n7:30 AM - 8:00 PM\r\n7:30 AM - 8:00 PM\r\n7:30 AM - 8:00 PM",
            "hoursDay": "Monday\r\nTuesday\r\nWednesday\r\nThursday\r\nFriday\r\nSaturday\r\nSunday",
            "regionId": null,
            "latitude": "-35.262062000000000",
            "longitude": "149.145233000000000",
            "locationNumber": "61199346",
            "saleGroupId": "0",
            "christmasHours": "",
            "christmasHoursDay": "Please contact the store for Easter opening hours.",
            "updateTimeStamp": "2025-04-10 13:33:09",
            "postcodeId": "3620",
            "storeUrl": "http://www.ainslieiga.com.au/?utm_source=igawebsite&utm_medium=tile&utm_campaign=store_locator&utm_content=cta_button",
            "updated": "0",
            "onlineShopUrl": "",
            "ecommerceUrl": ""
        },
        {
            "storeId": "14134",
            "retailerStoreId": "32445",
            "storeName": "IGA Gordon",
            "address": "114 Lewis Luxton Avenue\r\n",
            "suburb": "Gordon",
            "state": "ACT",
            "postcode": "2906",
            "phone": "02 6294 0000",
            "fax": "",
            "hours": "7:00 AM - 08:30 PM\r\n7:00 AM - 08:30 PM\r\n7:00 AM - 08:30 PM\r\n7:00 AM - 08:30 PM\r\n7:00 AM - 08:30 PM\r\n7:00 AM - 08:30 PM\r\n7:00 AM - 08:30 PM",
            "hoursDay": "Monday\r\nTuesday\r\nWednesday\r\nThursday\r\nFriday\r\nSaturday\r\nSunday",
            "regionId": null,
            "latitude": "-35.450520000000000",
            "longitude": "149.084076000000000",
            "locationNumber": "61184626",
            "saleGroupId": "0",
            "christmasHours": "7:00am - 8:30pm\r\n7:00am - 8:30pm\r\n7:00am - 8:30pm\r\n7:00am - 8:30pm\r\n7:00am - 8:30pm\r\n7:00am - 8:30pm\r\n7:00am - 8:30pm\r\n7:00am - 8:30pm\r\n7:00am - 8:30pm\r\n7:00am - 8:30pm",
            "christmasHoursDay": "18 Apr\r\n19 Apr\r\n20 Apr\r\n21 Apr\r\n22 Apr\r\n23 Apr\r\n24 Apr\r\n25 Apr\r\n26 Apr\r\n27 Apr",
            "updateTimeStamp": "2025-04-11 15:06:28",
            "postcodeId": "5170",
            "storeUrl": "",
            "updated": "0",
            "onlineShopUrl": "",
            "ecommerceUrl": ""
        },
        {
            "storeId": "14135",
            "retailerStoreId": "20873",
            "storeName": " IGA Local Grocer Holt",
            "address": "Holt Place\r\nShop 1",
            "suburb": "Holt",
            "state": "ACT",
            "postcode": "2615",
            "phone": "(02) 6254 4694",
            "fax": "",
            "hours": "8:00 AM - 8:00 PM\r\n8:00 AM - 8:00 PM\r\n8:00 AM - 8:00 PM\r\n8:00 AM - 8:00 PM\r\n8:00 AM - 8:00 PM\r\n8:00 AM - 8:00 PM\r\n8:00 AM - 8:00 PM",
            "hoursDay": "Monday\r\nTuesday\r\nWednesday\r\nThursday\r\nFriday\r\nSaturday\r\nSunday",
            "regionId": null,
            "latitude": "-35.225052000000000",
            "longitude": "149.011810000000000",
            "locationNumber": "61021941",
            "saleGroupId": "0",
            "christmasHours": "",
            "christmasHoursDay": "Please contact the store for Easter opening hours.",
            "updateTimeStamp": "2025-04-10 13:33:09",
            "postcodeId": "3688",
            "storeUrl": "",
            "updated": "0",
            "onlineShopUrl": "",
            "ecommerceUrl": ""
        }
    ]
}