{
    "metadata": {
        "number_of_stores": 72,
        "company": "iga",
        "state": "SA",
        "date_scraped": "2025-08-07"
    },
    "stores": [
        {
            "storeId": "19587",
            "retailerStoreId": "21183",
            "storeName": "IGA Gladstone",
            "address": "48 Gladstone St",
            "suburb": "Gladstone",
            "state": "SA",
            "postcode": "5473",
            "phone": "08 8662 2199",
            "fax": "",
            "hours": "8:00 AM - 7:00 PM\r\n8:00 AM - 7:00 PM\r\n8:00 AM - 7:00 PM\r\n8:00 AM - 7:00 PM\r\n8:00 AM - 7:00 PM\r\n8:00 AM - 7:00 PM\r\n8:00 AM - 7:00 PM",
            "hoursDay": "Monday\r\nTuesday\r\nWednesday\r\nThursday\r\nFriday\r\nSaturday\r\nSunday",
            "regionId": null,
            "latitude": "0.000000000000000",
            "longitude": "0.000000000000000",
            "locationNumber": "65002029",
            "saleGroupId": "0",
            "christmasHours": "7:30am - 7:00pm.\r\n7:30am - 7:00pm\r\n7:30am - 7:00pm\r\n7:30am - 7:00pm\r\n7:30am - 7:00pm\r\n7:30am - 7:00pm\r\n7:30am - 7:00pmn\r\n7:30am - 7:00pm\r\n7:30am - 7:00pm\r\n7:30am - 7:00pm",
            "christmasHoursDay": "18 Apr\r\n19 Apr\r\n20 Apr\r\n21 Apr\r\n22 Apr\r\n23 Apr\r\n24 Apr\r\n25 Apr\r\n26 Apr\r\n27 Apr",
            "updateTimeStamp": "2025-04-11 15:06:30",
            "postcodeId": null,
            "storeUrl": "",
            "updated": "0",
            "onlineShopUrl": "",
            "ecommerceUrl": ""
        },
        {
            "storeId": "14801",
            "retailerStoreId": "21254",
            "storeName": "IGA Local Grocer Hackham",
            "address": "Glynville Drive\r\n",
            "suburb": "Hackham West",
            "state": "SA",
            "postcode": "5163",
            "phone": "08 8384 5505",
            "fax": "",
            "hours": "7:30 AM - 9:00 PM\r\n7:30 AM - 9:00 PM\r\n7:30 AM - 9:00 PM\r\n7:30 AM - 9:00 PM\r\n7:30 AM - 9:00 PM\r\n7:30 AM - 8:00 PM\r\n7:30 AM - 8:00 PM",
            "hoursDay": "Monday\r\nTuesday\r\nWednesday\r\nThursday\r\nFriday\r\nSaturday\r\nSunday",
            "regionId": null,
            "latitude": "-35.142574000000000",
            "longitude": "138.515976000000000",
            "locationNumber": "65830803",
            "saleGroupId": "0",
            "christmasHours": "8:00am - 8:00pm\r\n7:30am - 8:00pm\r\n7:30am - 8:00pm\r\n7:30am - 8:00pm\r\n7:30am  - 8:30pm\r\n7:30am - 8:30pm\r\n7:30am - 8:30pm\r\n7:30am - 8:00pm\r\n7:30am - 8:00pm\r\n7:30am - 8:00pm",
            "christmasHoursDay": "18 Apr\r\n19 Apr\r\n20 Apr\r\n21 Apr\r\n22 Apr\r\n23 Apr\r\n24 Apr\r\n25 Apr\r\n26 Apr\r\n27 Apr",
            "updateTimeStamp": "2025-04-11 15:06:32",
            "postcodeId": "12167",
            "storeUrl": "",
            "updated": "0",
            "onlineShopUrl": "",
            "ecommerceUrl": ""
        },
        {
            "storeId": "14856",
            "retailerStoreId": "32464",
            "storeName": "IGA Morphett Vale",
            "address": "171 Elizabeth Rd\n",
            "suburb": "Morphett Vale",
            "state": "SA",
            "postcode": "5162",
            "phone": "08 8384 5378",
            "fax": "",
            "hours": "7:30 AM - 10:00 PM\r\n7:30 AM - 10:00 PM\r\n7:30 AM - 10:00 PM\r\n7:30 AM - 10:00 PM\r\n7:30 AM - 10:00 PM\r\n7:30 AM - 10:00 PM\r\n7:30 AM - 10:00 PM",
            "hoursDay": "Monday\r\nTuesday\r\nWednesday\r\nThursday\r\nFriday\r\nSaturday\r\nSunday",
            "regionId": "0",
            "latitude": "-35.134210000000000",
            "longitude": "138.516827000000000",
            "locationNumber": "65840630",
            "saleGroupId": "0",
            "christmasHours": "",
            "christmasHoursDay": "Please contact the store for Easter opening hours.",
            "updateTimeStamp": "2025-04-10 13:33:09",
            "postcodeId": "12167",
            "storeUrl": "",
            "updated": "0",
            "onlineShopUrl": "",
            "ecommerceUrl": "",
            "id": "2cf48d2a-5e34-426b-9fe2-f0c2329207cc",
            "status": "Active",
            "type": "Regular",
            "email": "Morphettvaleiga@outlook.com",
            "siteId": "8c744d67-1ce2-4e4b-81d1-e29966f362a7",
            "categoryHierarchyId": "93c41c59-c564-4639-ae57-2cff46842aa0",
            "shoppingModes": [
                "planning",
                "delivery",
                "pickup"
            ]
        },
        {
            "storeId": "21969",
            "retailerStoreId": "22177",
            "storeName": "IGA Flaxmill Road",
            "address": "9 Midhurst Ave",
            "suburb": "Christie Downs",
            "state": "SA",
            "postcode": "5164",
            "phone": "(08) 8187 7502",
            "fax": "",
            "hours": "7:30 AM - 8:00 PM\r\n7:30 AM - 8:00 PM\r\n7:30 AM - 8:00 PM\r\n7:30 AM - 8:00 PM\r\n7:30 AM - 8:00 PM\r\n7:30 AM - 8:00 PM\r\n7:30 AM - 8:00 PM",
            "hoursDay": "Monday\r\nTuesday\r\nWednesday\r\nThursday\r\nFriday\r\nSaturday\r\nSunday",
            "regionId": null,
            "latitude": "-35.126870000000000",
            "longitude": "138.499300000000000",
            "locationNumber": "0",
            "saleGroupId": "0",
            "christmasHours": "",
            "christmasHoursDay": "Please contact the store for Easter opening hours.",
            "updateTimeStamp": "2025-04-10 13:33:09",
            "postcodeId": "12170",
            "storeUrl": "",
            "updated": "0",
            "onlineShopUrl": "",
            "ecommerceUrl": ""
        },
        {
            "storeId": "14793",
            "retailerStoreId": "508",
            "storeName": "Christies Beach IGA",
            "address": "100 Gulfview Road\r\n",
            "suburb": "Christies Beach",
            "state": "SA",
            "postcode": "5042",
            "phone": "08 8382 1355",
            "fax": "",
            "hours": "8:00 AM - 9:00 PM\r\n8:00 AM - 9:00 PM\r\n8:00 AM - 9:00 PM\r\n8:00 AM - 9:00 PM\r\n8:00 AM - 9:00 PM\r\n8:00 AM - 9:00 PM\r\n8:00 AM - 9:00 PM",
            "hoursDay": "Monday\r\nTuesday\r\nWednesday\r\nThursday\r\nFriday\r\nSaturday\r\nSunday",
            "regionId": null,
            "latitude": "-35.131055000000000",
            "longitude": "138.481946000000000",
            "locationNumber": "65843000",
            "saleGroupId": "0",
            "christmasHours": "7:30am  - 9:00pm\r\n7:30am  - 9:00pm\r\n7:30am  - 9:00pm\r\n7:30am  - 9:00pm\r\n7:30am  - 9:00pm\r\n7:30am  - 9:00pm\r\n7:30am  - 9:00pm\r\n7:30am  - 9:00pm\r\n7:30am  - 9:00pm\r\n7:30am  - 9:00pm",
            "christmasHoursDay": "18 Apr\r\n19 Apr\r\n20 Apr\r\n21 Apr\r\n22 Apr\r\n23 Apr\r\n24 Apr\r\n25 Apr\r\n26 Apr\r\n27 Apr",
            "updateTimeStamp": "2025-04-11 15:06:28",
            "postcodeId": "12152",
            "storeUrl": "",
            "updated": "0",
            "onlineShopUrl": "",
            "ecommerceUrl": ""
        },
        {
            "storeId": "21767",
            "retailerStoreId": "9380",
            "storeName": "IGA Elizabeth Downs",
            "address": "26 Hamblynn Rd",
            "suburb": "Elizabeth Downs",
            "state": "SA",
            "postcode": "5113",
            "phone": "08 70926866",
            "fax": "",
            "hours": "7:00 AM - 8:00 PM\r\n7:00 AM - 8:00 PM\r\n7:00 AM - 8:00 PM\r\n7:00 AM - 8:00 PM\r\n7:00 AM - 8:00 PM\r\n8:00 AM - 8:00 PM\r\n8:00 AM - 8:00 PM",
            "hoursDay": "Monday\r\nTuesday\r\nWednesday\r\nThursday\r\nFriday\r\nSaturday\r\nSunday",
            "regionId": null,
            "latitude": "-34.699600000000000",
            "longitude": "138.691280000000000",
            "locationNumber": "0",
            "saleGroupId": "0",
            "christmasHours": "",
            "christmasHoursDay": "Please contact the store for Easter opening hours.",
            "updateTimeStamp": "2025-04-10 13:33:09",
            "postcodeId": "12049",
            "storeUrl": "",
            "updated": "0",
            "onlineShopUrl": "",
            "ecommerceUrl": "",
            "id": "5717f44b-459c-444f-b5c1-034f5035ae5a",
            "status": "Active",
            "type": "Regular",
            "email": "IGAELIZABETHDOWNS@GMAIL.COM",
            "siteId": "8c744d67-1ce2-4e4b-81d1-e29966f362a7",
            "categoryHierarchyId": "93c41c59-c564-4639-ae57-2cff46842aa0",
            "shoppingModes": [
                "planning",
                "delivery",
                "pickup"
            ]
        },
        {
            "storeId": "14798",
            "retailerStoreId": "13859",
            "storeName": "IGA Local Grocer Elizabeth Vale",
            "address": "44 John Rice Ave\r\n",
            "suburb": "Elizabeth Vale",
            "state": "SA",
            "postcode": "5112",
            "phone": "08 8482 5450",
            "fax": "",
            "hours": "8:00 AM - 7:30 PM\r\n8:00 AM - 7:30 PM\r\n8:00 AM - 7:30 PM\r\n8:00 AM - 7:30 PM\r\n8:00 AM - 7:30 PM\r\n8:00 AM - 7:30 PM\r\n8:00 AM - 7:30 PM",
            "hoursDay": "Monday\r\nTuesday\r\nWednesday\r\nThursday\r\nFriday\r\nSaturday\r\nSunday",
            "regionId": null,
            "latitude": "-34.748211000000000",
            "longitude": "138.668625000000000",
            "locationNumber": "65081651",
            "saleGroupId": "0",
            "christmasHours": "9:00am - 6:00pm\r\n8:00am - 7:30pm\r\n9:00am - 6:00pm\r\n9:00am - 6:00pm\r\n7:00am - 7:30pm\r\n7:00am - 7:30pm\r\n7:00am - 7:30pm\r\n9:00am - 6:00pm\r\n8:00am - 7:30pm\r\n8:00am - 7:30pm",
            "christmasHoursDay": "18 Apr\r\n19 Apr\r\n20 Apr\r\n21 Apr\r\n22 Apr\r\n23 Apr\r\n24 Apr\r\n25 Apr\r\n26 Apr\r\n27 Apr",
            "updateTimeStamp": "2025-04-11 15:06:25",
            "postcodeId": "12044",
            "storeUrl": "",
            "updated": "0",
            "onlineShopUrl": "",
            "ecommerceUrl": ""
        },
        {
            "storeId": "21756",
            "retailerStoreId": "14289",
            "storeName": "IGA Para Hills",
            "address": "521 Bridge Road",
            "suburb": "Para Hills",
            "state": "SA",
            "postcode": "5096",
            "phone": "08 82504762",
            "fax": "",
            "hours": "7:30 AM - 10:00 PM\r\n7:30 AM - 10:00 PM\r\n7:30 AM - 10:00 PM\r\n7:30 AM - 10:00 PM\r\n7:30 AM - 10:00 PM\r\n7:30 AM - 10:00 PM\r\n7:30 AM - 10:00 PM",
            "hoursDay": "Monday\r\nTuesday\r\nWednesday\r\nThursday\r\nFriday\r\nSaturday\r\nSunday",
            "regionId": null,
            "latitude": "-34.798939000000000",
            "longitude": "138.656647000000000",
            "locationNumber": "0",
            "saleGroupId": "0",
            "christmasHours": "",
            "christmasHoursDay": "Please contact the store for Easter opening hours.",
            "updateTimeStamp": "2025-04-10 13:33:09",
            "postcodeId": "12008",
            "storeUrl": "",
            "updated": "0",
            "onlineShopUrl": "",
            "ecommerceUrl": "",
            "id": "d01b244d-27c8-4d6e-aa6f-380c6e0ef40f",
            "status": "Active",
            "type": "Regular",
            "email": "igaparahills@gmail.com",
            "siteId": "8c744d67-1ce2-4e4b-81d1-e29966f362a7",
            "categoryHierarchyId": "93c41c59-c564-4639-ae57-2cff46842aa0",
            "shoppingModes": [
                "planning",
                "delivery",
                "pickup"
            ]
        },
        {
            "storeId": "21684",
            "retailerStoreId": "83038",
            "storeName": "IGA Local Grocer Franklin Street",
            "address": "Unit T2, 186 Franklin Street",
            "suburb": "Franklin Street",
            "state": "SA",
            "postcode": "5000",
            "phone": "0402669379",
            "fax": "",
            "hours": "7:00 AM - 10:00 PM\r\n7:00 AM - 10:00 PM\r\n7:00 AM - 10:00 PM\r\n7:00 AM - 10:00 PM\r\n7:00 AM - 10:00 PM\r\n9:00 AM - 10:00 PM\r\n9:00 AM - 10:00 PM",
            "hoursDay": "Monday\r\nTuesday\r\nWednesday\r\nThursday\r\nFriday\r\nSaturday\r\nSunday\r\n",
            "regionId": null,
            "latitude": "-34.926780000000000",
            "longitude": "138.599020000000000",
            "locationNumber": "0",
            "saleGroupId": "0",
            "christmasHours": "9:00am - 10:00pm\r\n9:00am - 10:00pm\r\n9:00am - 10:00pm\r\n9:00am - 10:00pm\r\n7:00am - 10:00pm\r\n7:00am - 10:00pm\r\n7:00am - 10:00pm\r\n9:00am - 10:00pm\r\n9:00am - 10:00pm\r\n9:00am - 10:00pm",
            "christmasHoursDay": "18 Apr\r\n19 Apr\r\n20 Apr\r\n21 Apr\r\n22 Apr\r\n23 Apr\r\n24 Apr\r\n25 Apr\r\n26 Apr\r\n27 Apr",
            "updateTimeStamp": "2025-04-11 15:06:26",
            "postcodeId": "11707",
            "storeUrl": "",
            "updated": "0",
            "onlineShopUrl": "",
            "ecommerceUrl": ""
        },
        {
            "storeId": "14783",
            "retailerStoreId": "11195",
            "storeName": "IGA Local Grocer Gilbert Street",
            "address": "33 Gilbert Street\r\n",
            "suburb": "Adelaide",
            "state": "SA",
            "postcode": "5000",
            "phone": "08 8211 8585",
            "fax": "",
            "hours": "7:00 AM - 9:30 PM\r\n7:00 AM - 9:30 PM\r\n7:00 AM - 9:30 PM\r\n7:00 AM - 9:30 PM\r\n7:00 AM - 9:30 PM\r\n7:00 AM - 9:30 PM\r\n7:00 AM - 9:30 PM",
            "hoursDay": "Monday\r\nTuesday\r\nWednesday\r\nThursday\r\nFriday\r\nSaturday\r\nSunday",
            "regionId": null,
            "latitude": "-34.934456000000000",
            "longitude": "138.599747000000000",
            "locationNumber": "65841890",
            "saleGroupId": "0",
            "christmasHours": "",
            "christmasHoursDay": "Please contact the store for Easter opening hours.",
            "updateTimeStamp": "2025-04-10 13:33:09",
            "postcodeId": "11714",
            "storeUrl": "",
            "updated": "0",
            "onlineShopUrl": "",
            "ecommerceUrl": ""
        },
        {
            "storeId": "14782",
            "retailerStoreId": "337",
            "storeName": "IGA Local Grocer Adelaide City East",
            "address": "116 Hutt Street\r\n",
            "suburb": "Adelaide",
            "state": "SA",
            "postcode": "5000",
            "phone": "08 8223 1112",
            "fax": "",
            "hours": "8:00 AM - 07:30 PM\r\n8:00 AM - 07:30 PM\r\n8:00 AM - 07:30 PM\r\n8:00 AM - 07:30 PM\r\n8:00 AM - 07:30 PM\r\n7:00 AM - 10:00 PM\r\n7:00 AM - 10:00 PM",
            "hoursDay": "Monday\r\nTuesday\r\nWednesday\r\nThursday\r\nFriday\r\nSaturday\r\nSunday",
            "regionId": null,
            "latitude": "-34.929246000000000",
            "longitude": "138.612327000000000",
            "locationNumber": "65081921",
            "saleGroupId": "0",
            "christmasHours": "8:00am - 9:00pm\r\n8:00am - 9:00pm\r\n8:00am - 9:00pm\r\n8:00am - 9:00pm\r\n7:00am - 9:00pm\r\n7:00am - 9:00pm\r\n7:00am - 9:00pm\r\n8:00am - 9:00pm\r\n8:00am - 9:00pm\r\n8:00am - 9:00pm",
            "christmasHoursDay": "18 Apr\r\n19 Apr\r\n20 Apr\r\n21 Apr\r\n22 Apr\r\n23 Apr\r\n24 Apr\r\n25 Apr\r\n26 Apr\r\n27 Apr",
            "updateTimeStamp": "2025-04-11 15:06:32",
            "postcodeId": "11711",
            "storeUrl": "",
            "updated": "0",
            "onlineShopUrl": "",
            "ecommerceUrl": "",
            "id": "d9401263-4ba8-4c29-b2b6-64abba58ceb3",
            "status": "Active",
            "type": "Regular",
            "email": "theo@cityeastiga.com.au",
            "siteId": "8c744d67-1ce2-4e4b-81d1-e29966f362a7",
            "categoryHierarchyId": "93c41c59-c564-4639-ae57-2cff46842aa0",
            "shoppingModes": [
                "planning"
            ]
        },
        {
            "storeId": "14785",
            "retailerStoreId": "7385",
            "storeName": "IGA Local Grocer Adelaide (Hutt St)",
            "address": "232 Hutt Street\r\n",
            "suburb": "Adelaide",
            "state": "SA",
            "postcode": "5000",
            "phone": "08 8223 3114",
            "fax": "",
            "hours": "7:00 AM - 10:00 PM\r\n7:00 AM - 10:00 PM\r\n7:00 AM - 10:00 PM\r\n7:00 AM - 10:00 PM\r\n7:00 AM - 10:00 PM\r\n7:00 AM - 10:00 PM\r\n7:00 AM - 10:00 PM",
            "hoursDay": "Monday\r\nTuesday\r\nWednesday\r\nThursday\r\nFriday\r\nSaturday\r\nSunday",
            "regionId": null,
            "latitude": "-34.933299000000000",
            "longitude": "138.612509000000000",
            "locationNumber": "65830489",
            "saleGroupId": "0",
            "christmasHours": "",
            "christmasHoursDay": "Please contact the store for Easter opening hours.",
            "updateTimeStamp": "2025-04-11 15:06:03",
            "postcodeId": "11711",
            "storeUrl": "",
            "updated": "0",
            "onlineShopUrl": "",
            "ecommerceUrl": ""
        },
        {
            "storeId": "16685",
            "retailerStoreId": "629",
            "storeName": "IGA Local Grocer Goodwood",
            "address": "119 Goodwood Road",
            "suburb": "Goodwood",
            "state": "SA",
            "postcode": "5063",
            "phone": "08 8272 0144",
            "fax": "",
            "hours": "7:30AM - 8:30PM\r\n7:30AM - 8:30PM\r\n7:30AM - 8:30PM\r\n7:30AM - 8:30PM\r\n7:30AM - 8:30PM\r\n7:30AM - 8:30PM\r\n8:00AM - 8:00PM",
            "hoursDay": "Monday\r\nTuesday\r\nWednesday\r\nThursday\r\nFriday\r\nSaturday\r\nSunday",
            "regionId": null,
            "latitude": "-34.951704000000000",
            "longitude": "138.589988000000000",
            "locationNumber": "65838980",
            "saleGroupId": "0",
            "christmasHours": "",
            "christmasHoursDay": "Please contact the store for Easter opening hours.",
            "updateTimeStamp": "2025-04-11 15:06:03",
            "postcodeId": "11803",
            "storeUrl": "",
            "updated": "0",
            "onlineShopUrl": "",
            "ecommerceUrl": ""
        },
        {
            "storeId": "15999",
            "retailerStoreId": "94962",
            "storeName": "IGA Local Grocer Bowden",
            "address": "1 Third Street",
            "suburb": "Bowden",
            "state": "SA",
            "postcode": "5007",
            "phone": "(08) 7325 0389",
            "fax": "",
            "hours": "6:30AM - 9:30PM\r\n6:30AM - 9:30PM\r\n6:30AM - 9:30PM\r\n6:30AM - 9:30PM\r\n6:30AM - 9:30PM\r\n6:30AM - 9:30PM\r\n6:30AM - 9:30PM",
            "hoursDay": "Monday:\r\nTuesday:\r\nWednesday:\r\nThursday:\r\nFriday:\r\nSaturday:\r\nSunday:",
            "regionId": null,
            "latitude": "-34.900082000000000",
            "longitude": "138.576219000000000",
            "locationNumber": "65839350",
            "saleGroupId": "0",
            "christmasHours": "",
            "christmasHoursDay": "Please contact the store for Easter opening hours.",
            "updateTimeStamp": "2025-04-10 13:33:09",
            "postcodeId": "11718",
            "storeUrl": "",
            "updated": "0",
            "onlineShopUrl": "",
            "ecommerceUrl": "",
            "id": "8682a133-f8ab-41fc-9785-3514fdfb4933",
            "status": "Active",
            "type": "Regular",
            "email": "management@igabowden.com.au",
            "siteId": "8c744d67-1ce2-4e4b-81d1-e29966f362a7",
            "categoryHierarchyId": "93c41c59-c564-4639-ae57-2cff46842aa0",
            "shoppingModes": [
                "planning",
                "delivery",
                "pickup"
            ]
        },
        {
            "storeId": "14814",
            "retailerStoreId": "39305",
            "storeName": "Leabrook IGA Fresh",
            "address": "457 Glynburn Road\r\n",
            "suburb": "Leabrook",
            "state": "SA",
            "postcode": "5068",
            "phone": "08 8364 5722",
            "fax": "",
            "hours": "7:30 AM - 8:00 PM\r\n7:30 AM - 8:00 PM\r\n7:30 AM - 8:00 PM\r\n7:30 AM - 8:00 PM\r\n7:30 AM - 8:00 PM\r\n7:30 AM - 8:00 PM\r\n7:30 AM - 8:00 PM",
            "hoursDay": "Monday\r\nTuesday\r\nWednesday\r\nThursday\r\nFriday\r\nSaturday\r\nSunday",
            "regionId": null,
            "latitude": "-34.932711000000000",
            "longitude": "138.659703000000000",
            "locationNumber": "65082158",
            "saleGroupId": "0",
            "christmasHours": "7:30am - 8:00pm\r\n7:30am - 8:00pm\r\n7:30am - 8:00pm\r\n7:30am - 8:00pm\r\n7:30am - 8:00pm\r\n7:30am - 8:00pm\r\n7:30am - 8:00pm\r\n7:30am - 8:00pm\r\n7:30am - 8:00pm\r\n7:30am - 8:00pm",
            "christmasHoursDay": "18 Apr\r\n19 Apr\r\n20 Apr\r\n21 Apr\r\n22 Apr\r\n23 Apr\r\n24 Apr\r\n25 Apr\r\n26 Apr\r\n27 Apr",
            "updateTimeStamp": "2025-04-15 17:11:30",
            "postcodeId": "11909",
            "storeUrl": "",
            "updated": "0",
            "onlineShopUrl": "",
            "ecommerceUrl": ""
        },
        {
            "storeId": "17652",
            "retailerStoreId": "187860",
            "storeName": "Blair Athol IGA",
            "address": "371 Prospect Road",
            "suburb": "Blair Athol",
            "state": "SA",
            "postcode": "5084",
            "phone": "",
            "fax": "",
            "hours": "8AM - 9PM\r\n8AM - 9PM\r\n8AM - 9PM\r\n8AM - 9PM\r\n8AM - 9PM\r\n8AM - 9PM\r\n8AM - 9PM",
            "hoursDay": "Monday\r\nTuesday\r\nWednesday\r\nThursday\r\nFriday\r\nSaturday\r\nSunday",
            "regionId": "0",
            "latitude": "-34.861212000000000",
            "longitude": "138.593020000000000",
            "locationNumber": "65840400",
            "saleGroupId": "0",
            "christmasHours": "",
            "christmasHoursDay": "Please contact the store for Easter opening hours.",
            "updateTimeStamp": "2025-04-10 13:33:09",
            "postcodeId": "11974",
            "storeUrl": "",
            "updated": "0",
            "onlineShopUrl": "",
            "ecommerceUrl": ""
        },
        {
            "storeId": "14802",
            "retailerStoreId": "53550",
            "storeName": "IGA Clearview",
            "address": "248-252 Hampstead Road\n",
            "suburb": "Clearview",
            "state": "SA",
            "postcode": "5085",
            "phone": "08 8359 0880",
            "fax": "",
            "hours": "7:30 AM - 9:00 PM\r\n7:30 AM - 9:00 PM\r\n7:30 AM - 9:00 PM\r\n7:30 AM - 9:00 PM\r\n7:30 AM - 9:00 PM\r\n7:30 AM - 9:00 PM\r\n7:30 AM - 9:00 PM",
            "hoursDay": "Monday\r\nTuesday\r\nWednesday\r\nThursday\r\nFriday\r\nSaturday\r\nSunday",
            "regionId": "0",
            "latitude": "-34.859014000000000",
            "longitude": "138.618085000000000",
            "locationNumber": "65838240",
            "saleGroupId": "0",
            "christmasHours": "",
            "christmasHoursDay": "Please contact the store for Easter opening hours.",
            "updateTimeStamp": "2025-04-11 15:06:03",
            "postcodeId": "11979",
            "storeUrl": "",
            "updated": "0",
            "onlineShopUrl": "",
            "ecommerceUrl": ""
        },
        {
            "storeId": "14843",
            "retailerStoreId": "21024",
            "storeName": "IGA Local Grocer South Plympton",
            "address": "533 Marion Road\r\nShop 2",
            "suburb": "South Plympton",
            "state": "SA",
            "postcode": "5038",
            "phone": "08 8293 6118",
            "fax": "",
            "hours": "7:00 AM - 7:00 PM\r\n7:00 AM - 7:00 PM\r\n7:00 AM - 7:00 PM\r\n7:00 AM - 7:00 PM\r\n7:00 AM - 7:00 PM\r\n7:00 AM - 7:00 PM\r\n7:00 AM - 7:00 PM",
            "hoursDay": "Monday\r\nTuesday\r\nWednesday\r\nThursday\r\nFriday\r\nSaturday\r\nSunday",
            "regionId": null,
            "latitude": "-34.976582000000000",
            "longitude": "138.556229000000000",
            "locationNumber": "65837560",
            "saleGroupId": "0",
            "christmasHours": "",
            "christmasHoursDay": "Please contact the store for Easter opening hours.",
            "updateTimeStamp": "2025-04-10 13:33:09",
            "postcodeId": "11819",
            "storeUrl": "",
            "updated": "0",
            "onlineShopUrl": "",
            "ecommerceUrl": "",
            "id": "57945a7c-ec67-4307-89a5-ebc8249b4ada",
            "status": "Active",
            "type": "Regular",
            "email": "southplymptoniga@gmail.com",
            "siteId": "8c744d67-1ce2-4e4b-81d1-e29966f362a7",
            "categoryHierarchyId": "93c41c59-c564-4639-ae57-2cff46842aa0",
            "shoppingModes": [
                "planning"
            ]
        },
        {
            "storeId": "14850",
            "retailerStoreId": "14711",
            "storeName": "IGA Local Grocer Wattle Park",
            "address": "470 Kensington Road\r\nShop 10",
            "suburb": "Wattle Park",
            "state": "SA",
            "postcode": "5066",
            "phone": "08 8364 3848",
            "fax": "",
            "hours": "7:30 AM - 8:00 PM\r\n7:30 AM - 8:00 PM\r\n7:30 AM - 8:00 PM\r\n7:30 AM - 8:00 PM\r\n7:30 AM - 8:00 PM\r\n7:30 AM - 8:00 PM\r\n7:30 AM - 8:00 PM",
            "hoursDay": "Monday\r\nTuesday\r\nWednesday\r\nThursday\r\nFriday\r\nSaturday\r\nSunday",
            "regionId": null,
            "latitude": "-34.924487000000000",
            "longitude": "138.675882000000000",
            "locationNumber": "65836990",
            "saleGroupId": "0",
            "christmasHours": "",
            "christmasHoursDay": "Please contact the store for Easter opening hours.",
            "updateTimeStamp": "2025-04-11 15:06:03",
            "postcodeId": "11912",
            "storeUrl": "",
            "updated": "0",
            "onlineShopUrl": "",
            "ecommerceUrl": "",
            "id": "5384520a-02d3-426f-bf6a-4e1f6b6493d4",
            "status": "Active",
            "type": "Regular",
            "email": "wattleparkiga@bigpond.com",
            "siteId": "8c744d67-1ce2-4e4b-81d1-e29966f362a7",
            "categoryHierarchyId": "93c41c59-c564-4639-ae57-2cff46842aa0",
            "shoppingModes": [
                "planning",
                "delivery",
                "pickup"
            ]
        },
        {
            "storeId": "16686",
            "retailerStoreId": "19096",
            "storeName": "IGA Local Grocer Woodville",
            "address": "868 Port Road",
            "suburb": "Woodville",
            "state": "SA",
            "postcode": "5011",
            "phone": "08 8345 4180",
            "fax": "",
            "hours": "8AM - 9PM\r\n8AM - 9PM\r\n8AM - 9PM\r\n8AM - 9PM\r\n8AM - 9PM\r\n8AM - 9PM\r\n8AM - 9PM",
            "hoursDay": "Monday\r\nTuesday\r\nWednesday\r\nThursday\r\nFriday\r\nSaturday\r\nSunday",
            "regionId": null,
            "latitude": "-34.880172000000000",
            "longitude": "138.534708000000000",
            "locationNumber": "65840710",
            "saleGroupId": "0",
            "christmasHours": "",
            "christmasHoursDay": "Please contact the store for Easter opening hours.",
            "updateTimeStamp": "2025-04-11 15:06:03",
            "postcodeId": "11737",
            "storeUrl": "",
            "updated": "0",
            "onlineShopUrl": "",
            "ecommerceUrl": "",
            "id": "d40d6c69-00a2-493c-9807-71ebd71275e6",
            "status": "Active",
            "type": "Regular",
            "email": "marwan@bigpond.net.au",
            "siteId": "8c744d67-1ce2-4e4b-81d1-e29966f362a7",
            "categoryHierarchyId": "93c41c59-c564-4639-ae57-2cff46842aa0",
            "shoppingModes": [
                "planning",
                "delivery",
                "pickup"
            ]
        },
        {
            "storeId": "14787",
            "retailerStoreId": "11640",
            "storeName": "IGA Alberton",
            "address": "33A Fussell Place\n",
            "suburb": "Alberton",
            "state": "SA",
            "postcode": "5014",
            "phone": "08 8341 2575",
            "fax": "",
            "hours": "8AM - 8PM\r\n8AM - 8PM\r\n8AM - 8PM\r\n8AM - 8PM\r\n8AM - 8PM\r\n8AM - 8PM\r\n8AM - 8PM",
            "hoursDay": "Monday\r\nTuesday\r\nWednesday\r\nThursday\r\nFriday\r\nSaturday\r\nSunday ",
            "regionId": "0",
            "latitude": "-34.859035000000000",
            "longitude": "138.519577000000000",
            "locationNumber": "65077139",
            "saleGroupId": "0",
            "christmasHours": "",
            "christmasHoursDay": "Please contact the store for Easter opening hours.",
            "updateTimeStamp": "2025-04-10 13:33:09",
            "postcodeId": "11752",
            "storeUrl": "",
            "updated": "0",
            "onlineShopUrl": "",
            "ecommerceUrl": ""
        },
        {
            "storeId": "14852",
            "retailerStoreId": "53557",
            "storeName": "Westwood IGA",
            "address": "7 The Avenues\r\n",
            "suburb": "Athol Park",
            "state": "SA",
            "postcode": "5012",
            "phone": "08 8244 8509",
            "fax": "",
            "hours": "6:00 AM - 10:00 PM\r\n6:00 AM - 10:00 PM\r\n6:00 AM - 10:00 PM\r\n6:00 AM - 10:00 PM\r\n6:00 AM - 10:00 PM\r\n6:00 AM - 10:00 PM\r\n7:00 AM - 7:00 PM",
            "hoursDay": "Monday\r\nTuesday\r\nWednesday\r\nThursday\r\nFriday\r\nSaturday\r\nSunday",
            "regionId": null,
            "latitude": "-34.857638000000000",
            "longitude": "138.541699000000000",
            "locationNumber": "65839030",
            "saleGroupId": "0",
            "christmasHours": "",
            "christmasHoursDay": "Please contact the store for Easter opening hours.",
            "updateTimeStamp": "2025-04-10 13:33:09",
            "postcodeId": "11741",
            "storeUrl": "",
            "updated": "0",
            "onlineShopUrl": "",
            "ecommerceUrl": ""
        },
        {
            "storeId": "19252",
            "retailerStoreId": "16184",
            "storeName": "IGA Local Grocer Semaphore",
            "address": "51 Semaphore Road",
            "suburb": "Semaphore",
            "state": "SA",
            "postcode": "5019",
            "phone": "08 8449 5850",
            "fax": "",
            "hours": "7:00 AM - 10:00 PM\r\n7:00 AM - 10:00 PM\r\n7:00 AM - 10:00 PM\r\n7:00 AM - 10:00 PM\r\n7:00 AM - 10:00 PM\r\n7:00 AM - 10:00 PM\r\n7:00 AM - 10:00 PM\r\n",
            "hoursDay": "Monday\r\nTuesday\r\nWednesday\r\nThursday\r\nFriday\r\nSaturday\r\nSunday\r\n",
            "regionId": null,
            "latitude": "-34.838671000000000",
            "longitude": "138.483888000000000",
            "locationNumber": "65841760",
            "saleGroupId": "0",
            "christmasHours": "",
            "christmasHoursDay": "Please contact the store for Easter opening hours.",
            "updateTimeStamp": "2025-04-11 15:06:03",
            "postcodeId": "11771",
            "storeUrl": "",
            "updated": "0",
            "onlineShopUrl": "",
            "ecommerceUrl": ""
        },
        {
            "storeId": "14855",
            "retailerStoreId": "13990",
            "storeName": "IGA Henley Beach South",
            "address": "16 Henley Beach Rd\r\n",
            "suburb": "Henley Beach South",
            "state": "SA",
            "postcode": "5022",
            "phone": "08 8353 0340",
            "fax": "",
            "hours": "8AM - 10PM\r\n8AM - 10PM\r\n8AM - 10PM\r\n8AM - 10PM\r\n8AM - 10PM\r\n8AM - 10PM",
            "hoursDay": "Monday\r\nTuesday\r\nWednesday\r\nThursday\r\nFriday\r\nSaturday",
            "regionId": null,
            "latitude": "-34.925419000000000",
            "longitude": "138.497833000000000",
            "locationNumber": "65083150",
            "saleGroupId": "0",
            "christmasHours": "8:00am - 9:00pm \r\n8:00am - 9:00pm \r\n8:00am - 9:00pm \r\n8:00am - 9:00pm \r\n8:00am - 9:00pm \r\n8:00am - 9:00pm \r\n8:00am - 9:00pm \r\n8:00am - 9:00pm \r\n8:00am - 9:00pm \r\n8:00am - 9:00pm ",
            "christmasHoursDay": "18 Apr\r\n19 Apr\r\n20 Apr\r\n21 Apr\r\n22 Apr\r\n23 Apr\r\n24 Apr\r\n25 Apr\r\n26 Apr\r\n27 Apr",
            "updateTimeStamp": "2025-04-11 15:06:24",
            "postcodeId": "11778",
            "storeUrl": "https://santosretail.myfoodlink.com/?utm_source=igawebsite&utm_medium=tile&utm_campaign=store_locator&utm_content=cta_button",
            "updated": "0",
            "onlineShopUrl": "https://santosretail.myfoodlink.com/?utm_source=igawebsite&utm_medium=tile&utm_campaign=store_locator&utm_content=cta_button",
            "ecommerceUrl": ""
        },
        {
            "storeId": "14830",
            "retailerStoreId": "43172",
            "storeName": "Para Vista IGA Fresh",
            "address": "296-306 Nelson Road\r\n",
            "suburb": "Para Vista",
            "state": "SA",
            "postcode": "5093",
            "phone": "(08) 8263 7188",
            "fax": "",
            "hours": "7:30 AM - 9:00 PM\r\n7:30 AM - 9:00 PM\r\n7:30 AM - 9:00 PM\r\n7:30 AM - 9:00 PM\r\n7:30 AM - 9:00 PM\r\n7:30 AM - 9:00 PM\r\n7:30 AM - 9:00 PM",
            "hoursDay": "Monday\r\nTuesday\r\nWednesday\r\nThursday\r\nFriday\r\nSaturday\r\nSunday",
            "regionId": null,
            "latitude": "-34.819722000000000",
            "longitude": "138.661129000000000",
            "locationNumber": "65837070",
            "saleGroupId": "0",
            "christmasHours": "",
            "christmasHoursDay": "Please contact the store for Easter opening hours.",
            "updateTimeStamp": "2025-06-19 11:15:22",
            "postcodeId": "12000",
            "storeUrl": "",
            "updated": "0",
            "onlineShopUrl": "",
            "ecommerceUrl": ""
        },
        {
            "storeId": "14803",
            "retailerStoreId": "5030",
            "storeName": "IGA Holden Hill",
            "address": "2/746 North East Road\r\n",
            "suburb": "Holden Hill",
            "state": "SA",
            "postcode": "5088",
            "phone": "08 72304536",
            "fax": "",
            "hours": "8:00 AM - 8:00 PM\r\n8:00 AM - 8:00 PM\r\n8:00 AM - 8:00 PM\r\n8:00 AM - 8:00 PM\r\n8:00 AM - 8:00 PM\r\n8:00 AM - 8:00 PM\r\n8:00 AM - 8:00 PM",
            "hoursDay": "Monday\r\nTuesday\r\nWednesday\r\nThursday\r\nFriday\r\nSaturday\r\nSunday",
            "regionId": null,
            "latitude": "-34.844730000000000",
            "longitude": "138.671524000000000",
            "locationNumber": "65837724",
            "saleGroupId": "0",
            "christmasHours": "",
            "christmasHoursDay": "Please contact the store for Easter opening hours.",
            "updateTimeStamp": "2025-04-10 13:33:09",
            "postcodeId": "11990",
            "storeUrl": "",
            "updated": "0",
            "onlineShopUrl": "",
            "ecommerceUrl": ""
        },
        {
            "storeId": "22155",
            "retailerStoreId": "19726",
            "storeName": "IGA Valley View",
            "address": "UNIT 3 901 GRAND JUNCTION",
            "suburb": "Valley View",
            "state": "SA",
            "postcode": "5093",
            "phone": "",
            "fax": "",
            "hours": "",
            "hoursDay": "",
            "regionId": null,
            "latitude": "-34.844940000000000",
            "longitude": "138.661940000000000",
            "locationNumber": "0",
            "saleGroupId": "0",
            "christmasHours": "CLOSED\r\n7:30am - 5:00pm\r\n9:00am - 5:00pm\r\nCLOSED\r\n7:30am - 9:00pm\r\n7:30am - 9:00pm\r\n7:30am - 9:00pm\r\nCLOSED\r\n7:30am - 5:00pm\r\n9:00am - 5:00pm",
            "christmasHoursDay": "18 Apr\r\n19 Apr\r\n20 Apr\r\n21 Apr\r\n22 Apr\r\n23 Apr\r\n24 Apr\r\n25 Apr\r\n26 Apr\r\n27 Apr",
            "updateTimeStamp": "2025-04-11 15:06:30",
            "postcodeId": "12001",
            "storeUrl": "",
            "updated": "0",
            "onlineShopUrl": "",
            "ecommerceUrl": ""
        },
        {
            "storeId": "14837",
            "retailerStoreId": "13135",
            "storeName": "Redwood Park IGA",
            "address": "414 Milne Road\n",
            "suburb": "Redwood Park",
            "state": "SA",
            "postcode": "5097",
            "phone": "08 8263 6500",
            "fax": "",
            "hours": "7:00 AM - 9:00 PM\r\n7:00 AM - 9:00 PM\r\n7:00 AM - 9:00 PM\r\n7:00 AM - 9:00 PM\r\n7:00 AM - 9:00 PM\r\n7:00 AM - 9:00 PM\r\n7:00 AM - 9:00 PM",
            "hoursDay": "Monday\r\nTuesday\r\nWednesday\r\nThursday\r\nFriday\r\nSaturday\r\nSunday",
            "regionId": "0",
            "latitude": "-34.815370000000000",
            "longitude": "138.699412000000000",
            "locationNumber": "65082987",
            "saleGroupId": "0",
            "christmasHours": "",
            "christmasHoursDay": "Please contact the store for Easter opening hours.",
            "updateTimeStamp": "2025-04-10 13:33:09",
            "postcodeId": "12010",
            "storeUrl": "",
            "updated": "0",
            "onlineShopUrl": "",
            "ecommerceUrl": ""
        },
        {
            "storeId": "22288",
            "retailerStoreId": "",
            "storeName": "Morphetville IGA Local Grocer",
            "address": "11 Denham Ave,",
            "suburb": "Morphettville",
            "state": "SA",
            "postcode": "5043",
            "phone": "",
            "fax": "",
            "hours": "",
            "hoursDay": "",
            "regionId": null,
            "latitude": "-34.988171000000000",
            "longitude": "138.539246000000000",
            "locationNumber": "0",
            "saleGroupId": "0",
            "christmasHours": "8:00am - 8:00pm\r\n7:00am - 8:00pm\r\n7:00am - 8:00pm\r\n7:00am - 8:00pm\r\n7:00am - 8:00pm\r\n7:00am - 8:00pm\r\n7:00am - 8:00pm\r\n7:00am - 8:00pm\r\n7:00am - 8:00pm\r\n7:00am - 8:00pm",
            "christmasHoursDay": "18 Apr\r\n19 Apr\r\n20 Apr\r\n21 Apr\r\n22 Apr\r\n23 Apr\r\n24 Apr\r\n25 Apr\r\n26 Apr\r\n27 Apr",
            "updateTimeStamp": "2025-04-11 15:06:32",
            "postcodeId": "11839",
            "storeUrl": "",
            "updated": "0",
            "onlineShopUrl": "",
            "ecommerceUrl": ""
        },
        {
            "storeId": "14827",
            "retailerStoreId": "1122",
            "storeName": "Novar Gardens IGA",
            "address": "104 Morphett Road\r\n",
            "suburb": "Novar Gardens",
            "state": "SA",
            "postcode": "5040",
            "phone": "08 8294 5277",
            "fax": "",
            "hours": "8:00 AM - 8:00 PM\r\n8:00 AM - 8:00 PM\r\n8:00 AM - 8:00 PM\r\n8:00 AM - 8:00 PM\r\n8:00 AM - 8:00 PM\r\n8:00 AM - 8:00 PM\r\n8:00 AM - 8:00 PM",
            "hoursDay": "Monday\r\nTuesday\r\nWednesday\r\nThursday\r\nFriday\r\nSaturday\r\nSunday",
            "regionId": null,
            "latitude": "-34.966447000000000",
            "longitude": "138.536973000000000",
            "locationNumber": "65072761",
            "saleGroupId": "0",
            "christmasHours": "8:00am - 8:00pm\r\n8:00am - 8:00pm\r\n8:00am - 8:00pm\r\n8:00am - 8:00pm\r\n8:00am - 8:00pm\r\n8:00am - 8:00pm\r\n8:00am - 8:00pm\r\n8:00am - 8:00pm\r\n8:00am - 8:00pm\r\n8:00am - 8:00pm",
            "christmasHoursDay": "18 Apr\r\n19 Apr\r\n20 Apr\r\n21 Apr\r\n22 Apr\r\n23 Apr\r\n24 Apr\r\n25 Apr\r\n26 Apr\r\n27 Apr",
            "updateTimeStamp": "2025-04-11 15:06:25",
            "postcodeId": "11825",
            "storeUrl": "",
            "updated": "0",
            "onlineShopUrl": "",
            "ecommerceUrl": ""
        },
        {
            "storeId": "19671",
            "retailerStoreId": "18502",
            "storeName": "IGA Local Grocer Somerton Park",
            "address": "81-83 Oaklands Rd",
            "suburb": "Somerton Park",
            "state": "SA",
            "postcode": "5044",
            "phone": "08 8295 8586",
            "fax": "",
            "hours": "7:00 AM - 8:00 PM\r\n7:00 AM - 8:00 PM\r\n7:00 AM - 8:00 PM\r\n7:00 AM - 8:00 PM\r\n7:00 AM - 8:00 PM\r\n7:00 AM - 9:00 PM\r\n7:00 AM - 9:00 PM\r\n",
            "hoursDay": "Monday\r\nTuesday\r\nWednesday\r\nThursday\r\nFriday\r\nSaturday\r\nSunday\r\n",
            "regionId": null,
            "latitude": "-34.997090000000000",
            "longitude": "138.529740000000000",
            "locationNumber": "0",
            "saleGroupId": "0",
            "christmasHours": "",
            "christmasHoursDay": "Please contact the store for Easter opening hours.",
            "updateTimeStamp": "2025-04-10 13:33:09",
            "postcodeId": "11850",
            "storeUrl": "",
            "updated": "0",
            "onlineShopUrl": "",
            "ecommerceUrl": "",
            "id": "312b101b-d03e-4f16-a25a-402be2d6dd5d",
            "status": "Active",
            "type": "Regular",
            "email": "igasomertonparksa@gmail.com",
            "siteId": "8c744d67-1ce2-4e4b-81d1-e29966f362a7",
            "categoryHierarchyId": "93c41c59-c564-4639-ae57-2cff46842aa0",
            "shoppingModes": [
                "planning",
                "delivery",
                "pickup"
            ]
        },
        {
            "storeId": "14804",
            "retailerStoreId": "729",
            "storeName": "IGA Local Grocer Glenelg East",
            "address": "1 Cliff Street\r\n",
            "suburb": "Glenelg East",
            "state": "SA",
            "postcode": "5045",
            "phone": "0460 407 315",
            "fax": "",
            "hours": "7:00 AM - 10:00 PM\r\n7:00 AM - 10:00 PM\r\n7:00 AM - 10:00 PM\r\n7:00 AM - 10:00 PM\r\n7:00 AM - 10:00 PM\r\n7:00 AM - 10:00 PM\r\n7:00 AM - 10:00 PM",
            "hoursDay": "Monday\r\nTuesday\r\nWednesday\r\nThursday\r\nFriday\r\nSaturday\r\nSunday",
            "regionId": null,
            "latitude": "-34.986627000000000",
            "longitude": "138.523940000000000",
            "locationNumber": "65083257",
            "saleGroupId": "0",
            "christmasHours": "8:00am - 8:00pm\r\n8:00am - 8:00pm\r\n8:00am - 8:00pm\r\n8:00am - 8:00pm\r\n7:00am - 10:00pm\r\n7:00am - 10:00pm\r\n7:00pm - 10:00pm\r\n8:00am - 8:00pm\r\n7:00pm - 10:00pm\r\n7:00am - 10:00pm",
            "christmasHoursDay": "18 Apr\r\n19 Apr\r\n20 Apr\r\n21 Apr\r\n22 Apr\r\n23 Apr\r\n24 Apr\r\n25 Apr\r\n26 Apr\r\n27 Apr",
            "updateTimeStamp": "2025-04-11 15:06:25",
            "postcodeId": "11842",
            "storeUrl": "",
            "updated": "0",
            "onlineShopUrl": "",
            "ecommerceUrl": ""
        },
        {
            "storeId": "14858",
            "retailerStoreId": "32455",
            "storeName": "IGA Local Grocer Mt Gambier (Swallow Drive)",
            "address": "16 Swallow Drive\r\n",
            "suburb": "Mt Gambier",
            "state": "SA",
            "postcode": "5290",
            "phone": "(08) 8723 4948",
            "fax": "",
            "hours": "7:00 AM - 7:00 PM\r\n7:00 AM - 7:00 PM\r\n7:00 AM - 7:00 PM\r\n7:00 AM - 7:00 PM\r\n7:00 AM - 7:00 PM\r\n8:00 AM - 7:00 PM\r\n8:00 AM - 7:00 PM",
            "hoursDay": "Monday\r\nTuesday\r\nWednesday\r\nThursday\r\nFriday\r\nSaturday\r\nSunday",
            "regionId": null,
            "latitude": "-37.845366000000000",
            "longitude": "140.792135000000000",
            "locationNumber": "62113407",
            "saleGroupId": "0",
            "christmasHours": "",
            "christmasHoursDay": "Please contact the store for Easter opening hours.",
            "updateTimeStamp": "2025-04-10 13:33:09",
            "postcodeId": "12620",
            "storeUrl": "",
            "updated": "0",
            "onlineShopUrl": "",
            "ecommerceUrl": ""
        },
        {
            "storeId": "14859",
            "retailerStoreId": "21727",
            "storeName": "IGA Local Grocer Mt Gambier (Montebello)",
            "address": "73-75 Suttontown Road\r\n",
            "suburb": "Mt Gambier",
            "state": "SA",
            "postcode": "5290",
            "phone": "08 8723 5294",
            "fax": "",
            "hours": "7:00 AM - 7:00 PM\r\n7:00 AM - 7:00 PM\r\n7:00 AM - 7:00 PM\r\n7:00 AM - 7:00 PM\r\n7:00 AM - 7:00 PM\r\n8:00 AM - 7:00 PM\r\n8:00 AM - 7:00 PM",
            "hoursDay": "Monday\r\nTuesday\r\nWednesday\r\nThursday\r\nFriday\r\nSaturday\r\nSunday",
            "regionId": null,
            "latitude": "-37.808322000000000",
            "longitude": "140.769440000000000",
            "locationNumber": "62113308",
            "saleGroupId": "0",
            "christmasHours": "",
            "christmasHoursDay": "Please contact the store for Easter opening hours.",
            "updateTimeStamp": "2025-04-10 13:33:09",
            "postcodeId": "12616",
            "storeUrl": "",
            "updated": "0",
            "onlineShopUrl": "",
            "ecommerceUrl": ""
        },
        {
            "storeId": "14828",
            "retailerStoreId": "19979",
            "storeName": "IGA Local Grocer O'Halloran Hill",
            "address": "93 Main South Road\r\n",
            "suburb": "O'halloran Hill",
            "state": "SA",
            "postcode": "5158",
            "phone": "08 8322 3358",
            "fax": "",
            "hours": "8:00 AM - 8:00 PM\r\n8:00 AM - 8:00 PM\r\n8:00 AM - 8:00 PM\r\n8:00 AM - 8:00 PM\r\n8:00 AM - 8:00 PM\r\n8:00 AM - 8:00 PM\r\n8:00 AM - 8:00 PM",
            "hoursDay": "Monday\r\nTuesday\r\nWednesday\r\nThursday\r\nFriday\r\nSaturday\r\nSunday",
            "regionId": null,
            "latitude": "-35.068180000000000",
            "longitude": "138.555084000000000",
            "locationNumber": "65082435",
            "saleGroupId": "0",
            "christmasHours": "",
            "christmasHoursDay": "Please contact the store for Easter opening hours.",
            "updateTimeStamp": "2025-04-11 15:06:03",
            "postcodeId": "12154",
            "storeUrl": "",
            "updated": "0",
            "onlineShopUrl": "",
            "ecommerceUrl": "",
            "id": "f2e73f8d-5124-489d-a8c2-cab6b5209020",
            "status": "Active",
            "type": "Regular",
            "email": "shivanshglobal47@gmail.com",
            "siteId": "8c744d67-1ce2-4e4b-81d1-e29966f362a7",
            "categoryHierarchyId": "93c41c59-c564-4639-ae57-2cff46842aa0",
            "shoppingModes": [
                "planning",
                "delivery",
                "pickup"
            ]
        },
        {
            "storeId": "19667",
            "retailerStoreId": "38592",
            "storeName": "IGA Local Grocer Trott Park",
            "address": "20 Heysen Drive",
            "suburb": "Trott Park",
            "state": "SA",
            "postcode": "5158",
            "phone": "08 8406 6836",
            "fax": "",
            "hours": "7:00 AM - 9:00 PM\r\n7:00 AM - 9:00 PM\r\n7:00 AM - 9:00 PM\r\n7:00 AM - 9:00 PM\r\n7:00 AM - 9:00 PM\r\n7:00 AM - 9:00 PM\r\n7:00 AM - 9:00 PM",
            "hoursDay": "Monday\r\nTuesday\r\nWednesday\r\nThursday\r\nFriday\r\nSaturday\r\nSunday",
            "regionId": null,
            "latitude": "-35.070370000000000",
            "longitude": "138.537870000000000",
            "locationNumber": "0",
            "saleGroupId": "0",
            "christmasHours": "",
            "christmasHoursDay": "Please contact the store for Easter opening hours.",
            "updateTimeStamp": "2025-04-10 13:33:09",
            "postcodeId": "12154",
            "storeUrl": "",
            "updated": "0",
            "onlineShopUrl": "",
            "ecommerceUrl": "",
            "id": "9dd5d725-a6f1-446c-896c-6d712c267ec1",
            "status": "Active",
            "type": "Regular",
            "email": "kspgrocer@hotmail.com",
            "siteId": "8c744d67-1ce2-4e4b-81d1-e29966f362a7",
            "categoryHierarchyId": "93c41c59-c564-4639-ae57-2cff46842aa0",
            "shoppingModes": [
                "planning",
                "delivery",
                "pickup"
            ]
        },
        {
            "storeId": "20525",
            "retailerStoreId": "232525",
            "storeName": "IGA Local Grocer Middleton",
            "address": "Tenancy A, 17 Goolwa Rd",
            "suburb": "Middleton",
            "state": "SA",
            "postcode": "5213",
            "phone": "08 7123 2734",
            "fax": "",
            "hours": "7:00 AM - 7:00 PM\r\n7:00 AM - 7:00 PM\r\n7:00 AM - 7:00 PM\r\n7:00 AM - 7:00 PM\r\n7:00 AM - 7:00 PM\r\n7:00 AM - 7:00 PM\r\n7:00 AM - 7:00 PM",
            "hoursDay": "Monday\r\nTuesday\r\nWednesday\r\nThursday\r\nFriday\r\nSaturday\r\nSunday",
            "regionId": null,
            "latitude": "-35.511130000000000",
            "longitude": "138.706360000000000",
            "locationNumber": "0",
            "saleGroupId": "0",
            "christmasHours": "7:00am - 7:00pm\r\n7:00am - 7:00pm\r\n7:00am - 7:00pm\r\n7:00am - 7:00pm\r\n7:00am - 7:00pm\r\n7:00am - 7:00pm\r\n7:00am - 7:00pm\r\n7:00am - 7:00pm\r\n7:00am - 7:00pm\r\n7:00am - 7:00pm",
            "christmasHoursDay": "18 Apr\r\n19 Apr\r\n20 Apr\r\n21 Apr\r\n22 Apr\r\n23 Apr\r\n24 Apr\r\n25 Apr\r\n26 Apr\r\n27 Apr",
            "updateTimeStamp": "2025-04-11 15:06:28",
            "postcodeId": "12245",
            "storeUrl": "",
            "updated": "0",
            "onlineShopUrl": "",
            "ecommerceUrl": ""
        },
        {
            "storeId": "21775",
            "retailerStoreId": "80820",
            "storeName": "IGA Victor Harbor",
            "address": "Unit 10/68-78 Victoria St",
            "suburb": "Victor Harbor",
            "state": "SA",
            "postcode": "5211",
            "phone": "",
            "fax": "",
            "hours": "7:30 AM - 8:30 PM\r\n7:30 AM - 8:30 PM\r\n7:30 AM - 8:30 PM\r\n7:30 AM - 8:30 PM\r\n7:30 AM - 8:30 PM\r\n8:00 AM - 8:00 PM\r\n8:00 AM - 8:00 PM",
            "hoursDay": "Monday\r\nTuesday\r\nWednesday\r\nThursday\r\nFriday\r\nSaturday\r\nSunday",
            "regionId": null,
            "latitude": "-35.557670000000000",
            "longitude": "138.616330000000000",
            "locationNumber": "0",
            "saleGroupId": "0",
            "christmasHours": "",
            "christmasHoursDay": "Please contact the store for Easter opening hours.",
            "updateTimeStamp": "2025-04-10 13:33:09",
            "postcodeId": "12241",
            "storeUrl": "",
            "updated": "0",
            "onlineShopUrl": "",
            "ecommerceUrl": "",
            "id": "bd4d3bd6-098e-412f-a8aa-36e22fccfe8e",
            "status": "Active",
            "type": "Regular",
            "email": "igavictorharbor@gmail.com",
            "siteId": "8c744d67-1ce2-4e4b-81d1-e29966f362a7",
            "categoryHierarchyId": "93c41c59-c564-4639-ae57-2cff46842aa0",
            "shoppingModes": [
                "planning",
                "pickup"
            ]
        },
        {
            "storeId": "14821",
            "retailerStoreId": "17771",
            "storeName": "IGA Millicent ",
            "address": "79 George Street\r\n",
            "suburb": "Millicent",
            "state": "SA",
            "postcode": "5280",
            "phone": "08 8733 2411",
            "fax": "",
            "hours": "7:00 AM - 8:00 PM\r\n7:00 AM - 8:00 PM\r\n7:00 AM - 8:00 PM\r\n7:00 AM - 8:00 PM\r\n7:00 AM - 8:00 PM\r\n7:00 AM - 8:00 PM\r\n7:00 AM - 8:00 PM",
            "hoursDay": "Monday\r\nTuesday\r\nWednesday\r\nThursday\r\nFriday\r\nSaturday\r\nSunday",
            "regionId": null,
            "latitude": "-37.596042000000000",
            "longitude": "140.355395000000000",
            "locationNumber": "65070960",
            "saleGroupId": "0",
            "christmasHours": "",
            "christmasHoursDay": "Please contact the store for Easter opening hours.",
            "updateTimeStamp": "2025-04-11 15:06:03",
            "postcodeId": "12578",
            "storeUrl": "",
            "updated": "0",
            "onlineShopUrl": "",
            "ecommerceUrl": "",
            "id": "e73d501b-35d4-401f-91c9-556c71b3e606",
            "status": "Active",
            "type": "Regular",
            "email": "igamillicent@gmail.com",
            "siteId": "8c744d67-1ce2-4e4b-81d1-e29966f362a7",
            "categoryHierarchyId": "93c41c59-c564-4639-ae57-2cff46842aa0",
            "shoppingModes": [
                "planning",
                "pickup"
            ]
        },
        {
            "storeId": "14826",
            "retailerStoreId": "600",
            "storeName": "Murray Bridge IGA",
            "address": "118 Swanport Road\r\n",
            "suburb": "Murray Bridge",
            "state": "SA",
            "postcode": "5253",
            "phone": "08 8532 1971",
            "fax": "",
            "hours": "7:00 AM - 8:30 PM\r\n7:00 AM - 8:30 PM\r\n7:00 AM - 8:30 PM\r\n7:00 AM - 8:30 PM\r\n7:00 AM - 8:30 PM\r\n7:00 AM - 8:30 PM\r\n7:00 AM - 8:30 PM",
            "hoursDay": "Monday\r\nTuesday\r\nWednesday\r\nThursday\r\nFriday\r\nSaturday\r\nSunday",
            "regionId": null,
            "latitude": "-35.131563000000000",
            "longitude": "139.280577000000000",
            "locationNumber": "65001199",
            "saleGroupId": "0",
            "christmasHours": "",
            "christmasHoursDay": "Please contact the store for Easter opening hours.",
            "updateTimeStamp": "2025-04-10 13:33:09",
            "postcodeId": "12391",
            "storeUrl": "",
            "updated": "0",
            "onlineShopUrl": "",
            "ecommerceUrl": "",
            "id": "1a7107c1-3d6c-43e9-afbd-b51a0e122968",
            "status": "Active",
            "type": "Regular",
            "email": "general@igamurraybridge.com.au",
            "siteId": "8c744d67-1ce2-4e4b-81d1-e29966f362a7",
            "categoryHierarchyId": "93c41c59-c564-4639-ae57-2cff46842aa0",
            "shoppingModes": [
                "planning",
                "delivery",
                "pickup"
            ]
        },
        {
            "storeId": "14851",
            "retailerStoreId": "52898",
            "storeName": "Josh's IGA Murray Bridge West ",
            "address": "159-161 Adelaide Road",
            "suburb": "Murray Bridge",
            "state": "SA",
            "postcode": "5253",
            "phone": "08 8531 0090",
            "fax": "",
            "hours": "6:30AM - 8:30PM\r\n6:30AM - 8:30PM\r\n6:30AM - 8:30PM\r\n6:30AM - 8:30PM\r\n6:30AM - 8:30PM\r\n7AM - 8:30PM\r\n7AM - 8:30PM",
            "hoursDay": "Monday\r\nTuesday\r\nWednesday\r\nThursday\r\nFriday\r\nSaturday\r\nSunday ",
            "regionId": null,
            "latitude": "-35.127965000000000",
            "longitude": "139.252425000000000",
            "locationNumber": "65083450",
            "saleGroupId": "0",
            "christmasHours": "7:00am - 8:30pm\r\n7:00am - 8:30pm\r\n7:00am - 8:30pm\r\n7:00am - 8:30pm\r\n6:30am - 8:30pm\r\n6:30am - 8:30pm\r\n6:30am - 8:30pm\r\n7:00am - 8:30pm\r\n7:00am - 8:30pm\r\n7:00am - 8:30pm",
            "christmasHoursDay": "18 Apr\r\n19 Apr\r\n20 Apr\r\n21 Apr\r\n22 Apr\r\n23 Apr\r\n24 Apr\r\n25 Apr\r\n26 Apr\r\n27 Apr",
            "updateTimeStamp": "2025-04-11 15:06:29",
            "postcodeId": "12392",
            "storeUrl": "",
            "updated": "0",
            "onlineShopUrl": "",
            "ecommerceUrl": "",
            "id": "cc2ce93b-511c-4112-80de-fbd77a49b3b5",
            "status": "Active",
            "type": "Regular",
            "email": "admin@joshsiga.com.au",
            "siteId": "8c744d67-1ce2-4e4b-81d1-e29966f362a7",
            "categoryHierarchyId": "93c41c59-c564-4639-ae57-2cff46842aa0",
            "shoppingModes": [
                "planning",
                "delivery",
                "pickup"
            ]
        },
        {
            "storeId": "21754",
            "retailerStoreId": "1173",
            "storeName": "IGA Local Grocer Paringa",
            "address": "1-3 Murtho Road",
            "suburb": "Paringa",
            "state": "SA",
            "postcode": "5340",
            "phone": "(08) 8595 5068",
            "fax": "",
            "hours": "6:30 AM - 7:00 PM\r\n6:30 AM - 7:00 PM\r\n6:30 AM - 7:00 PM\r\n6:30 AM - 7:00 PM\r\n6:30 AM - 7:00 PM\r\n6:30 AM - 7:00 PM\r\n8:00 AM - 3:00 PM",
            "hoursDay": "Monday\r\nTuesday\r\nWednesday\r\nThursday\r\nFriday\r\nSaturday\r\nSunday",
            "regionId": null,
            "latitude": "-34.179160000000000",
            "longitude": "140.782800000000000",
            "locationNumber": "0",
            "saleGroupId": "0",
            "christmasHours": "6:30am - 7:00pm\r\n7:00am - 7:00pm\r\n8:00am - 3:00pm\r\n6:30am - 7:00pm\r\n6:30am - 7:00pm\r\n6:30am - 7:00pm\r\n6:30am - 7:00pm\r\n6:30am - 7:00pm\r\n7:00am - 7:00pm\r\n8:00am - 3:00pm",
            "christmasHoursDay": "18 Apr\r\n19 Apr\r\n20 Apr\r\n21 Apr\r\n22 Apr\r\n23 Apr\r\n24 Apr\r\n25 Apr\r\n26 Apr\r\n27 Apr",
            "updateTimeStamp": "2025-04-11 15:06:31",
            "postcodeId": "12716",
            "storeUrl": "",
            "updated": "0",
            "onlineShopUrl": "",
            "ecommerceUrl": "",
            "id": "87d307a7-71c7-4094-a658-7e8f692a50a1",
            "status": "Active",
            "type": "Regular",
            "email": "igaparinga@gmail.com",
            "siteId": "8c744d67-1ce2-4e4b-81d1-e29966f362a7",
            "categoryHierarchyId": "93c41c59-c564-4639-ae57-2cff46842aa0",
            "shoppingModes": [
                "planning",
                "delivery",
                "pickup"
            ]
        },
        {
            "storeId": "14809",
            "retailerStoreId": "9798",
            "storeName": "IGA Keith",
            "address": "Hender Street\r\n",
            "suburb": "Keith",
            "state": "SA",
            "postcode": "5267",
            "phone": "08 8755 1270",
            "fax": "",
            "hours": "7:30 AM - 6:30 PM\r\n7:30 AM - 6:30 PM\r\n7:30 AM - 6:30 PM\r\n7:30 AM - 6:30 PM\r\n7:30 AM - 6:30 PM\r\n8:30 AM - 2:00 PM\r\n8:30 AM - 12:30 PM",
            "hoursDay": "Monday\r\nTuesday\r\nWednesday\r\nThursday\r\nFriday\r\nSaturday\r\nSunday",
            "regionId": null,
            "latitude": "-36.098221000000000",
            "longitude": "140.353714000000000",
            "locationNumber": "65082226",
            "saleGroupId": "0",
            "christmasHours": "CLOSED\r\n8:00am - 2:00pm\r\n8:00am - 12:30pm\r\nCLOSED\r\n7:30am - 6:30pm\r\n7:30am - 6:30pm\r\n7:30am - 6:30pm\r\nCLOSED\r\n8:00am - 2:00pm\r\n8:00am - 12:30pm",
            "christmasHoursDay": "18 Apr\r\n19 Apr\r\n20 Apr\r\n21 Apr\r\n22 Apr\r\n23 Apr\r\n24 Apr\r\n25 Apr\r\n26 Apr\r\n27 Apr",
            "updateTimeStamp": "2025-04-11 15:06:25",
            "postcodeId": "12477",
            "storeUrl": "",
            "updated": "0",
            "onlineShopUrl": "",
            "ecommerceUrl": ""
        },
        {
            "storeId": "14845",
            "retailerStoreId": "30192",
            "storeName": "Streaky Bay (Beck Bros) IGA",
            "address": "Alfred Tce\n",
            "suburb": "Streaky Bay",
            "state": "SA",
            "postcode": "5680",
            "phone": "08 8626 1322",
            "fax": "",
            "hours": "8:30 AM - 6:00 PM\r\n8:30 AM - 6:00 PM\r\n8:30 AM - 6:00 PM\r\n8:30 AM - 6:00 PM\r\n8:30 AM - 6:00 PM\r\n9:00 AM - 5:00 PM\r\n10:00 AM - 1:00 PM",
            "hoursDay": "Monday\r\nTuesday\r\nWednesday\r\nThursday\r\nFriday\r\nSaturday\r\nSunday",
            "regionId": "0",
            "latitude": "-32.795779600000000",
            "longitude": "134.212176200000000",
            "locationNumber": "65000081",
            "saleGroupId": "0",
            "christmasHours": "CLOSED\r\n9:00am - 4:55pm\r\n10:00am - 12:55pm\r\n10:00am - 12:55pm\r\n8:30am - 5.55pm\r\n8:30am - 5.55pm\r\n8:30am - 5.55pm\r\n12:00pm - 2:55pm\r\n9:00am - 4:55pm\r\n10:00am - 12:55pm",
            "christmasHoursDay": "18 Apr\r\n19 Apr\r\n20 Apr\r\n21 Apr\r\n22 Apr\r\n23 Apr\r\n24 Apr\r\n25 Apr\r\n26 Apr\r\n27 Apr",
            "updateTimeStamp": "2025-04-11 15:06:31",
            "postcodeId": "13447",
            "storeUrl": "",
            "updated": "0",
            "onlineShopUrl": "",
            "ecommerceUrl": ""
        },
        {
            "storeId": "14846",
            "retailerStoreId": "20543",
            "storeName": "Jim's IGA Thevenard",
            "address": "99 Thevenard Road\n",
            "suburb": "Thevenard",
            "state": "SA",
            "postcode": "5690",
            "phone": "08 8625 2175",
            "fax": "",
            "hours": "8:00 AM - 8:00 PM\r\n8:00 AM - 8:00 PM\r\n8:00 AM - 8:00 PM\r\n8:00 AM - 8:00 PM\r\n8:00 AM - 8:00 PM\r\n8:00 AM - 8:00 PM\r\n8:00 AM - 8:00 PM",
            "hoursDay": "Monday\r\nTuesday\r\nWednesday\r\nThursday\r\nFriday\r\nSaturday\r\nSunday",
            "regionId": "0",
            "latitude": "-32.145691000000000",
            "longitude": "133.652924000000000",
            "locationNumber": "65837240",
            "saleGroupId": "0",
            "christmasHours": "",
            "christmasHoursDay": "Please contact the store for Easter opening hours.",
            "updateTimeStamp": "2025-04-10 13:33:09",
            "postcodeId": "13466",
            "storeUrl": "",
            "updated": "0",
            "onlineShopUrl": "",
            "ecommerceUrl": ""
        },
        {
            "storeId": "14794",
            "retailerStoreId": "22250",
            "storeName": "IGA Coober Pedy Plus Liquor",
            "address": "28 Hutchison Street\n",
            "suburb": "Coober Pedy",
            "state": "SA",
            "postcode": "5723",
            "phone": "08 8672 5272",
            "fax": "",
            "hours": "8:00 AM - 7:00 PM\r\n8:00 PM - 7:00 PM\r\n8:00 AM - 7:00 PM\r\n7:00 AM - 7:00 PM\r\n8:00 AM - 7:00 PM\r\n8:00 AM - 7:00 PM\r\n9:00 AM - 7:00 PM",
            "hoursDay": "Monday\r\nTuesday\r\nWednesday\r\nThursday\r\nFriday\r\nSaturday\r\nSunday",
            "regionId": "0",
            "latitude": "-29.010043000000000",
            "longitude": "134.755301000000000",
            "locationNumber": "65083497",
            "saleGroupId": "0",
            "christmasHours": "",
            "christmasHoursDay": "Please contact the store for Easter opening hours.",
            "updateTimeStamp": "2025-04-10 13:33:09",
            "postcodeId": "13553",
            "storeUrl": "",
            "updated": "0",
            "onlineShopUrl": "",
            "ecommerceUrl": ""
        },
        {
            "storeId": "20730",
            "retailerStoreId": "84130",
            "storeName": "IGA Coffin Bay",
            "address": "149-151 The Esplanade",
            "suburb": "Coffin Bay",
            "state": "SA",
            "postcode": "5607",
            "phone": "(08) 8685-4052",
            "fax": "",
            "hours": "7:00 AM - 6:00 PM\r\n7:00 AM - 6:00 PM\r\n7:00 AM - 6:00 PM\r\n7:00 AM - 6:00 PM\r\n7:00 AM - 6:00 PM\r\n7:00 AM - 6:00 PM\r\n7:00 AM - 6:00 PM",
            "hoursDay": "Monday\r\nTuesday\r\nWednesday\r\nThursday\r\nFriday\r\nSaturday\r\nSunday",
            "regionId": null,
            "latitude": "-34.622122000000000",
            "longitude": "135.466341000000000",
            "locationNumber": "0",
            "saleGroupId": "0",
            "christmasHours": "7:00am - 7:00pm\r\n7:00am - 7:00pm\r\n7:00am - 7:00pm\r\n7:00am - 7:00pm\r\n7:00am - 7:00pm\r\n7:00am - 7:00pm\r\n7:00am - 7:00pm\r\n7:00am - 7:00pm\r\n7:00am - 7:00pm\r\n7:00am - 7:00pm",
            "christmasHoursDay": "18 Apr\r\n19 Apr\r\n20 Apr\r\n21 Apr\r\n22 Apr\r\n23 Apr\r\n24 Apr\r\n25 Apr\r\n26 Apr\r\n27 Apr",
            "updateTimeStamp": "2025-06-03 11:13:47",
            "postcodeId": "13320",
            "storeUrl": "",
            "updated": "0",
            "onlineShopUrl": "",
            "ecommerceUrl": ""
        },
        {
            "storeId": "14781",
            "retailerStoreId": "38633",
            "storeName": "Becker's IGA",
            "address": "9 Main North Rd\r\n",
            "suburb": "Auburn",
            "state": "SA",
            "postcode": "5451",
            "phone": "08 8849 2111",
            "fax": "",
            "hours": "6:30 AM - 7:00 PM\r\n6:30 AM - 7:00 PM\r\n6:30 AM - 7:00 PM\r\n6:30 AM - 8:30 PM\r\n7:00 AM - 6:00 PM\r\n7:00 AM - 5:00 PM\r\n9:00 AM - 1:00 PM",
            "hoursDay": "Monday\r\nTuesday\r\nWednesday\r\nThursday\r\nFriday\r\nSaturday\r\nSunday",
            "regionId": null,
            "latitude": "-34.018532000000000",
            "longitude": "138.684830000000000",
            "locationNumber": "65000250",
            "saleGroupId": "0",
            "christmasHours": "8:00am - 10:00am\r\n8:00am - 12:00pm\r\n8:00am - 12:00pm\r\n8:00am - 10:AM\r\n6:30am - 7:00pm\r\n6:30am - 7:00pm\r\n6:30am - 8:00pm\r\n12:5:00pm - 3:00pm\r\n7:00am - 5:00pm\r\n8:00am - 1:00pm",
            "christmasHoursDay": "18 Apr\r\n19 Apr\r\n20 Apr\r\n21 Apr\r\n22 Apr\r\n23 Apr\r\n24 Apr\r\n25 Apr\r\n26 Apr\r\n27 Apr",
            "updateTimeStamp": "2025-04-11 15:06:32",
            "postcodeId": "13012",
            "storeUrl": "",
            "updated": "0",
            "onlineShopUrl": "",
            "ecommerceUrl": "",
            "id": "6be8484c-9dd1-4bea-a0d3-fcad138ee618",
            "status": "Active",
            "type": "Regular",
            "email": "beckersiga@outlook.com",
            "siteId": "8c744d67-1ce2-4e4b-81d1-e29966f362a7",
            "categoryHierarchyId": "93c41c59-c564-4639-ae57-2cff46842aa0",
            "shoppingModes": [
                "planning",
                "pickup"
            ]
        },
        {
            "storeId": "14789",
            "retailerStoreId": "12590",
            "storeName": "IGA Local Grocer Booleroo Centre",
            "address": "31 Stephens St",
            "suburb": "Booleroo Centre",
            "state": "SA",
            "postcode": "5482",
            "phone": "08 8667 2217",
            "fax": "",
            "hours": "8:30 AM - 5:30 PM\r\n8:30 AM - 5:30 PM\r\n8:30 AM - 5:30 PM\r\n8:30 AM - 5:30 PM\r\n8:30 AM - 5:30 PM\r\n8:30 AM - 12:00 PM\r\n8:30 AM - 11:30 PM",
            "hoursDay": "Monday\r\nTuesday\r\nWednesday\r\nThursday\r\nFriday\r\nSaturday\r\nSunday",
            "regionId": null,
            "latitude": "-32.881954000000000",
            "longitude": "138.350113000000000",
            "locationNumber": "65830625",
            "saleGroupId": "0",
            "christmasHours": "",
            "christmasHoursDay": "Please contact the store for Easter opening hours.",
            "updateTimeStamp": "2025-04-10 13:33:09",
            "postcodeId": "13077",
            "storeUrl": "",
            "updated": "0",
            "onlineShopUrl": "",
            "ecommerceUrl": ""
        },
        {
            "storeId": "14791",
            "retailerStoreId": "22076",
            "storeName": "Oppy's IGA Burra",
            "address": "Commercial Street\n",
            "suburb": "Burra",
            "state": "SA",
            "postcode": "5417",
            "phone": "08 8892 2348",
            "fax": "",
            "hours": "8:30AM - 6:00PM\r\n8:30AM - 6:00PM\r\n8:30AM - 6:00PM\r\n8:30AM - 6:30PM\r\n8:30AM - 6:00PM\r\n8:30AM - 4:00PM\r\n9:00AM - 3:00PM",
            "hoursDay": "Monday\r\nTuesday\r\nWednesday\r\nThursday\r\nFriday\r\nSaturday\r\nSunday",
            "regionId": "0",
            "latitude": "-33.682686000000000",
            "longitude": "138.938004000000000",
            "locationNumber": "65000727",
            "saleGroupId": "0",
            "christmasHours": "9:00am - 1:00pm\r\n8:00am - 4:00pm\r\n10:00am - 3:00pm\r\n9:00am - 1:00pm\r\n8:00am - 6:30pm\r\n8:00am - 6:00pm\r\n8:00am - 6:30pm\r\n8:00am - 6:00pm\r\n8:00am - 4:00pm\r\n9:00am - 3:00pm",
            "christmasHoursDay": "18 Apr\r\n19 Apr\r\n20 Apr\r\n21 Apr\r\n22 Apr\r\n23 Apr\r\n24 Apr\r\n25 Apr\r\n26 Apr\r\n27 Apr",
            "updateTimeStamp": "2025-04-11 15:06:27",
            "postcodeId": "12869",
            "storeUrl": "",
            "updated": "0",
            "onlineShopUrl": "",
            "ecommerceUrl": "https://igashop.com.au/?utm_source=igawebsite&utm_medium=tile&utm_campaign=store_locator&utm_content=cta_button"
        },
        {
            "storeId": "14796",
            "retailerStoreId": "13419",
            "storeName": "IGA Cummins",
            "address": "42-44 Railway Terrace\n",
            "suburb": "Cummins",
            "state": "SA",
            "postcode": "5631",
            "phone": "08 8676 2004",
            "fax": "",
            "hours": "8:30 AM - 6:00 PM\r\n8:30 AM - 6:00 PM\r\n8:30 AM - 6:00 PM\r\n8:30 AM - 6:00 PM\r\n8:30 AM - 6:00 PM\r\n9:00 AM - 1:00 PM\r\n9:00 AM - 1:00 PM",
            "hoursDay": "Monday\r\nTuesday\r\nWednesday\r\nThursday\r\nFriday\r\nSaturday\r\nSunday",
            "regionId": "0",
            "latitude": "-34.264481000000000",
            "longitude": "135.727554000000000",
            "locationNumber": "65842090",
            "saleGroupId": "0",
            "christmasHours": "",
            "christmasHoursDay": "Please contact the store for Easter opening hours.",
            "updateTimeStamp": "2025-04-11 15:06:03",
            "postcodeId": "13354",
            "storeUrl": "",
            "updated": "0",
            "onlineShopUrl": "",
            "ecommerceUrl": ""
        },
        {
            "storeId": "14808",
            "retailerStoreId": "22119",
            "storeName": "IGA Local Grocer Karoonda",
            "address": "23 Railway Tce\r\n",
            "suburb": "Karoonda",
            "state": "SA",
            "postcode": "5307",
            "phone": "08 8578 1165",
            "fax": "",
            "hours": "8:00 AM - 6:00 PM\r\n8:00 AM - 6:00 PM\r\n8:00 AM - 6:00 PM\r\n8:00 AM - 6:00 PM\r\n8:00 AM - 6:00 PM\r\n8:00 AM - 1:00 PM\r\n9:00 AM - 2:00 PM",
            "hoursDay": "Monday\r\nTuesday\r\nWednesday\r\nThursday\r\nFriday\r\nSaturday\r\nSunday",
            "regionId": null,
            "latitude": "-35.095367000000000",
            "longitude": "139.893417000000000",
            "locationNumber": "65830887",
            "saleGroupId": "0",
            "christmasHours": "9:30am - 1:30pm\r\n8:00am - 1:00pm\r\n8:00am - 2:00pm\r\n9:30am - 1:00pm\r\n8:00am - 6:00pm\r\n8:00am - 6:00pm\r\n8:00pm - 6:00pm\r\n9:00am - 1:30pm\r\n8:00pm - 1:00pm\r\n8:00am - 2:00pm",
            "christmasHoursDay": "18 Apr\r\n19 Apr\r\n20 Apr\r\n21 Apr\r\n22 Apr\r\n23 Apr\r\n24 Apr\r\n25 Apr\r\n26 Apr\r\n27 Apr",
            "updateTimeStamp": "2025-04-11 15:06:25",
            "postcodeId": "12638",
            "storeUrl": "",
            "updated": "0",
            "onlineShopUrl": "",
            "ecommerceUrl": ""
        },
        {
            "storeId": "14810",
            "retailerStoreId": "22213",
            "storeName": "IGA Kimba",
            "address": "2 South Terrace\n",
            "suburb": "Kimba",
            "state": "SA",
            "postcode": "5641",
            "phone": "08 8627 2015",
            "fax": "",
            "hours": "7:30 AM - 6:00 PM\r\n7:30 AM - 6:00 PM\r\n7:30 AM - 6:00 PM\r\n7:30 AM - 6:00 PM\r\n7:30 AM - 6:00 PM\r\n7:30 AM - 12:00 PM\r\nCLOSED",
            "hoursDay": "Monday\r\nTuesday\r\nWednesday\r\nThursday\r\nFriday\r\nSaturday\r\nSunday",
            "regionId": "0",
            "latitude": "-33.141172000000000",
            "longitude": "136.419543000000000",
            "locationNumber": "65000539",
            "saleGroupId": "0",
            "christmasHours": "CLOSED\r\n7:30am - 12:00pm\r\nCLOSED\r\nCLOSED\r\n7:30am - 6:00pm\r\n7:30am - 6:00pm\r\n7:30am - 6:00pm\r\nCLOSED\r\n7:30am - 12:00pm\r\nCLOSED",
            "christmasHoursDay": "18 Apr\r\n19 Apr\r\n20 Apr\r\n21 Apr\r\n22 Apr\r\n23 Apr\r\n24 Apr\r\n25 Apr\r\n26 Apr\r\n27 Apr",
            "updateTimeStamp": "2025-04-11 15:06:26",
            "postcodeId": "13372",
            "storeUrl": "http://kimbaiga.com.au/?utm_source=igawebsite&utm_medium=tile&utm_campaign=store_locator&utm_content=cta_button",
            "updated": "0",
            "onlineShopUrl": "",
            "ecommerceUrl": ""
        },
        {
            "storeId": "14811",
            "retailerStoreId": "32843",
            "storeName": "IGA Local Grocer Kingston SE",
            "address": "32 Holland St\r\n",
            "suburb": "Kingston SE",
            "state": "SA",
            "postcode": "5275",
            "phone": "08 8767 2020",
            "fax": "",
            "hours": "8:00 AM - 6:00 PM\r\n8:00 AM - 6:00 PM\r\n8:00 AM - 6:00 PM\r\n8:00 AM - 6:00 PM\r\n8:00 AM - 6:00 PM\r\n8:30 AM - 4:00 PM\r\n9:00 AM - 4:00 PM",
            "hoursDay": "Monday\r\nTuesday\r\nWednesday\r\nThursday\r\nFriday\r\nSaturday\r\nSunday ",
            "regionId": null,
            "latitude": "-36.830147000000000",
            "longitude": "139.852722000000000",
            "locationNumber": "65838260",
            "saleGroupId": "0",
            "christmasHours": "8:00am - 5:00pm\r\n8:00am - 5:00pm\r\n8:00am - 5:00pm\r\n10:00am - 3:00pm\r\n8:00am - 6:00pm\r\n8:00am - 6:00pm\r\n8:00am - 6:00pm\r\n12:00pm - 4:00pm\r\n8:00am - 4:00pm\r\n8:00am - 4:00pm",
            "christmasHoursDay": "18 Apr\r\n19 Apr\r\n20 Apr\r\n21 Apr\r\n22 Apr\r\n23 Apr\r\n24 Apr\r\n25 Apr\r\n26 Apr\r\n27 Apr",
            "updateTimeStamp": "2025-04-11 15:06:28",
            "postcodeId": "12538",
            "storeUrl": "",
            "updated": "0",
            "onlineShopUrl": "",
            "ecommerceUrl": ""
        },
        {
            "storeId": "14812",
            "retailerStoreId": "18310",
            "storeName": "IGA Lameroo",
            "address": "68 Railway Terrace\r\n",
            "suburb": "Lameroo",
            "state": "SA",
            "postcode": "5302",
            "phone": "08 8576 3008",
            "fax": "",
            "hours": "7AM - 6PM\r\n7AM - 6PM\r\n7AM - 6PM\r\n7AM - 6PM\r\n7AM - 6PM\r\n8AM - 6PM\r\n6AM - 6PM",
            "hoursDay": "Monday\r\nTuesday\r\nWednesday\r\nThursday\r\nFriday\r\nSaturday\r\nSunday ",
            "regionId": null,
            "latitude": "-35.328915000000000",
            "longitude": "140.518723000000000",
            "locationNumber": "65002028",
            "saleGroupId": "0",
            "christmasHours": "9:00am - 2:00pm\r\n8:00am - 6:00pm\r\n8:00am  - 6:00pm\r\n8:00am - 6:00pm\r\n7:00am - 6:00pm\r\n7:00am - 6:00pm\r\n7:00am - 6:00pm\r\n8:00am - 6:00pm\r\n8:00am - 6:00pm\r\n8:00am - 6:00pm",
            "christmasHoursDay": "18 Apr\r\n19 Apr\r\n20 Apr\r\n21 Apr\r\n22 Apr\r\n23 Apr\r\n24 Apr\r\n25 Apr\r\n26 Apr\r\n27 Apr",
            "updateTimeStamp": "2025-04-11 15:06:30",
            "postcodeId": "12630",
            "storeUrl": "",
            "updated": "0",
            "onlineShopUrl": "",
            "ecommerceUrl": ""
        },
        {
            "storeId": "14813",
            "retailerStoreId": "14574",
            "storeName": "IGA Local Grocer Laura",
            "address": "47 Herbert Street\r\n",
            "suburb": "Laura",
            "state": "SA",
            "postcode": "5480",
            "phone": "08 8663 2255",
            "fax": "",
            "hours": "8:30AM - 6PM\r\n8:30AM - 6PM\r\n8:30AM - 6PM\r\n8:30AM - 6PM\r\n8:30AM - 6PM\r\n8:30AM - 2PM\r\n8:30AM - 2PM",
            "hoursDay": "Monday\r\nTuesday\r\nWednesday\r\nThursday\r\nFriday\r\nSaturday\r\nSunday ",
            "regionId": null,
            "latitude": "-33.185165000000000",
            "longitude": "138.300751000000000",
            "locationNumber": "65837100",
            "saleGroupId": "0",
            "christmasHours": "9:00pm - 12:00am\r\n8:00am - 2:00pm\r\n8:00am - 2:00pm\r\n8:00am - 2:00pm\r\n8:00am - 6:00pm\r\n8:00am - 6:00pm\r\n8:00am - 6:00pm\r\n11:00am - 2:00pm\r\n8:00am - 2:00pm\r\n8:00am - 2:00pm",
            "christmasHoursDay": "18 Apr\r\n19 Apr\r\n20 Apr\r\n21 Apr\r\n22 Apr\r\n23 Apr\r\n24 Apr\r\n25 Apr\r\n26 Apr\r\n27 Apr",
            "updateTimeStamp": "2025-04-11 15:06:30",
            "postcodeId": "13071",
            "storeUrl": "",
            "updated": "0",
            "onlineShopUrl": "",
            "ecommerceUrl": ""
        },
        {
            "storeId": "14817",
            "retailerStoreId": "11529",
            "storeName": "IGA Mallala",
            "address": "3 Wasleys Rd\r\n",
            "suburb": "Mallala",
            "state": "SA",
            "postcode": "5502",
            "phone": "08 8527 2010",
            "fax": "",
            "hours": "6:30 AM - 6:30 PM\r\n6:30 AM - 6:30 PM\r\n6:30 AM - 6:30 PM\r\n6:30 AM - 6:30 PM\r\n6:30 AM - 6:30 PM\r\n7:00 AM - 12:30 PM\r\n8:00 AM - 12:30 PM",
            "hoursDay": "Monday\r\nTuesday\r\nWednesday\r\nThursday\r\nFriday\r\nSaturday\r\nSunday",
            "regionId": null,
            "latitude": "-34.437775000000000",
            "longitude": "138.510284000000000",
            "locationNumber": "65082421",
            "saleGroupId": "0",
            "christmasHours": "8:00am - 12:00pm\r\n7:00am - 12:30pm\r\n8:00am - 12:30pm\r\nCLOSED\r\n6:30am - 6:30pm\r\n6:30am - 6:30pm\r\n6:30am - 6:30pm\r\nCLOSED\r\n7:00am - 12:30pm\r\n8:00am - 12:30pm",
            "christmasHoursDay": "18 Apr\r\n19 Apr\r\n20 Apr\r\n21 Apr\r\n22 Apr\r\n23 Apr\r\n24 Apr\r\n25 Apr\r\n26 Apr\r\n27 Apr",
            "updateTimeStamp": "2025-04-11 15:06:27",
            "postcodeId": "13115",
            "storeUrl": "",
            "updated": "0",
            "onlineShopUrl": "",
            "ecommerceUrl": ""
        },
        {
            "storeId": "14819",
            "retailerStoreId": "72051",
            "storeName": "Mannum Green IGA Fresh",
            "address": "Shop 12/67 Adelaide Road",
            "suburb": "Mannum",
            "state": "SA",
            "postcode": "5238",
            "phone": "08 8569 2406",
            "fax": "",
            "hours": "7:00 AM - 7:00 PM\r\n7:00 AM - 7:00 PM\r\n7:00 AM - 7:00 PM\r\n7:00 AM - 8:00 PM\r\n7:00 AM - 8:00 PM\r\n7:00 AM - 8:00 PM\r\n8:00 AM - 7:00 PM",
            "hoursDay": "Monday\r\nTuesday\r\nWednesday\r\nThursday\r\nFriday\r\nSaturday\r\nSunday\r\n",
            "regionId": null,
            "latitude": "-34.895500180000000",
            "longitude": "139.259002700000000",
            "locationNumber": "65837330",
            "saleGroupId": "0",
            "christmasHours": "",
            "christmasHoursDay": "Please contact the store for Easter opening hours.",
            "updateTimeStamp": "2025-04-11 15:06:03",
            "postcodeId": "12334",
            "storeUrl": "https://mannumgreenigafresh.com/?utm_source=igawebsite&utm_medium=tile&utm_campaign=store_locator&utm_content=cta_button",
            "updated": "0",
            "onlineShopUrl": "https://mannumgreeniga.myfoodlink.com/?utm_source=igawebsite&utm_medium=tile&utm_campaign=store_locator&utm_content=cta_button",
            "ecommerceUrl": ""
        },
        {
            "storeId": "14820",
            "retailerStoreId": "",
            "storeName": "IGA Meningie",
            "address": "46 Princes Highway\n",
            "suburb": "Meningie",
            "state": "SA",
            "postcode": "5264",
            "phone": "08 8575 1431",
            "fax": "",
            "hours": "8:00 AM - 6:00 PM\r\n8:00 AM - 6:00 PM\r\n8:00 AM - 6:00 PM\r\n8:00 AM - 6:00 PM\r\n8:00 AM - 6:00 PM\r\n8:00 AM - 6:00 PM\r\nClosed",
            "hoursDay": "Monday\r\nTuesday\r\nWednesday\r\nThursday\r\nFriday\r\nSaturday\r\nSunday",
            "regionId": "0",
            "latitude": "-35.686904000000000",
            "longitude": "139.338752000000000",
            "locationNumber": "2005",
            "saleGroupId": "0",
            "christmasHours": "",
            "christmasHoursDay": "Please contact the store for Easter opening hours.",
            "updateTimeStamp": "2025-04-10 13:33:09",
            "postcodeId": "12464",
            "storeUrl": "",
            "updated": "0",
            "onlineShopUrl": "",
            "ecommerceUrl": ""
        },
        {
            "storeId": "14829",
            "retailerStoreId": "5164",
            "storeName": "IGA Local Grocer Orroroo",
            "address": "18-20 Second Street\r\n",
            "suburb": "Orroroo",
            "state": "SA",
            "postcode": "5431",
            "phone": "08 8658 1092",
            "fax": "",
            "hours": "7:30 AM - 6:00 PM\r\n7:30 AM - 6:00 PM\r\n7:30 AM - 6:00 PM\r\n7:30 AM - 6:00 PM\r\n7:30 AM - 6:00 PM\r\n8:30 AM - 1:00 PM\r\n8:30 AM - 1:00 PM",
            "hoursDay": "Monday\r\nTuesday\r\nWednesday\r\nThursday\r\nFriday\r\nSaturday\r\nSunday",
            "regionId": null,
            "latitude": "-32.734081000000000",
            "longitude": "138.613022000000000",
            "locationNumber": "65083157",
            "saleGroupId": "0",
            "christmasHours": "8:30am - 2:00pm\r\n8:30am - 1:00pm\r\n8:30am - 1:00pm\r\n10:00am - 1:00pm\r\n7:30am - 6:00pm\r\n7:30am - 6:00pm\r\n7:30am - 6:00pm\r\n10:00am - 1:00pm\r\n8:30am - 1:00pm\r\n8:30am - 1:00pm",
            "christmasHoursDay": "18 Apr\r\n19 Apr\r\n20 Apr\r\n21 Apr\r\n22 Apr\r\n23 Apr\r\n24 Apr\r\n25 Apr\r\n26 Apr\r\n27 Apr",
            "updateTimeStamp": "2025-04-11 15:06:29",
            "postcodeId": "12926",
            "storeUrl": "",
            "updated": "0",
            "onlineShopUrl": "",
            "ecommerceUrl": ""
        },
        {
            "storeId": "14832",
            "retailerStoreId": "43166",
            "storeName": "Penneshaw IGA",
            "address": "Lot 149 Middle Terrace\n",
            "suburb": "Penneshaw",
            "state": "SA",
            "postcode": "5222",
            "phone": "08 8535 2801",
            "fax": "",
            "hours": "8:00 AM - 8:00 PM\r\n8:00 AM - 8:00 PM\r\n8:00 AM - 8:00 PM\r\n8:00 AM - 8:00 PM\r\n8:00 AM - 8:00 PM\r\n8:00 AM - 8:00 PM\r\n8:00 AM - 8:00 PM",
            "hoursDay": "Monday\r\nTuesday\r\nWednesday\r\nThursday\r\nFriday\r\nSaturday\r\nSunday",
            "regionId": "0",
            "latitude": "-35.718198740000000",
            "longitude": "137.938204400000000",
            "locationNumber": "65841140",
            "saleGroupId": "0",
            "christmasHours": "8:00am - 8:00pm\r\n8:00am - 8:00pm\r\n8:00am - 8:00pm\r\n8:00am - 8:00pm\r\n8:00am - 8:00pm\r\n8:00am - 8:00pm\r\n8:00am - 8:00pm\r\n8:00am - 8:00pm\r\n8:00am - 8:00pm\r\n8:00am - 8:00pm",
            "christmasHoursDay": "18 Apr\r\n19 Apr\r\n20 Apr\r\n21 Apr\r\n22 Apr\r\n23 Apr\r\n24 Apr\r\n25 Apr\r\n26 Apr\r\n27 Apr",
            "updateTimeStamp": "2025-04-11 15:06:31",
            "postcodeId": "12269",
            "storeUrl": "https://penneshawiga.com.au/?utm_source=igawebsite&utm_medium=tile&utm_campaign=store_locator&utm_content=cta_button",
            "updated": "0",
            "onlineShopUrl": "",
            "ecommerceUrl": "",
            "id": "4c3d105c-d05f-4cc1-abed-495734c30fdd",
            "status": "Active",
            "type": "Regular",
            "email": "penneshawiga@internode.on.net",
            "siteId": "8c744d67-1ce2-4e4b-81d1-e29966f362a7",
            "categoryHierarchyId": "93c41c59-c564-4639-ae57-2cff46842aa0",
            "shoppingModes": [
                "planning",
                "pickup"
            ]
        },
        {
            "storeId": "14834",
            "retailerStoreId": "39927",
            "storeName": "Port Broughton IGA",
            "address": "27 Harvey Street\r\n",
            "suburb": "Port Broughton",
            "state": "SA",
            "postcode": "5522",
            "phone": "08 8635 2773",
            "fax": "",
            "hours": "8:00 AM - 6:00 PM\r\n8:00 AM - 6:00 PM\r\n8:00 AM - 6:00 PM\r\n8:00 AM - 6:00 PM\r\n8:00 AM - 6:00 PM\r\n8:00 AM - 5:00 PM\r\n10:00 AM - 1:30 PM",
            "hoursDay": "Monday\r\nTuesday\r\nWednesday\r\nThursday\r\nFriday\r\nSaturday\r\nSunday",
            "regionId": null,
            "latitude": "-33.600521000000000",
            "longitude": "137.931488000000000",
            "locationNumber": "65082525",
            "saleGroupId": "0",
            "christmasHours": "CLOSED\r\n8:00AM - 5:00pm\r\n9:00am - 4:00pm\r\n9:00am - 4:00pm\r\n8:00am - 6:00pm \r\n8:00am - 6:00pm \r\n8:00am - 6:00pm \r\n11:00pm - 4:00pm\r\n8:00am - 5:00pm\r\n9:00am - 3:00pm ",
            "christmasHoursDay": "18 Apr\r\n19 Apr\r\n20 Apr\r\n21 Apr\r\n22 Apr\r\n23 Apr\r\n24 Apr\r\n25 Apr\r\n26 Apr\r\n27 Apr",
            "updateTimeStamp": "2025-04-11 15:06:28",
            "postcodeId": "13126",
            "storeUrl": "",
            "updated": "0",
            "onlineShopUrl": "",
            "ecommerceUrl": "",
            "id": "cc7d6dc4-c082-4d4d-9df3-acd7594d66be",
            "status": "Active",
            "type": "Regular",
            "email": "portbroughtoniga@outlook.com",
            "siteId": "8c744d67-1ce2-4e4b-81d1-e29966f362a7",
            "categoryHierarchyId": "93c41c59-c564-4639-ae57-2cff46842aa0",
            "shoppingModes": [
                "planning",
                "pickup"
            ]
        },
        {
            "storeId": "14835",
            "retailerStoreId": "22078",
            "storeName": "IGA Local Grocer Port Vincent",
            "address": "2 Main St\r\n",
            "suburb": "Port Vincent",
            "state": "SA",
            "postcode": "5581",
            "phone": "08 8853 7034",
            "fax": "",
            "hours": "8:00 AM - 5:30 PM\r\n8:00 AM - 5:30 PM\r\n8:00 AM - 5:30 PM\r\n8:00 AM - 5:30 PM\r\n8:00 AM - 5:30 PM\r\n8:00 AM - 5:00 PM\r\n8:00 AM - 4:00 PM",
            "hoursDay": "Monday\r\nTuesday\r\nWednesday\r\nThursday\r\nFriday\r\nSaturday\r\nSunday",
            "regionId": null,
            "latitude": "-34.777313000000000",
            "longitude": "137.861038000000000",
            "locationNumber": "65831118",
            "saleGroupId": "0",
            "christmasHours": "9:00am - 4:30pm\r\n8:30am - 4:30pm\r\n9:00am - 4:00pm\r\n9:00am - 4:00pm\r\n8:00am - 5:30pm\r\n8:00am - 5:30pm\r\n8:00am - 5:30pm\r\n9:30am - 4:00pm\r\n8:00am - 5:00pm\r\n8:30am - 5:00pm",
            "christmasHoursDay": "18 Apr\r\n19 Apr\r\n20 Apr\r\n21 Apr\r\n22 Apr\r\n23 Apr\r\n24 Apr\r\n25 Apr\r\n26 Apr\r\n27 Apr",
            "updateTimeStamp": "2025-04-11 15:06:32",
            "postcodeId": "13254",
            "storeUrl": "",
            "updated": "0",
            "onlineShopUrl": "",
            "ecommerceUrl": ""
        },
        {
            "storeId": "14836",
            "retailerStoreId": "7021",
            "storeName": "IGA Local Grocer Quorn",
            "address": "2 Seventh Street\r\n",
            "suburb": "Quorn",
            "state": "SA",
            "postcode": "5433",
            "phone": "08 8648 6081",
            "fax": "",
            "hours": "7:00 AM - 8:00 PM\r\n7:00 AM - 8:00 PM\r\n7:00 AM - 8:00 PM\r\n7:00 AM - 8:00 PM\r\n7:00 AM - 8:00 PM\r\n7:00 AM - 8:00 PM\r\n7:00 AM - 8:00 PM",
            "hoursDay": "Monday\r\nTuesday\r\nWednesday\r\nThursday\r\nFriday\r\nSaturday\r\nSunday",
            "regionId": null,
            "latitude": "-32.345950000000000",
            "longitude": "138.042200000000000",
            "locationNumber": "65830023",
            "saleGroupId": "0",
            "christmasHours": "",
            "christmasHoursDay": "Please contact the store for Easter opening hours.",
            "updateTimeStamp": "2025-04-10 13:33:09",
            "postcodeId": "12946",
            "storeUrl": "",
            "updated": "0",
            "onlineShopUrl": "",
            "ecommerceUrl": ""
        },
        {
            "storeId": "14838",
            "retailerStoreId": "16190",
            "storeName": "IGA Riverton",
            "address": "51 Torrens Road\r\n",
            "suburb": "Riverton",
            "state": "SA",
            "postcode": "5412",
            "phone": "08 8847 2061",
            "fax": "",
            "hours": "8:30 AM - 6:00 PM\r\n8:30 AM - 6:00 PM\r\n8:30 AM - 6:00 PM\r\n8:30 AM - 6:00 PM\r\n8:30 AM - 6:00 PM\r\n8:00 AM - 5:00 PM\r\n9:00 AM - 4:00 PM",
            "hoursDay": "Monday\r\nTuesday\r\nWednesday\r\nThursday\r\nFriday\r\nSaturday\r\nSunday",
            "regionId": null,
            "latitude": "-34.160282000000000",
            "longitude": "138.747303000000000",
            "locationNumber": "65840360",
            "saleGroupId": "0",
            "christmasHours": "",
            "christmasHoursDay": "Please contact the store for Easter opening hours.",
            "updateTimeStamp": "2025-04-10 13:33:09",
            "postcodeId": "12849",
            "storeUrl": "",
            "updated": "0",
            "onlineShopUrl": "",
            "ecommerceUrl": "",
            "id": "8c5c203a-483b-4649-af2d-d46833c90af9",
            "status": "Active",
            "type": "Regular",
            "email": "igariverton@gmail.com",
            "siteId": "8c744d67-1ce2-4e4b-81d1-e29966f362a7",
            "categoryHierarchyId": "93c41c59-c564-4639-ae57-2cff46842aa0",
            "shoppingModes": [
                "planning",
                "delivery",
                "pickup"
            ]
        },
        {
            "storeId": "14848",
            "retailerStoreId": "38671",
            "storeName": "IGA Local Grocer Two Wells ",
            "address": "96 Old Port Wakefield Rd\r\n",
            "suburb": "Two Wells",
            "state": "SA",
            "postcode": "5501",
            "phone": "08 8520 2760",
            "fax": "",
            "hours": "8:30 AM - 7:00 PM\r\n8:30 AM - 7:00 PM\r\n8:30 AM - 7:00 PM\r\n8:30 AM - 7:00 PM\r\n8:30 AM - 7:00 PM\r\n8:30 AM - 6:30 PM\r\n8:30 AM - 5:00 PM",
            "hoursDay": "Monday\r\nTuesday\r\nWednesday\r\nThursday\r\nFriday\r\nSaturday\r\nSunday",
            "regionId": null,
            "latitude": "-34.594157950000000",
            "longitude": "138.515185100000000",
            "locationNumber": "65071822",
            "saleGroupId": "0",
            "christmasHours": "",
            "christmasHoursDay": "Please contact the store for Easter opening hours.",
            "updateTimeStamp": "2025-04-11 15:06:03",
            "postcodeId": "13108",
            "storeUrl": "",
            "updated": "0",
            "onlineShopUrl": "",
            "ecommerceUrl": ""
        },
        {
            "storeId": "17651",
            "retailerStoreId": "",
            "storeName": "Snowtown IGA",
            "address": "36 Railway Terrace",
            "suburb": "Snowtown",
            "state": "SA",
            "postcode": "5520",
            "phone": "08 8865 2070",
            "fax": "",
            "hours": "8:30 AM - 5:30 PM\r\n8:30 AM - 5:30 PM\r\n8:30 AM - 5:30 PM\r\n8:30 AM - 5:30 PM\r\n8:30 AM - 5:30 PM\r\n9:00 AM - 1:00 PM\r\n11:00 AM - 1:00 PM\r\n",
            "hoursDay": "Monday\r\nTuesday\r\nWednesday\r\nThursday\r\nFriday\r\nSaturday\r\nSunday",
            "regionId": null,
            "latitude": "-33.782494000000000",
            "longitude": "138.214377000000000",
            "locationNumber": "65083170",
            "saleGroupId": "0",
            "christmasHours": "",
            "christmasHoursDay": "Please contact the store for Easter opening hours.",
            "updateTimeStamp": "2025-04-10 13:33:09",
            "postcodeId": "13122",
            "storeUrl": "",
            "updated": "0",
            "onlineShopUrl": "",
            "ecommerceUrl": ""
        },
        {
            "storeId": "18947",
            "retailerStoreId": "68516",
            "storeName": "Wilpena Pound IGA Xpress",
            "address": "Wilpena Pound Resort, Wilpena Road",
            "suburb": "Hawker",
            "state": "SA",
            "postcode": "5434",
            "phone": "08 8648 0162",
            "fax": "",
            "hours": "8AM - 6PM\r\n8AM - 6PM\r\n8AM - 6PM\r\n8AM - 6PM\r\n8AM - 6PM\r\n8AM - 6PM\r\n8AM - 6PM",
            "hoursDay": "Monday\r\nTuesday\r\nWednesday\r\nThursday\r\nFriday\r\nSaturday\r\nSunday",
            "regionId": "0",
            "latitude": "-31.887290000000000",
            "longitude": "138.422880000000000",
            "locationNumber": "0",
            "saleGroupId": "0",
            "christmasHours": "",
            "christmasHoursDay": "Please contact the store for Easter opening hours.",
            "updateTimeStamp": "2025-04-10 13:33:09",
            "postcodeId": "12954",
            "storeUrl": "",
            "updated": "0",
            "onlineShopUrl": "",
            "ecommerceUrl": ""
        },
        {
            "storeId": "19622",
            "retailerStoreId": "7042",
            "storeName": "IGA Stansbury",
            "address": "2 St Vincent Street",
            "suburb": "Stansbury",
            "state": "SA",
            "postcode": "5582",
            "phone": "08 8852 4208",
            "fax": "",
            "hours": "8:00 AM - 5:30 PM\r\n8:00 AM - 5:30 PM\r\n8:00 AM - 5:30 PM\r\n8:00 AM - 5:30 PM\r\n8:00 AM - 5:30 PM\r\n8:00 AM - 4:00 PM\r\n8:00 AM - 3:00 PM",
            "hoursDay": "Monday\r\nTuesday\r\nWednesday\r\nThursday\r\nFriday\r\nSaturday\r\nSunday",
            "regionId": null,
            "latitude": "-34.908930000000000",
            "longitude": "137.796520000000000",
            "locationNumber": "65843800",
            "saleGroupId": "0",
            "christmasHours": "9:00am - 4:00pm\r\n8:30am - 4:00pm\r\n9:00am - 4:00pm\r\n9:00am - 4:00pm\r\n8:00am - 5:30pm\r\n8:00am - 5:30pm\r\n8:00am - 5:30pm\r\n10:00am - 3:00pm\r\n8:00am - 5:00pm\r\n8:30am - 4:00pm",
            "christmasHoursDay": "18 Apr\r\n19 Apr\r\n20 Apr\r\n21 Apr\r\n22 Apr\r\n23 Apr\r\n24 Apr\r\n25 Apr\r\n26 Apr\r\n27 Apr",
            "updateTimeStamp": "2025-04-11 15:06:32",
            "postcodeId": "13257",
            "storeUrl": "",
            "updated": "0",
            "onlineShopUrl": "",
            "ecommerceUrl": ""
        },
        {
            "storeId": "21300",
            "retailerStoreId": "32487",
            "storeName": "IGA Local Grocer Lyndoch",
            "address": "Barossa Valley Way",
            "suburb": "Lyndoch",
            "state": "SA",
            "postcode": "5351",
            "phone": "08 8524 4217",
            "fax": "",
            "hours": "7:00 AM - 6:00 PM\r\n7:00 AM - 6:00 PM\r\n7:00 AM - 6:00 PM\r\n7:00 AM - 6:00 PM\r\n7:00 AM - 6:00 PM\r\n7:00 AM - 5:00 PM\r\n8:00 AM - 1:00 PM",
            "hoursDay": "Monday\r\nTuesday\r\nWednesday\r\nThursday\r\nFriday\r\nSaturday\r\nSunday",
            "regionId": null,
            "latitude": "-34.592130000000000",
            "longitude": "138.876950000000000",
            "locationNumber": "0",
            "saleGroupId": "0",
            "christmasHours": "",
            "christmasHoursDay": "Please contact the store for Easter opening hours.",
            "updateTimeStamp": "2025-04-10 13:33:09",
            "postcodeId": "12747",
            "storeUrl": "",
            "updated": "0",
            "onlineShopUrl": "",
            "ecommerceUrl": ""
        },
        {
            "storeId": "22136",
            "retailerStoreId": "",
            "storeName": "IGA Edithburgh",
            "address": "11 Edith St",
            "suburb": "Edithburgh",
            "state": "SA",
            "postcode": "5583",
            "phone": "(08) 8151 1348",
            "fax": "",
            "hours": "8:30 AM - 5:30 PM\r\n8:30 AM - 5:30 PM\r\n8:30 AM - 5:30 PM\r\n8:30 AM - 5:30 PM\r\n8:30 AM - 5:30 PM\r\n8:30 AM - 5:00 PM\r\n8:30 AM - 4:00 PM",
            "hoursDay": "Monday\r\nTuesday\r\nWednesday\r\nThursday\r\nFriday\r\nSaturday\r\nSunday",
            "regionId": null,
            "latitude": "-35.085120000000000",
            "longitude": "137.746301000000000",
            "locationNumber": "0",
            "saleGroupId": "0",
            "christmasHours": "9:00am - 4:30pm\r\n8:30am - 4:30pm\r\n9:00am - 4:00pm\r\n9:00am - 4:00pm\r\n8:00am - 5:30pm\r\n8:00am - 5:30pm\r\n8:00am - 5:30pm\r\n9:30am - 4:00pm\r\n8:00am - 5:00pm\r\n8:30am - 5:00pm",
            "christmasHoursDay": "18 Apr\r\n19 Apr\r\n20 Apr\r\n21 Apr\r\n22 Apr\r\n23 Apr\r\n24 Apr\r\n25 Apr\r\n26 Apr\r\n27 Apr",
            "updateTimeStamp": "2025-04-11 15:06:32",
            "postcodeId": "13259",
            "storeUrl": "",
            "updated": "0",
            "onlineShopUrl": "",
            "ecommerceUrl": ""
        },
        {
            "storeId": "22316",
            "retailerStoreId": "",
            "storeName": "Leigh Creek Emporium and IGA Local Grocer",
            "address": "",
            "suburb": "Leigh Creek",
            "state": "SA",
            "postcode": "5731",
            "phone": "",
            "fax": "",
            "hours": "",
            "hoursDay": "",
            "regionId": null,
            "latitude": "-30.595721000000000",
            "longitude": "138.401853000000000",
            "locationNumber": "0",
            "saleGroupId": "0",
            "christmasHours": "",
            "christmasHoursDay": "Please contact the store for Easter opening hours.",
            "updateTimeStamp": "2025-04-10 13:33:09",
            "postcodeId": "13608",
            "storeUrl": "",
            "updated": "0",
            "onlineShopUrl": "",
            "ecommerceUrl": ""
        }
    ]
}