{
    "metadata": {
        "number_of_stores": 80,
        "company": "iga",
        "state": "TAS",
        "date_scraped": "2025-08-07"
    },
    "stores": [
        {
            "storeId": "14895",
            "retailerStoreId": "",
            "storeName": "IGA Xpress Burnie",
            "address": "56 West Park Grove\r\n",
            "suburb": "Burnie",
            "state": "TAS",
            "postcode": "7320",
            "phone": "03 6431 2494",
            "fax": "",
            "hours": "8:00AM - 7:00PM\r\n8:00AM - 7:00PM\r\n8:00AM - 7:00PM\r\n8:00AM - 7:00PM\r\n8:00AM - 7:00PM\r\n8:00AM - 7:00PM\r\n8:00AM - 6:00PM",
            "hoursDay": "Monday\r\nTuesday\r\nWednesday\r\nThursday\r\nFriday\r\nSaturday\r\nSunday",
            "regionId": null,
            "latitude": "-41.054381000000000",
            "longitude": "145.888481000000000",
            "tag": "",
            "locationNumber": "1802",
            "saleGroupId": "0",
            "christmasHours": "",
            "christmasHoursDay": "Please contact the store for Easter opening hours.",
            "updateTimeStamp": "2025-04-10 13:33:09",
            "postcodeId": "16050",
            "storeUrl": "https://www.igatas.com.au/iga-x-press-burnie-(west-park-grove)?utm_source=igawebsite&utm_medium=tile&utm_campaign=store_locator&utm_content=cta_button",
            "updated": "0",
            "onlineShopUrl": "",
            "ecommerceUrl": ""
        },
        {
            "storeId": "14919",
            "retailerStoreId": "",
            "storeName": "IGA X-press Wivenhoe",
            "address": "22 Main Road\r\n",
            "suburb": "Wivenhoe",
            "state": "TAS",
            "postcode": "7320",
            "phone": "03 6431 3862",
            "fax": "",
            "hours": "7:00AM - 6:30PM\r\n7:00AM - 6:30PM\r\n7:00AM - 6:30PM\r\n7:00AM - 6:30PM\r\n7:00AM - 6:30PM\r\n7:00AM - 5:00PM\r\n9:00AM - 5:00PM\r\n",
            "hoursDay": "Monday\r\nTuesday\r\nWednesday\r\nThursday\r\nFriday\r\nSaturday\r\nSunday",
            "regionId": null,
            "latitude": "-41.067798000000000",
            "longitude": "145.932680000000000",
            "tag": "",
            "locationNumber": "1907",
            "saleGroupId": "0",
            "christmasHours": "",
            "christmasHoursDay": "Please contact the store for Easter opening hours.",
            "updateTimeStamp": "2025-04-10 13:33:09",
            "postcodeId": "16057",
            "storeUrl": "https://www.igatas.com.au/iga-x-press-wivenhoe?utm_source=igawebsite&utm_medium=tile&utm_campaign=store_locator&utm_content=cta_button",
            "updated": "0",
            "onlineShopUrl": "",
            "ecommerceUrl": ""
        },
        {
            "storeId": "14864",
            "retailerStoreId": "",
            "storeName": "IGA Everyday Burnie",
            "address": "11a Wiseman Street\r\n",
            "suburb": "Burnie",
            "state": "TAS",
            "postcode": "7320",
            "phone": "03 6433 3475",
            "fax": "",
            "hours": "8:00AM - 7:00PM\r\n8:00AM - 7:00PM\r\n8:00AM - 7:00PM\r\n8:00AM - 7:00PM\r\n8:00AM - 7:00PM\r\n8:00AM - 7:00PM\r\n8:00AM - 6:00PM",
            "hoursDay": "Monday\r\nTuesday\r\nWednesday\r\nThursday\r\nFriday\r\nSaturday\r\nSunday",
            "regionId": null,
            "latitude": "-41.071470000000000",
            "longitude": "145.883954000000000",
            "tag": "",
            "locationNumber": "1452",
            "saleGroupId": "0",
            "christmasHours": "",
            "christmasHoursDay": "Please contact the store for Easter opening hours.",
            "updateTimeStamp": "2025-04-10 13:33:09",
            "postcodeId": "16039",
            "storeUrl": "https://www.igatas.com.au/iga-everyday-burnie?utm_source=igawebsite&utm_medium=tile&utm_campaign=store_locator&utm_content=cta_button",
            "updated": "0",
            "onlineShopUrl": "",
            "ecommerceUrl": ""
        },
        {
            "storeId": "14913",
            "retailerStoreId": "",
            "storeName": "IGA Xpress Somerset",
            "address": "39 Wragg Street\r\n",
            "suburb": "Somerset",
            "state": "TAS",
            "postcode": "7322",
            "phone": "03 6435 1936",
            "fax": "",
            "hours": "7:30AM - 7:30PM\r\n7:30AM - 7:30PM\r\n7:30AM - 7:30PM\r\n7:30AM - 7:30PM\r\n7:30AM - 7:30PM\r\n7:30AM - 7:30PM\r\n7:30AM - 7:30PM",
            "hoursDay": "Monday\r\nTuesday\r\nWednesday\r\nThursday\r\nFriday\r\nSaturday\r\nSunday",
            "regionId": null,
            "latitude": "-41.040302000000000",
            "longitude": "145.831060000000000",
            "tag": "",
            "locationNumber": "1884",
            "saleGroupId": "0",
            "christmasHours": "",
            "christmasHoursDay": "Please contact the store for Easter opening hours.",
            "updateTimeStamp": "2025-04-10 13:33:09",
            "postcodeId": "16093",
            "storeUrl": "http://www.igatas.com.au/?utm_source=igawebsite&utm_medium=tile&utm_campaign=store_locator&utm_content=cta_button",
            "updated": "0",
            "onlineShopUrl": "",
            "ecommerceUrl": ""
        },
        {
            "storeId": "14881",
            "retailerStoreId": "",
            "storeName": "IGA Everyday Somerset",
            "address": "51 Wragg Street\r\n",
            "suburb": "Somerset",
            "state": "TAS",
            "postcode": "7322",
            "phone": "03 6435 1190",
            "fax": "",
            "hours": "7:30AM - 8:00PM\r\n7:30AM - 8:00PM\r\n7:30AM - 8:00PM\r\n7:30AM - 8:00PM\r\n7:30AM - 8:00PM\r\n8:00AM - 8:00PM\r\n8:00AM - 8:00PM",
            "hoursDay": "Monday\r\nTuesday\r\nWednesday\r\nThursday\r\nFriday\r\nSaturday\r\nSunday",
            "regionId": null,
            "latitude": "-41.039735000000000",
            "longitude": "145.830384000000000",
            "tag": "",
            "locationNumber": "1473",
            "saleGroupId": "0",
            "christmasHours": "",
            "christmasHoursDay": "Please contact the store for Easter opening hours.",
            "updateTimeStamp": "2025-04-10 13:33:09",
            "postcodeId": "16093",
            "storeUrl": "",
            "updated": "0",
            "onlineShopUrl": "",
            "ecommerceUrl": ""
        },
        {
            "storeId": "14917",
            "retailerStoreId": "",
            "storeName": "IGA Xpress West Hobart (Hill Street Grocer)",
            "address": "107 Hill Street\r\n",
            "suburb": "West Hobart",
            "state": "TAS",
            "postcode": "7000",
            "phone": "03 6234 6849",
            "fax": "",
            "hours": "7:30AM - 7:30PM\r\n7:30AM - 7:30PM\r\n7:30AM - 7:30PM\r\n7:30AM - 7:30PM\r\n7:30AM - 7:30PM\r\n7:30AM - 7:30PM\r\n7:30AM - 7:30PM",
            "hoursDay": "Monday\r\nTuesday\r\nWednesday\r\nThursday\r\nFriday\r\nSaturday\r\nSunday",
            "regionId": null,
            "latitude": "-42.879612000000000",
            "longitude": "147.311511000000000",
            "tag": "",
            "locationNumber": "1905",
            "saleGroupId": "0",
            "christmasHours": "",
            "christmasHoursDay": "Please contact the store for Easter opening hours.",
            "updateTimeStamp": "2025-04-10 13:33:09",
            "postcodeId": "15378",
            "storeUrl": "",
            "updated": "0",
            "onlineShopUrl": "",
            "ecommerceUrl": ""
        },
        {
            "storeId": "14937",
            "retailerStoreId": "",
            "storeName": "IGA Xpress New Town (Hill Street Grocer)",
            "address": "2 Augusta Road\n",
            "suburb": "Newtown",
            "state": "TAS",
            "postcode": "7008",
            "phone": "03 6228 2908",
            "fax": "",
            "hours": "8.00am-8.00pm\r\n8.00am-8.00pm\r\n8.00am-8.00pm\r\n8.00am-8.00pm\r\n8.00am-8.00pm\r\n8.00am-8.00pm\r\n8.00am-7.00pm",
            "hoursDay": "Monday\r\nTuesday\r\nWednesday\r\nThursday\r\nFriday\r\nSaturday\r\nSunday",
            "regionId": "0",
            "latitude": "-42.867810000000000",
            "longitude": "147.311404000000000",
            "tag": "",
            "locationNumber": "1858",
            "saleGroupId": "0",
            "christmasHours": "",
            "christmasHoursDay": "Please contact the store for Easter opening hours.",
            "updateTimeStamp": "2025-04-10 13:33:09",
            "postcodeId": "15376",
            "storeUrl": "",
            "updated": "0",
            "onlineShopUrl": "",
            "ecommerceUrl": ""
        },
        {
            "storeId": "14905",
            "retailerStoreId": "",
            "storeName": "IGA Xpress Lindisfarne",
            "address": "121 East Derwent Highway\n",
            "suburb": "Lindisfarne",
            "state": "TAS",
            "postcode": "7015",
            "phone": "03 6243 9348",
            "fax": "",
            "hours": "8.30am-7.30pm\r\n8.30am-7.30pm\r\n8.30am-7.30pm\r\n8.30am-7.30pm\r\n8.30am-7.30pm\r\n8.30am-7.30pm\r\n8.30am-7.30pm",
            "hoursDay": "Monday\r\nTuesday\r\nWednesday\r\nThursday\r\nFriday\r\nSaturday\r\nSunday",
            "regionId": "0",
            "latitude": "-42.850886000000000",
            "longitude": "147.361690000000000",
            "tag": "",
            "locationNumber": "1846",
            "saleGroupId": "0",
            "christmasHours": "",
            "christmasHoursDay": "Please contact the store for Easter opening hours.",
            "updateTimeStamp": "2025-04-10 13:33:09",
            "postcodeId": "15404",
            "storeUrl": "https://www.igatas.com.au/iga-x-press-lindisfarne?utm_source=igawebsite&utm_medium=tile&utm_campaign=store_locator&utm_content=cta_button",
            "updated": "0",
            "onlineShopUrl": "",
            "ecommerceUrl": ""
        },
        {
            "storeId": "22233",
            "retailerStoreId": "",
            "storeName": "IGA Local Grocer Risdon Vale",
            "address": "8/38 Sugarloaf Rd",
            "suburb": "Risdon Vale",
            "state": "TAS",
            "postcode": "7016",
            "phone": "",
            "fax": "",
            "hours": "7:00 AM - 07:30 PM\r\n7:00 AM - 07:30 PM\r\n7:00 AM - 07:30 PM\r\n7:00 AM - 07:30 PM\r\n7:00 AM - 07:30 PM\r\n7:00 AM - 07:30 PM\r\n8:00 AM - 07:30 PM",
            "hoursDay": "Monday\r\nTuesday\r\nWednesday\r\nThursday\r\nFriday\r\nSaturday\r\nSunday",
            "regionId": null,
            "latitude": "-42.813110000000000",
            "longitude": "147.351560000000000",
            "tag": "",
            "locationNumber": "0",
            "saleGroupId": "0",
            "christmasHours": "",
            "christmasHoursDay": "Please contact the store for Easter opening hours.",
            "updateTimeStamp": "2025-04-10 13:33:09",
            "postcodeId": null,
            "storeUrl": "",
            "updated": "0",
            "onlineShopUrl": "",
            "ecommerceUrl": ""
        },
        {
            "storeId": "14902",
            "retailerStoreId": "",
            "storeName": "IGA Xpress Launceston",
            "address": "44 Invermay Road\n",
            "suburb": "Launceston",
            "state": "TAS",
            "postcode": "7250",
            "phone": "03 6331 3795",
            "fax": "",
            "hours": "6.30am-7.00pm\r\n6.30am-7.00pm\r\n6.30am-7.00pm\r\n6.30am-7.00pm\r\n6.00am-8.00pm\r\n7.00am-7.00pm\r\n7.30am-7.00pm",
            "hoursDay": "Monday\r\nTuesday\r\nWednesday\r\nThursday\r\nFriday\r\nSaturday\r\nSunday",
            "regionId": "0",
            "latitude": "-41.421664000000000",
            "longitude": "147.135724000000000",
            "tag": "",
            "locationNumber": "1840",
            "saleGroupId": "0",
            "christmasHours": "",
            "christmasHoursDay": "Please contact the store for Easter opening hours.",
            "updateTimeStamp": "2025-04-10 13:33:09",
            "postcodeId": "15734",
            "storeUrl": "http://www.igatas.com.au/?utm_source=igawebsite&utm_medium=tile&utm_campaign=store_locator&utm_content=cta_button",
            "updated": "0",
            "onlineShopUrl": "",
            "ecommerceUrl": ""
        },
        {
            "storeId": "14862",
            "retailerStoreId": "",
            "storeName": "IGA Everyday Launceston",
            "address": "5 Brougham Street\n",
            "suburb": "Launceston",
            "state": "TAS",
            "postcode": "7250",
            "phone": "03 6331 1185",
            "fax": "",
            "hours": "6.30am-8.00pm\r\n6.30am-8.00pm\r\n6.30am-8.00pm\r\n6.30am-8.00pm\r\n6.30am-8.00pm\r\n6.30am-8.00pm\r\n8.00am-8.00pm",
            "hoursDay": "Monday\r\nTuesday\r\nWednesday\r\nThursday\r\nFriday\r\nSaturday\r\nSunday",
            "regionId": "0",
            "latitude": "-41.449168000000000",
            "longitude": "147.131975000000000",
            "tag": "",
            "locationNumber": "1451",
            "saleGroupId": "0",
            "christmasHours": "",
            "christmasHoursDay": "Please contact the store for Easter opening hours.",
            "updateTimeStamp": "2025-04-10 13:33:09",
            "postcodeId": "15745",
            "storeUrl": "https://www.igatas.com.au/iga-everyday-brougham-street-launceston?utm_source=igawebsite&utm_medium=tile&utm_campaign=store_locator&utm_content=cta_button",
            "updated": "0",
            "onlineShopUrl": "",
            "ecommerceUrl": ""
        },
        {
            "storeId": "14922",
            "retailerStoreId": "",
            "storeName": "IGA Prospect",
            "address": "225-227 Westbury Road\r\n",
            "suburb": "Prospect",
            "state": "TAS",
            "postcode": "7250",
            "phone": "03 6343 1611",
            "fax": "",
            "hours": "7.00am-10.00pm\r\n7.00am-10.00pm\r\n7.00am-10.00pm\r\n7.00am-10.00pm\r\n7.00am-10.00pm\r\n7.00am-10.00pm\r\n7.00am-10.00pm",
            "hoursDay": "Monday\r\nTuesday\r\nWednesday\r\nThursday\r\nFriday\r\nSaturday\r\nSunday",
            "regionId": null,
            "latitude": "-41.470262000000000",
            "longitude": "147.136057000000000",
            "tag": "",
            "locationNumber": "2299",
            "saleGroupId": "0",
            "christmasHours": "",
            "christmasHoursDay": "Please contact the store for Easter opening hours.",
            "updateTimeStamp": "2025-04-10 13:33:09",
            "postcodeId": "15748",
            "storeUrl": "https://igabaxters.com.au/?utm_source=igawebsite&utm_medium=tile&utm_campaign=store_locator&utm_content=cta_button",
            "updated": "0",
            "onlineShopUrl": "https://baxters.myfoodlink.com/?utm_source=igawebsite&utm_medium=tile&utm_campaign=store_locator&utm_content=cta_button",
            "ecommerceUrl": ""
        },
        {
            "storeId": "14876",
            "retailerStoreId": "",
            "storeName": "IGA Everyday Ravenswood",
            "address": "2 Prossers Forest Road\nShop 12",
            "suburb": "Ravenswood",
            "state": "TAS",
            "postcode": "7250",
            "phone": "03 6339 2602",
            "fax": "",
            "hours": "7.00am-8.00pm\r\n7.00am-8.00pm\r\n7.00am-8.00pm\r\n7.00am-8.00pm\r\n7.00am-8.00pm\r\n8.00am-8.00pm\r\n8.00am-8.00pm",
            "hoursDay": "Monday\r\nTuesday\r\nWednesday\r\nThursday\r\nFriday\r\nSaturday\r\nSunday",
            "regionId": "0",
            "latitude": "-41.418486000000000",
            "longitude": "147.174606000000000",
            "tag": "",
            "locationNumber": "1468",
            "saleGroupId": "0",
            "christmasHours": "",
            "christmasHoursDay": "Please contact the store for Easter opening hours.",
            "updateTimeStamp": "2025-04-10 13:33:09",
            "postcodeId": "15750",
            "storeUrl": "https://www.igatas.com.au/iga-everyday-ravenswood?utm_source=igawebsite&utm_medium=tile&utm_campaign=store_locator&utm_content=cta_button",
            "updated": "0",
            "onlineShopUrl": "",
            "ecommerceUrl": ""
        },
        {
            "storeId": "14870",
            "retailerStoreId": "",
            "storeName": "IGA Everyday Norwood",
            "address": "1 Norwood Avenue\n",
            "suburb": "Norwood",
            "state": "TAS",
            "postcode": "7250",
            "phone": "03 6343 4500",
            "fax": "",
            "hours": "7.30am-9.00pm\r\n7.30am-9.00pm\r\n7.30am-9.00pm\r\n7.30am-9.00pm\r\n7.30am-9.00pm-\r\n7.30am-9.00pm\r\n7.30am-9.00pm",
            "hoursDay": "Monday\r\nTuesday\r\nWednesday\r\nThursday\r\nFriday\r\nSaturday\r\nSunday",
            "regionId": "0",
            "latitude": "-41.454556000000000",
            "longitude": "147.175909000000000",
            "tag": "",
            "locationNumber": "1461",
            "saleGroupId": "0",
            "christmasHours": "",
            "christmasHoursDay": "Please contact the store for Easter opening hours.",
            "updateTimeStamp": "2025-04-10 13:33:09",
            "postcodeId": "15747",
            "storeUrl": "https://www.igatas.com.au/iga-everyday-norwood?utm_source=igawebsite&utm_medium=tile&utm_campaign=store_locator&utm_content=cta_button",
            "updated": "0",
            "onlineShopUrl": "",
            "ecommerceUrl": ""
        },
        {
            "storeId": "14907",
            "retailerStoreId": "",
            "storeName": "IGA X-press Newnham",
            "address": "113 George Town Road\r\n",
            "suburb": "Newnham",
            "state": "TAS",
            "postcode": "7248",
            "phone": "03 6326 1159",
            "fax": null,
            "hours": "6.00am-8.00pm\r\n6.00am-8.00pm\r\n6.00am-8.00pm\r\n6.00am-8.00pm\r\n6.00am-8.00pm\r\n6.00am-8.00pm\r\n6.00am-8.00pm",
            "hoursDay": "Monday\r\nTuesday\r\nWednesday\r\nThursday\r\nFriday\r\nSaturday\r\nSunday",
            "regionId": "0",
            "latitude": "-41.385229000000000",
            "longitude": "147.127866000000000",
            "tag": null,
            "locationNumber": "1859",
            "saleGroupId": null,
            "christmasHours": "",
            "christmasHoursDay": "Please contact the store for Easter opening hours.",
            "updateTimeStamp": "2025-04-10 13:33:09",
            "postcodeId": "15735",
            "storeUrl": "https://www.igatas.com.au/iga-x-press-newnham?utm_source=igawebsite&utm_medium=tile&utm_campaign=store_locator&utm_content=cta_button",
            "updated": "0",
            "onlineShopUrl": "",
            "ecommerceUrl": ""
        },
        {
            "storeId": "14889",
            "retailerStoreId": "",
            "storeName": "IGA Everyday Youngtown",
            "address": "371 Hobart Road\n",
            "suburb": "Youngtown",
            "state": "TAS",
            "postcode": "7249",
            "phone": "03 6344 5202",
            "fax": "",
            "hours": "7.30am-8.00pm\r\n7.30am-8.00pm\r\n7.30am-8.00pm\r\n7.30am-8.00pm\r\n7.30am-8.00pm\r\n8.00am-8.00pm\r\n8.00am-8.00pm",
            "hoursDay": "Monday\r\nTuesday\r\nWednesday\r\nThursday\r\nFriday\r\nSaturday\r\nSunday",
            "regionId": "0",
            "latitude": "-41.486222000000000",
            "longitude": "147.167680000000000",
            "tag": "",
            "locationNumber": "1482",
            "saleGroupId": "0",
            "christmasHours": "",
            "christmasHoursDay": "Please contact the store for Easter opening hours.",
            "updateTimeStamp": "2025-04-10 13:33:09",
            "postcodeId": "15742",
            "storeUrl": "http://www.youngtowniga.com/?utm_source=igawebsite&utm_medium=tile&utm_campaign=store_locator&utm_content=cta_button",
            "updated": "0",
            "onlineShopUrl": "",
            "ecommerceUrl": ""
        },
        {
            "storeId": "14879",
            "retailerStoreId": "",
            "storeName": "IGA Everyday Rokeby",
            "address": "1 Hart Place\r\n",
            "suburb": "Rokeby",
            "state": "TAS",
            "postcode": "7019",
            "phone": "03 6247 7169",
            "fax": null,
            "hours": "7.30am-7.30pm\r\n7.30am-7.30pm\r\n7.30am-7.30pm\r\n7.30am-7.30pm\r\n7.30am-7.30pm\r\n7.30am-7.30pm\r\n7.30am-7.30pm",
            "hoursDay": "Monday\r\nTuesday\r\nWednesday\r\nThursday\r\nFriday\r\nSaturday\r\nSunday",
            "regionId": "0",
            "latitude": "-42.897161000000000",
            "longitude": "147.431937000000000",
            "tag": null,
            "locationNumber": "1470",
            "saleGroupId": null,
            "christmasHours": "",
            "christmasHoursDay": "Please contact the store for Easter opening hours.",
            "updateTimeStamp": "2025-04-10 13:33:09",
            "postcodeId": "15423",
            "storeUrl": "https://www.igatas.com.au/iga-everyday-rokeby?utm_source=igawebsite&utm_medium=tile&utm_campaign=store_locator&utm_content=cta_button",
            "updated": "0",
            "onlineShopUrl": "",
            "ecommerceUrl": ""
        },
        {
            "storeId": "16573",
            "retailerStoreId": "",
            "storeName": "IGA Devonport (Hill Street Grocer)",
            "address": "48-54 Oldaker Street",
            "suburb": "Devonport",
            "state": "TAS",
            "postcode": "7310",
            "phone": "03 61275355",
            "fax": "",
            "hours": "7:30AM - 7:00PM\r\n7:30AM - 7:00PM\r\n7:30AM - 7:00PM\r\n7:30AM - 7:00PM\r\n7:30AM - 7:00PM\r\n7:30AM - 7:00PM\r\n8:00AM - 6:30PM",
            "hoursDay": "Monday:\r\nTuesday:\r\nWednesday:\r\nThursday:\r\nFriday:\r\nSaturday:\r\nSunday:",
            "regionId": "0",
            "latitude": "-41.175374000000000",
            "longitude": "146.356041000000000",
            "tag": "",
            "locationNumber": "0",
            "saleGroupId": "0",
            "christmasHours": "",
            "christmasHoursDay": "Please contact the store for Easter opening hours.",
            "updateTimeStamp": "2025-04-10 13:33:09",
            "postcodeId": "15990",
            "storeUrl": "",
            "updated": "0",
            "onlineShopUrl": "",
            "ecommerceUrl": ""
        },
        {
            "storeId": "14927",
            "retailerStoreId": "",
            "storeName": "IGA Everyday Devonport (Fourways)",
            "address": "99 Oldaker Street\r\n",
            "suburb": "Devonport",
            "state": "TAS",
            "postcode": "7310",
            "phone": "03 6424 5361",
            "fax": "",
            "hours": "7:00AM - 7:00PM\r\n7:00AM - 7:00PM\r\n7:00AM - 7:00PM\r\n7:00AM - 7:00PM\r\n7:00AM - 7:00PM\r\n7:30AM - 7:00PM\r\n8:00AM - 7:00PM",
            "hoursDay": "Monday\r\nTuesday\r\nWednesday\r\nThursday\r\nFriday\r\nSaturday\r\nSunday",
            "regionId": null,
            "latitude": "-41.175319000000000",
            "longitude": "146.350583000000000",
            "tag": "",
            "locationNumber": "1454",
            "saleGroupId": "0",
            "christmasHours": "",
            "christmasHoursDay": "Please contact the store for Easter opening hours.",
            "updateTimeStamp": "2025-04-10 13:33:09",
            "postcodeId": "15990",
            "storeUrl": "https://www.igatas.com.au/iga-xpress-devonport-four-ways?utm_source=igawebsite&utm_medium=tile&utm_campaign=store_locator&utm_content=cta_button",
            "updated": "0",
            "onlineShopUrl": "https://pommypaul.com.au/?utm_source=igawebsite&utm_medium=tile&utm_campaign=store_locator&utm_content=cta_button",
            "ecommerceUrl": ""
        },
        {
            "storeId": "14935",
            "retailerStoreId": "",
            "storeName": "IGA X-press East Devonport",
            "address": "59 Wright Street\r\n",
            "suburb": "East Devonport",
            "state": "TAS",
            "postcode": "7310",
            "phone": "03 6427 8242",
            "fax": "",
            "hours": "7:00AM - 8:00PM\r\n7:00AM - 8:00PM\r\n7:00AM - 8:00PM\r\n7:00AM - 8:00PM\r\n7:00AM - 8:00PM\r\n7:00AM - 8:00PM\r\n7:00AM - 8:00PM",
            "hoursDay": "Monday\r\nTuesday\r\nWednesday\r\nThursday\r\nFriday\r\nSaturday\r\nSunday",
            "regionId": null,
            "latitude": "-41.178743000000000",
            "longitude": "146.370557000000000",
            "tag": "",
            "locationNumber": "1817",
            "saleGroupId": "0",
            "christmasHours": "",
            "christmasHoursDay": "Please contact the store for Easter opening hours.",
            "updateTimeStamp": "2025-04-10 13:33:09",
            "postcodeId": "15992",
            "storeUrl": "http://www.igatas.com.au/?utm_source=igawebsite&utm_medium=tile&utm_campaign=store_locator&utm_content=cta_button",
            "updated": "0",
            "onlineShopUrl": "",
            "ecommerceUrl": ""
        },
        {
            "storeId": "14897",
            "retailerStoreId": "",
            "storeName": "IGA X-press Devonport (Valley Road)",
            "address": "33 Valley Road\n",
            "suburb": "Devonport",
            "state": "TAS",
            "postcode": "7310",
            "phone": "03 6424 3724",
            "fax": "",
            "hours": "7:00am - 8:00pm\r\n7:00am - 8:00pm\r\n7:00am - 8:00pm\r\n7:00am - 8:00pm\r\n7:00am - 8:00pm\r\n7:30am - 7:00pm\r\n8:00am - 7:00pm",
            "hoursDay": "Monday\r\nTuesday\r\nWednesday\r\nThursday\r\nFriday\r\nSaturday\r\nSunday",
            "regionId": "0",
            "latitude": "-41.186608000000000",
            "longitude": "146.343888000000000",
            "tag": "",
            "locationNumber": "1814",
            "saleGroupId": "0",
            "christmasHours": "",
            "christmasHoursDay": "Please contact the store for Easter opening hours.",
            "updateTimeStamp": "2025-04-10 13:33:09",
            "postcodeId": "16001",
            "storeUrl": "http://www.igatas.com.au/?utm_source=igawebsite&utm_medium=tile&utm_campaign=store_locator&utm_content=cta_button",
            "updated": "0",
            "onlineShopUrl": "https://pommypaul.com.au/?utm_source=igawebsite&utm_medium=tile&utm_campaign=store_locator&utm_content=cta_button",
            "ecommerceUrl": ""
        },
        {
            "storeId": "14924",
            "retailerStoreId": "",
            "storeName": "IGA Spreyton",
            "address": "92-94 Mersey Main Road\r\n",
            "suburb": "Spreyton",
            "state": "TAS",
            "postcode": "7310",
            "phone": "03 6427 2092",
            "fax": "",
            "hours": "6.00am-9.00pm\r\n6.00am-9.00pm\r\n6.00am-9.00pm\r\n6.00am-9.00pm\r\n6.00am-9.00pm\r\n6.00am-9.00pm\r\n6.00am-9.00pm",
            "hoursDay": "Monday\r\nTuesday\r\nWednesday\r\nThursday\r\nFriday\r\nSaturday\r\nSunday",
            "regionId": null,
            "latitude": "-41.217546000000000",
            "longitude": "146.345042000000000",
            "tag": "",
            "locationNumber": "2304",
            "saleGroupId": "0",
            "christmasHours": "",
            "christmasHoursDay": "Please contact the store for Easter opening hours.",
            "updateTimeStamp": "2025-04-10 13:33:09",
            "postcodeId": "16006",
            "storeUrl": "https://www.igatas.com.au/iga-spreyton?utm_source=igawebsite&utm_medium=tile&utm_campaign=store_locator&utm_content=cta_button",
            "updated": "0",
            "onlineShopUrl": "",
            "ecommerceUrl": ""
        },
        {
            "storeId": "14868",
            "retailerStoreId": "",
            "storeName": "IGA Everyday George Town",
            "address": "103-105 Friend Street\r\n",
            "suburb": "George Town",
            "state": "TAS",
            "postcode": "7253",
            "phone": "03 6382 1580",
            "fax": "",
            "hours": "7:00AM - 7:00PM\r\n7:00AM - 7:00PM\r\n7:00AM - 7:00PM\r\n7:00AM - 7:00PM\r\n7:00AM - 7:00PM\r\n7:00AM - 7:00PM\r\n7:00AM - 7:00PM",
            "hoursDay": "Monday\r\nTuesday\r\nWednesday\r\nThursday\r\nFriday\r\nSaturday\r\nSunday",
            "regionId": null,
            "latitude": "-41.097885000000000",
            "longitude": "146.823526000000000",
            "tag": "",
            "locationNumber": "1459",
            "saleGroupId": "0",
            "christmasHours": "",
            "christmasHoursDay": "Please contact the store for Easter opening hours.",
            "updateTimeStamp": "2025-04-10 13:33:09",
            "postcodeId": "15770",
            "storeUrl": "https://www.igatas.com.au/iga-everyday-george-town?utm_source=igawebsite&utm_medium=tile&utm_campaign=store_locator&utm_content=cta_button",
            "updated": "0",
            "onlineShopUrl": "",
            "ecommerceUrl": ""
        },
        {
            "storeId": "14892",
            "retailerStoreId": "",
            "storeName": "IGA Xpress Beaconsfield",
            "address": "116 Weld Street\r\n",
            "suburb": "Beaconsfield",
            "state": "TAS",
            "postcode": "7270",
            "phone": "03 6383 1156",
            "fax": "",
            "hours": "7:00AM - 7:00PM\r\n7:00AM - 7:00PM\r\n7:00AM - 7:00PM\r\n7:00AM - 7:00PM\r\n7:00AM - 7:00PM\r\n7:00AM - 7:00PM\r\n7:00AM - 7:00PM",
            "hoursDay": "Monday\r\nTuesday\r\nWednesday\r\nThursday\r\nFriday\r\nSaturday\r\nSunday",
            "regionId": null,
            "latitude": "-41.200859000000000",
            "longitude": "146.816633000000000",
            "tag": "",
            "locationNumber": "1793",
            "saleGroupId": "0",
            "christmasHours": "CLOSED\r\n8:00am - 8:00pm\r\n9:00am - 7:00pm\r\n7:00am - 7:00pm\r\n7:00am - 8:00pm\r\n7:00am - 8:00pm\r\n7:00am - 8:00pm\r\n7:00am - 8:00pm\r\n8:00am - 8:00pm\r\n9:00am - 8:00pm",
            "christmasHoursDay": "18 Apr\r\n19 Apr\r\n20 Apr\r\n21 Apr\r\n22 Apr\r\n23 Apr\r\n24 Apr\r\n25 Apr\r\n26 Apr\r\n27 Apr",
            "updateTimeStamp": "2025-04-11 15:06:26",
            "postcodeId": "15870",
            "storeUrl": "https://www.igatas.com.au/iga-x-press-beaconsfield?utm_source=igawebsite&utm_medium=tile&utm_campaign=store_locator&utm_content=cta_button",
            "updated": "0",
            "onlineShopUrl": "",
            "ecommerceUrl": ""
        },
        {
            "storeId": "14926",
            "retailerStoreId": "",
            "storeName": "IGA Everyday Beaconsfield",
            "address": "106 Weld Street\r\n",
            "suburb": "Beaconsfield",
            "state": "TAS",
            "postcode": "7270",
            "phone": "03 6383 1171",
            "fax": "",
            "hours": "7:00AM - 7:00PM\r\n7:00AM - 7:00PM\r\n7:00AM - 7:00PM\r\n7:00AM - 7:00PM\r\n7:00AM - 7:00PM\r\n7:00AM - 7:00PM\r\n7:00AM - 7:00PM",
            "hoursDay": "Monday\r\nTuesday\r\nWednesday\r\nThursday\r\nFriday\r\nSaturday\r\nSunday",
            "regionId": null,
            "latitude": "-41.201402000000000",
            "longitude": "146.817024000000000",
            "tag": "",
            "locationNumber": "1446",
            "saleGroupId": "0",
            "christmasHours": "",
            "christmasHoursDay": "Please contact the store for Easter opening hours.",
            "updateTimeStamp": "2025-04-10 13:33:09",
            "postcodeId": "15870",
            "storeUrl": "https://www.igatas.com.au/iga-everyday-beaconsfield?utm_source=igawebsite&utm_medium=tile&utm_campaign=store_locator&utm_content=cta_button",
            "updated": "0",
            "onlineShopUrl": "",
            "ecommerceUrl": ""
        },
        {
            "storeId": "14901",
            "retailerStoreId": "",
            "storeName": "IGA Xpress Hadspen",
            "address": "37 Winifred Jane Cres\r\n",
            "suburb": "Hadspen",
            "state": "TAS",
            "postcode": "7290",
            "phone": "03 6393 6333",
            "fax": "",
            "hours": "7:00AM - 8:00PM\r\n7:00AM - 8:00PM\r\n7:00AM - 8:00PM\r\n7:00AM - 8:00PM\r\n7:00AM - 8:00PM\r\n7:00AM - 8:00PM\r\n7:00AM - 8:00PM",
            "hoursDay": "Monday\r\nTuesday\r\nWednesday\r\nThursday\r\nFriday\r\nSaturday\r\nSunday",
            "regionId": null,
            "latitude": "-41.503668000000000",
            "longitude": "147.069324000000000",
            "tag": "53541",
            "locationNumber": "1837",
            "saleGroupId": "0",
            "christmasHours": "",
            "christmasHoursDay": "Please contact the store for Easter opening hours.",
            "updateTimeStamp": "2025-04-10 13:33:09",
            "postcodeId": "15897",
            "storeUrl": "https://www.igatas.com.au/iga-x-press-hadspen?utm_source=igawebsite&utm_medium=tile&utm_campaign=store_locator&utm_content=cta_button",
            "updated": "0",
            "onlineShopUrl": "",
            "ecommerceUrl": ""
        },
        {
            "storeId": "14912",
            "retailerStoreId": "",
            "storeName": "IGA X-press Scottsdale",
            "address": "6 George Street\r\n",
            "suburb": "Scottsdale",
            "state": "TAS",
            "postcode": "7260",
            "phone": "03 6352 2441",
            "fax": null,
            "hours": "7.00am-7.00pm\r\n7.00am-7.00pm\r\n7.00am-7.00pm\r\n7.00am-7.00pm\r\n7.00am-7.00pm\r\n8.00am-7.00pm\r\n8.00am-7.00pm",
            "hoursDay": "Monday\r\nTuesday\r\nWednesday\r\nThursday\r\nFriday\r\nSaturday\r\nSunday",
            "regionId": "0",
            "latitude": "-41.159077000000000",
            "longitude": "147.518363000000000",
            "tag": null,
            "locationNumber": "1883",
            "saleGroupId": null,
            "christmasHours": "",
            "christmasHoursDay": "Please contact the store for Easter opening hours.",
            "updateTimeStamp": "2025-04-10 13:33:09",
            "postcodeId": "15828",
            "storeUrl": "https://www.igatas.com.au/iga-x-press-scottsdale?utm_source=igawebsite&utm_medium=tile&utm_campaign=store_locator&utm_content=cta_button",
            "updated": "0",
            "onlineShopUrl": "",
            "ecommerceUrl": ""
        },
        {
            "storeId": "14882",
            "retailerStoreId": "",
            "storeName": "IGA Everyday Smithton",
            "address": "72 Emmett Street\r\n",
            "suburb": "Smithton",
            "state": "TAS",
            "postcode": "7330",
            "phone": "03 6452 1608",
            "fax": null,
            "hours": "8.00am-8.00pm\r\n8.00am-8.00pm\r\n8.00am-8.00pm\r\n8.00am-8.00pm\r\n8.00am-8.00pm\r\n8.00am-8.00pm\r\n8.00am-8.00pm",
            "hoursDay": "Monday\r\nTuesday\r\nWednesday\r\nThursday\r\nFriday\r\nSaturday\r\nSunday",
            "regionId": "0",
            "latitude": "-40.840628000000000",
            "longitude": "145.126044000000000",
            "tag": null,
            "locationNumber": "1472",
            "saleGroupId": null,
            "christmasHours": "",
            "christmasHoursDay": "Please contact the store for Easter opening hours.",
            "updateTimeStamp": "2025-04-10 13:33:09",
            "postcodeId": "16134",
            "storeUrl": "https://www.igatas.com.au/iga-everyday-smithton?utm_source=igawebsite&utm_medium=tile&utm_campaign=store_locator&utm_content=cta_button",
            "updated": "0",
            "onlineShopUrl": "",
            "ecommerceUrl": ""
        },
        {
            "storeId": "14888",
            "retailerStoreId": "",
            "storeName": "IGA Ulverstone Railway Supermarket",
            "address": "19-19a Alexandra Road\n",
            "suburb": "Ulverstone",
            "state": "TAS",
            "postcode": "7315",
            "phone": "03 6425 9022",
            "fax": "",
            "hours": "7.00am-8.00pm\r\n7.00am-8.00pm\r\n7.00am-8.00pm\r\n7.00am-8.00pm\r\n7.00am-8.00pm\r\n7.30am-8.00pm\r\n8.00am-8.00pm",
            "hoursDay": "Monday\r\nTuesday\r\nWednesday\r\nThursday\r\nFriday\r\nSaturday\r\nSunday",
            "regionId": "0",
            "latitude": "-41.158441000000000",
            "longitude": "146.174741000000000",
            "tag": "",
            "locationNumber": "1479",
            "saleGroupId": "0",
            "christmasHours": "",
            "christmasHoursDay": "Please contact the store for Easter opening hours.",
            "updateTimeStamp": "2025-04-10 13:33:09",
            "postcodeId": "16025",
            "storeUrl": "https://igatas.com.au/stores/iga-ulverstone?utm_source=igawebsite&utm_medium=tile&utm_campaign=store_locator&utm_content=cta_button",
            "updated": "0",
            "onlineShopUrl": "",
            "ecommerceUrl": ""
        },
        {
            "storeId": "14918",
            "retailerStoreId": "",
            "storeName": "IGA X-press West Ulverstone",
            "address": "50 Queen Street\r\n",
            "suburb": "Ulverstone",
            "state": "TAS",
            "postcode": "7315",
            "phone": "03 6425 2443",
            "fax": null,
            "hours": "5.30am-9.00pm\r\n5.30am-9.00pm\r\n5.30am-9.00pm\r\n5.30am-9.00pm\r\n5.30am-9.00pm\r\n6.00am-9.00pm\r\n6.00am-9.00pm",
            "hoursDay": "Monday\r\nTuesday\r\nWednesday\r\nThursday\r\nFriday\r\nSaturday\r\nSunday",
            "regionId": "0",
            "latitude": "-41.150865000000000",
            "longitude": "146.163381000000000",
            "tag": null,
            "locationNumber": "1906",
            "saleGroupId": null,
            "christmasHours": "",
            "christmasHoursDay": "Please contact the store for Easter opening hours.",
            "updateTimeStamp": "2025-04-10 13:33:09",
            "postcodeId": "16027",
            "storeUrl": "https://www.igatas.com.au/iga-x-press-west-ulverstone?utm_source=igawebsite&utm_medium=tile&utm_campaign=store_locator&utm_content=cta_button",
            "updated": "0",
            "onlineShopUrl": "",
            "ecommerceUrl": ""
        },
        {
            "storeId": "14886",
            "retailerStoreId": "",
            "storeName": "IGA Everyday Wynyard",
            "address": "36 Park Street\n",
            "suburb": "Wynyard",
            "state": "TAS",
            "postcode": "7325",
            "phone": "03 6442 2524",
            "fax": "",
            "hours": "7.00am-9.30pm\r\n7.00am-9.30pm\r\n7.00am-9.30pm\r\n7.00am-9.30pm\r\n7.00am-9.30pm\r\n7.00am-9.30pm\r\n7.00am-9.30pm",
            "hoursDay": "Monday\r\nTuesday\r\nWednesday\r\nThursday\r\nFriday\r\nSaturday\r\nSunday",
            "regionId": "0",
            "latitude": "-40.989657000000000",
            "longitude": "145.719175000000000",
            "tag": "",
            "locationNumber": "1481",
            "saleGroupId": "0",
            "christmasHours": "",
            "christmasHoursDay": "Please contact the store for Easter opening hours.",
            "updateTimeStamp": "2025-04-10 13:33:09",
            "postcodeId": "16112",
            "storeUrl": "https://www.igatas.com.au/iga-everyday-wynyard?utm_source=igawebsite&utm_medium=tile&utm_campaign=store_locator&utm_content=cta_button",
            "updated": "0",
            "onlineShopUrl": "",
            "ecommerceUrl": ""
        },
        {
            "storeId": "14891",
            "retailerStoreId": "",
            "storeName": "IGA X-press Austins Ferry",
            "address": "162 Main Road\r\n",
            "suburb": "Austins Ferry",
            "state": "TAS",
            "postcode": "7011",
            "phone": "03 6249 2344",
            "fax": "",
            "hours": "7:00AM - 7:00PM\r\n7:00AM - 7:00PM\r\n7:00AM - 7:00PM\r\n7:00AM - 7:00PM\r\n7:00AM - 7:00PM\r\n7:00AM - 7:00PM\r\n7:00AM - 7:00PM",
            "hoursDay": "Monday\r\nTuesday\r\nWednesday\r\nThursday\r\nFriday\r\nSaturday\r\nSunday",
            "regionId": null,
            "latitude": "-42.780342000000000",
            "longitude": "147.252210000000000",
            "tag": "",
            "locationNumber": "1789",
            "saleGroupId": "0",
            "christmasHours": "",
            "christmasHoursDay": "Please contact the store for Easter opening hours.",
            "updateTimeStamp": "2025-04-10 13:33:09",
            "postcodeId": "15397",
            "storeUrl": "http://www.igatas.com.au/?utm_source=igawebsite&utm_medium=tile&utm_campaign=store_locator&utm_content=cta_button",
            "updated": "0",
            "onlineShopUrl": "",
            "ecommerceUrl": ""
        },
        {
            "storeId": "14911",
            "retailerStoreId": "",
            "storeName": "IGA X-press Rosetta",
            "address": "502 Main Road\r\n",
            "suburb": "Montrose",
            "state": "TAS",
            "postcode": "7010",
            "phone": "03 6272 7483",
            "fax": null,
            "hours": "6.30am-7.30pm\r\n6.30am-7.30pm\r\n6.30am-7.30pm\r\n6.30am-7.30pm\r\n6.30am-7.30pm\r\n6.30am-7.30pm\r\n6.30am-7.30pm",
            "hoursDay": "Monday\r\nTuesday\r\nWednesday\r\nThursday\r\nFriday\r\nSaturday\r\nSunday",
            "regionId": "0",
            "latitude": "-42.825333000000000",
            "longitude": "147.265806000000000",
            "tag": null,
            "locationNumber": "1880",
            "saleGroupId": null,
            "christmasHours": "",
            "christmasHoursDay": "Please contact the store for Easter opening hours.",
            "updateTimeStamp": "2025-04-10 13:33:09",
            "postcodeId": "15395",
            "storeUrl": "https://www.igatas.com.au/iga-x-press-rosetta?utm_source=igawebsite&utm_medium=tile&utm_campaign=store_locator&utm_content=cta_button",
            "updated": "0",
            "onlineShopUrl": "",
            "ecommerceUrl": ""
        },
        {
            "storeId": "14903",
            "retailerStoreId": "",
            "storeName": "IGA Xpress Huonville",
            "address": "19 Main Road\r\n",
            "suburb": "Huonville",
            "state": "TAS",
            "postcode": "7109",
            "phone": "03 6264 1466",
            "fax": "",
            "hours": "7:00AM - 7:30PM\r\n7:00AM - 7:30PM\r\n7:00AM - 7:30PM\r\n7:00AM - 7:30PM\r\n7:00AM - 7:30PM\r\n7:00AM - 7:30PM\r\n7:00AM - 7:30PM",
            "hoursDay": "Monday\r\nTuesday\r\nWednesday\r\nThursday\r\nFriday\r\nSaturday\r\nSunday",
            "regionId": null,
            "latitude": "-43.031376000000000",
            "longitude": "147.048086000000000",
            "tag": "",
            "locationNumber": "1839",
            "saleGroupId": "0",
            "christmasHours": "",
            "christmasHoursDay": "Please contact the store for Easter opening hours.",
            "updateTimeStamp": "2025-04-10 13:33:09",
            "postcodeId": "15494",
            "storeUrl": "",
            "updated": "0",
            "onlineShopUrl": "",
            "ecommerceUrl": ""
        },
        {
            "storeId": "14931",
            "retailerStoreId": "",
            "storeName": "IGA Everyday Blackmans Bay (Hill Street Grocer)",
            "address": "5 Opal Drive\r\n",
            "suburb": "Blackmans Bay",
            "state": "TAS",
            "postcode": "7052",
            "phone": "03 6229 2792",
            "fax": "",
            "hours": "7.30am-7.30pm\r\n7.30am-7.30pm\r\n7.30am-7.30pm\r\n7.30am-7.30pm\r\n7.30am-7.30pm\r\n7.30am-7.30pm\r\n7.30am-7.30pm",
            "hoursDay": "Monday\r\nTuesday\r\nWednesday\r\nThursday\r\nFriday\r\nSaturday\r\nSunday",
            "regionId": null,
            "latitude": "-42.997546000000000",
            "longitude": "147.318343000000000",
            "tag": "",
            "locationNumber": "1448",
            "saleGroupId": "0",
            "christmasHours": "",
            "christmasHoursDay": "Please contact the store for Easter opening hours.",
            "updateTimeStamp": "2025-04-10 13:33:09",
            "postcodeId": "15470",
            "storeUrl": "",
            "updated": "0",
            "onlineShopUrl": "",
            "ecommerceUrl": ""
        },
        {
            "storeId": "20012",
            "retailerStoreId": "",
            "storeName": "IGA Xpress New Norfolk",
            "address": "41/45 Benjamin Terrace",
            "suburb": "New Norfolk",
            "state": "TAS",
            "postcode": "7140",
            "phone": "03 6262 0091",
            "fax": "",
            "hours": "7:00 AM - 7:30 PM\r\n7:00 AM - 7:30 PM\r\n7:00 AM - 7:30 PM\r\n7:00 AM - 7:30 PM\r\n7:00 AM - 7:30 PM\r\n7:00 AM - 7:30 PM\r\n6:00 AM - 8:00 PM\r\n",
            "hoursDay": "Monday\r\nTuesday\r\nWednesday\r\nThursday\r\nFriday\r\nSaturday\r\nSunday",
            "regionId": "0",
            "latitude": "-42.773020000000000",
            "longitude": "147.043570000000000",
            "tag": "",
            "locationNumber": "0",
            "saleGroupId": "0",
            "christmasHours": "",
            "christmasHoursDay": "Please contact the store for Easter opening hours.",
            "updateTimeStamp": "2025-04-10 13:33:09",
            "postcodeId": "15576",
            "storeUrl": "",
            "updated": "0",
            "onlineShopUrl": "",
            "ecommerceUrl": ""
        },
        {
            "storeId": "14904",
            "retailerStoreId": "",
            "storeName": "IGA Shearwater (Pommy Paul's Supermarkets)",
            "address": "79 Gilbert Street\r\n",
            "suburb": "Latrobe",
            "state": "TAS",
            "postcode": "7307",
            "phone": "03 6426 1151",
            "fax": "",
            "hours": "6:30AM - 8:00PM\r\n6:30AM - 8:00PM\r\n6:30AM - 8:00PM\r\n6:30AM - 8:00PM\r\n6:30AM - 8:00PM\r\n7:00AM - 8:00PM\r\n7:00AM - 8:00PM",
            "hoursDay": "Monday\r\nTuesday\r\nWednesday\r\nThursday\r\nFriday\r\nSaturday\r\nSunday",
            "regionId": null,
            "latitude": "-41.235253000000000",
            "longitude": "146.409439000000000",
            "tag": "",
            "locationNumber": "1844",
            "saleGroupId": "0",
            "christmasHours": "",
            "christmasHoursDay": "Please contact the store for Easter opening hours.",
            "updateTimeStamp": "2025-04-10 13:33:09",
            "postcodeId": "15979",
            "storeUrl": "https://www.igatas.com.au/iga-x-press-latrobe?utm_source=igawebsite&utm_medium=tile&utm_campaign=store_locator&utm_content=cta_button",
            "updated": "0",
            "onlineShopUrl": "",
            "ecommerceUrl": ""
        },
        {
            "storeId": "14920",
            "retailerStoreId": "",
            "storeName": "IGA Latrobe (Hill Street Grocer)",
            "address": "108 - 114 Gilbert Street\n",
            "suburb": "Latrobe",
            "state": "TAS",
            "postcode": "7307",
            "phone": "03 6426 5000",
            "fax": "",
            "hours": "7.00am-7.00pm\r\n7.00am-7.00pm\r\n7.00am-7.00pm\r\n7.00am-7.00pm\r\n7.00am-7.00pm\r\n7.00am-7.00pm\r\n7.00am-7.00pm",
            "hoursDay": "Monday\r\nTuesday\r\nWednesday\r\nThursday\r\nFriday\r\nSaturday\r\nSunday",
            "regionId": "0",
            "latitude": "-41.235470000000000",
            "longitude": "146.410986000000000",
            "tag": "",
            "locationNumber": "2285",
            "saleGroupId": "0",
            "christmasHours": "",
            "christmasHoursDay": "Please contact the store for Easter opening hours.",
            "updateTimeStamp": "2025-04-10 13:33:09",
            "postcodeId": "15979",
            "storeUrl": "",
            "updated": "0",
            "onlineShopUrl": "",
            "ecommerceUrl": ""
        },
        {
            "storeId": "14936",
            "retailerStoreId": "",
            "storeName": "IGA Xpress Lauderdale (Hill Street Grocer)",
            "address": "528 South Arm Road\n",
            "suburb": "Lauderdale",
            "state": "TAS",
            "postcode": "7021",
            "phone": "03 6248 6221",
            "fax": "",
            "hours": "7.30am-7.30pm\r\n7.30am-7.30pm\r\n7.30am-7.30pm\r\n7.30am-7.30pm\r\n7.30am-7.30pm\r\n7.30am-7.30pm\r\n8.00am-7.00pm",
            "hoursDay": "Monday\r\nTuesday\r\nWednesday\r\nThursday\r\nFriday\r\nSaturday\r\nSunday",
            "regionId": "0",
            "latitude": "-42.914171000000000",
            "longitude": "147.485747000000000",
            "tag": "",
            "locationNumber": "1845",
            "saleGroupId": "0",
            "christmasHours": "",
            "christmasHoursDay": "Please contact the store for Easter opening hours.",
            "updateTimeStamp": "2025-04-10 13:33:09",
            "postcodeId": "15426",
            "storeUrl": "",
            "updated": "0",
            "onlineShopUrl": "",
            "ecommerceUrl": ""
        },
        {
            "storeId": "14923",
            "retailerStoreId": "",
            "storeName": "IGA Shearwater",
            "address": "30 Boulevard St\r\n",
            "suburb": "Shearwater",
            "state": "TAS",
            "postcode": "7307",
            "phone": "03 6428 6689",
            "fax": "",
            "hours": "6.30am-8.00pm\r\n6.30am-8.00pm\r\n6.30am-8.00pm\r\n6.30am-8.00pm\r\n6.30am-8.00pm\r\n6.30am-8.00pm\r\n6.30am-8.00pm",
            "hoursDay": "Monday\r\nTuesday\r\nWednesday\r\nThursday\r\nFriday\r\nSaturday\r\nSunday",
            "regionId": null,
            "latitude": "-41.154622000000000",
            "longitude": "146.538944000000000",
            "tag": "",
            "locationNumber": "2301",
            "saleGroupId": "0",
            "christmasHours": "",
            "christmasHoursDay": "Please contact the store for Easter opening hours.",
            "updateTimeStamp": "2025-04-10 13:33:09",
            "postcodeId": "15978",
            "storeUrl": "http://www.igatas.com.au/?utm_source=igawebsite&utm_medium=tile&utm_campaign=store_locator&utm_content=cta_button",
            "updated": "0",
            "onlineShopUrl": "https://pommypaul.com.au/?utm_source=igawebsite&utm_medium=tile&utm_campaign=store_locator&utm_content=cta_button",
            "ecommerceUrl": ""
        },
        {
            "storeId": "14932",
            "retailerStoreId": "",
            "storeName": "IGA Everyday Cygnet",
            "address": "28 Mary Street\n",
            "suburb": "Cygnet",
            "state": "TAS",
            "postcode": "7112",
            "phone": "03 6295 1530",
            "fax": "",
            "hours": "7.30am-8.00pm\r\n7.30am-8.00pm\r\n7.30am-8.00pm\r\n7.30am-8.00pm\r\n7.30am-8.00pm\r\n7.30am-8.00pm\r\n7.30am-7.30pm",
            "hoursDay": "Monday\r\nTuesday\r\nWednesday\r\nThursday\r\nFriday\r\nSaturday\r\nSunday",
            "regionId": "0",
            "latitude": "-43.161090000000000",
            "longitude": "147.076383000000000",
            "tag": "",
            "locationNumber": "1458",
            "saleGroupId": "0",
            "christmasHours": "",
            "christmasHoursDay": "Please contact the store for Easter opening hours.",
            "updateTimeStamp": "2025-04-10 13:33:09",
            "postcodeId": "15516",
            "storeUrl": "https://www.igatas.com.au/iga-everyday-farahs-cygnet?utm_source=igawebsite&utm_medium=tile&utm_campaign=store_locator&utm_content=cta_button",
            "updated": "0",
            "onlineShopUrl": "",
            "ecommerceUrl": ""
        },
        {
            "storeId": "14883",
            "retailerStoreId": "",
            "storeName": "IGA Everyday St Helens",
            "address": "23 Cecilia Street\n",
            "suburb": "St Helens",
            "state": "TAS",
            "postcode": "7216",
            "phone": "03 6376 1161",
            "fax": "",
            "hours": "7.00am-7.30pm\r\n7.00am-7.30pm\r\n7.00am-7.30pm\r\n7.00am-7.30pm\r\n7.00am-7.30pm\r\n7.00am-7.30pm\r\n8.00am-7.00pm",
            "hoursDay": "Monday\r\nTuesday\r\nWednesday\r\nThursday\r\nFriday\r\nSaturday\r\nSunday",
            "regionId": "0",
            "latitude": "-41.323898000000000",
            "longitude": "148.249303000000000",
            "tag": "",
            "locationNumber": "1474",
            "saleGroupId": "0",
            "christmasHours": "",
            "christmasHoursDay": "Please contact the store for Easter opening hours.",
            "updateTimeStamp": "2025-04-10 13:33:09",
            "postcodeId": "15731",
            "storeUrl": "https://www.igatas.com.au/iga-everyday-st-helens-hillys?utm_source=igawebsite&utm_medium=tile&utm_campaign=store_locator&utm_content=cta_button",
            "updated": "0",
            "onlineShopUrl": "https://store.bayoffiresiga.com.au/?utm_source=igawebsite&utm_medium=tile&utm_campaign=store_locator&utm_content=cta_button",
            "ecommerceUrl": ""
        },
        {
            "storeId": "14925",
            "retailerStoreId": "",
            "storeName": "IGA St Helens Bay of Fires",
            "address": "33 Cecilia Street\r\n",
            "suburb": "St Helens",
            "state": "TAS",
            "postcode": "7216",
            "phone": "03 6376 1177",
            "fax": "",
            "hours": "7.30am-7.00pm\r\n7.30am-7.00pm\r\n7.30am-7.00pm\r\n7.30am-7.00pm\r\n7.30am-7.00pm\r\n7.30am-7.00pm\r\n8.00am-6.00pm",
            "hoursDay": "Monday\r\nTuesday\r\nWednesday\r\nThursday\r\nFriday\r\nSaturday\r\nSunday",
            "regionId": null,
            "latitude": "-41.323193000000000",
            "longitude": "148.249496000000000",
            "tag": "",
            "locationNumber": "2306",
            "saleGroupId": "0",
            "christmasHours": "",
            "christmasHoursDay": "Please contact the store for Easter opening hours.",
            "updateTimeStamp": "2025-04-10 13:33:09",
            "postcodeId": "15731",
            "storeUrl": "http://www.igatas.com.au/?utm_source=igawebsite&utm_medium=tile&utm_campaign=store_locator&utm_content=cta_button",
            "updated": "0",
            "onlineShopUrl": "",
            "ecommerceUrl": ""
        },
        {
            "storeId": "14867",
            "retailerStoreId": "",
            "storeName": "IGA Xpress Dover",
            "address": "Cnr Huon Highway & Station Road\nShop 1 Southgate Shopping Centre",
            "suburb": "Dover",
            "state": "TAS",
            "postcode": "7117",
            "phone": "03 6298 1544",
            "fax": "",
            "hours": "8:00AM - 7:00PM\r\n8:00AM - 7:00PM\r\n8:00AM - 7:00PM\r\n8:00AM - 7:00PM\r\n8:00AM - 7:00PM\r\n8:00AM - 7:00PM\r\n8:00AM - 7:00PM",
            "hoursDay": "Monday\r\nTuesday\r\nWednesday\r\nThursday\r\nFriday\r\nSaturday\r\nSunday",
            "regionId": "0",
            "latitude": "-43.311416000000000",
            "longitude": "147.016382000000000",
            "tag": "",
            "locationNumber": "1456",
            "saleGroupId": "0",
            "christmasHours": "",
            "christmasHoursDay": "Please contact the store for Easter opening hours.",
            "updateTimeStamp": "2025-04-10 13:33:09",
            "postcodeId": "15533",
            "storeUrl": "https://www.igatas.com.au/iga-xpress-dover?utm_source=igawebsite&utm_medium=tile&utm_campaign=store_locator&utm_content=cta_button",
            "updated": "0",
            "onlineShopUrl": "",
            "ecommerceUrl": ""
        },
        {
            "storeId": "14871",
            "retailerStoreId": "",
            "storeName": "IGA Everyday Oatlands",
            "address": "54 High Street\n",
            "suburb": "Oatlands",
            "state": "TAS",
            "postcode": "7120",
            "phone": "03 6254 1183",
            "fax": "",
            "hours": "8.00am-7.00pm\r\n8.00am-7.00pm\r\n8.00am-7.00pm\r\n8.00am-7.00pm\r\n8.00am-7.00pm\r\n8.00am-7.00pm\r\n9.00am-7.00pm",
            "hoursDay": "Monday\r\nTuesday\r\nWednesday\r\nThursday\r\nFriday\r\nSaturday\r\nSunday",
            "regionId": "0",
            "latitude": "-42.300873000000000",
            "longitude": "147.369916000000000",
            "tag": "",
            "locationNumber": "1463",
            "saleGroupId": "0",
            "christmasHours": "",
            "christmasHoursDay": "Please contact the store for Easter opening hours.",
            "updateTimeStamp": "2025-04-10 13:33:09",
            "postcodeId": "15541",
            "storeUrl": "https://www.igatas.com.au/iga-everyday-oatlands?utm_source=igawebsite&utm_medium=tile&utm_campaign=store_locator&utm_content=cta_button",
            "updated": "0",
            "onlineShopUrl": "",
            "ecommerceUrl": ""
        },
        {
            "storeId": "14860",
            "retailerStoreId": "",
            "storeName": "IGA Xpress Bicheno",
            "address": "39 Foster Street\r\n",
            "suburb": "Bicheno",
            "state": "TAS",
            "postcode": "7215",
            "phone": "03 6128 3023",
            "fax": "",
            "hours": "8:00AM - 6:00PM\r\n8:00AM - 6:00PM\r\n8:00AM - 6:00PM\r\n8:00AM - 6:00PM\r\n8:00AM - 6:00PM\r\n8:00AM - 6:00PM\r\n8:00AM - 6:00PM",
            "hoursDay": "Monday\r\nTuesday\r\nWednesday\r\nThursday\r\nFriday\r\nSaturday\r\nSunday",
            "regionId": null,
            "latitude": "-41.874666000000000",
            "longitude": "148.304028000000000",
            "tag": "",
            "locationNumber": "1447",
            "saleGroupId": "0",
            "christmasHours": "",
            "christmasHoursDay": "Please contact the store for Easter opening hours.",
            "updateTimeStamp": "2025-04-10 13:33:09",
            "postcodeId": "15710",
            "storeUrl": "http://www.igatas.com.au/?utm_source=igawebsite&utm_medium=tile&utm_campaign=store_locator&utm_content=cta_button",
            "updated": "0",
            "onlineShopUrl": "",
            "ecommerceUrl": ""
        },
        {
            "storeId": "14863",
            "retailerStoreId": "",
            "storeName": "IGA Everyday Bridport",
            "address": "109A Main Street\r\n",
            "suburb": "Bridport",
            "state": "TAS",
            "postcode": "7262",
            "phone": "03 6356 1166",
            "fax": "",
            "hours": "8:00 AM - 07:30 PM\r\n8:00 AM - 07:30 PM\r\n8:00 AM - 07:30 PM\r\n8:00 AM - 07:30 PM\r\n8:00 AM - 07:30 PM\r\n8:00 AM - 07:30 PM\r\n9:00 AM - 09:30 PM",
            "hoursDay": "Monday\r\nTuesday\r\nWednesday\r\nThursday\r\nFriday\r\nSaturday\r\nSunday",
            "regionId": null,
            "latitude": "-41.001144000000000",
            "longitude": "147.392039000000000",
            "tag": "",
            "locationNumber": "1449",
            "saleGroupId": "0",
            "christmasHours": "",
            "christmasHoursDay": "Please contact the store for Easter opening hours.",
            "updateTimeStamp": "2025-04-10 13:33:09",
            "postcodeId": "15836",
            "storeUrl": "https://www.igatas.com.au/iga-everyday-bridport?utm_source=igawebsite&utm_medium=tile&utm_campaign=store_locator&utm_content=cta_button",
            "updated": "0",
            "onlineShopUrl": "",
            "ecommerceUrl": ""
        },
        {
            "storeId": "14894",
            "retailerStoreId": "",
            "storeName": "IGA Xpress Bridport",
            "address": "83 Main Street\r\n",
            "suburb": "Bridport",
            "state": "TAS",
            "postcode": "7262",
            "phone": "03 6356 1282",
            "fax": "",
            "hours": "6:00 AM - 07:30 PM\r\n6:00 AM - 07:30 PM\r\n6:00 AM - 07:30 PM\r\n6:00 AM - 07:30 PM\r\n6:00 AM - 07:30 PM\r\n7:00 AM - 07:00 PM\r\n7:00 AM - 07:00 PM",
            "hoursDay": "Monday\r\nTuesday\r\nWednesday\r\nThursday\r\nFriday\r\nSaturday\r\nSunday",
            "regionId": null,
            "latitude": "-41.002893000000000",
            "longitude": "147.394107000000000",
            "tag": "",
            "locationNumber": "1797",
            "saleGroupId": "0",
            "christmasHours": "",
            "christmasHoursDay": "Please contact the store for Easter opening hours.",
            "updateTimeStamp": "2025-04-10 13:33:09",
            "postcodeId": "15836",
            "storeUrl": "http://www.igatas.com.au/?utm_source=igawebsite&utm_medium=tile&utm_campaign=store_locator&utm_content=cta_button",
            "updated": "0",
            "onlineShopUrl": "",
            "ecommerceUrl": ""
        },
        {
            "storeId": "14865",
            "retailerStoreId": "",
            "storeName": "IGA Campbell Town",
            "address": "113 High Street\n",
            "suburb": "Campbell Town",
            "state": "TAS",
            "postcode": "7210",
            "phone": "03 6381 1311",
            "fax": "",
            "hours": "8.00am-6.00pm\r\n8.00am-6.00pm\r\n8.00am-6.00pm\r\n8.00am-6.00pm\r\n8.00am-6.00pm\r\n9.00am-5.30pm\r\n9.00am-5.30pm",
            "hoursDay": "Monday\r\nTuesday\r\nWednesday\r\nThursday\r\nFriday\r\nSaturday\r\nSunday",
            "regionId": "0",
            "latitude": "-41.929988000000000",
            "longitude": "147.493376000000000",
            "tag": "30317",
            "locationNumber": "1453",
            "saleGroupId": "0",
            "christmasHours": "",
            "christmasHoursDay": "Please contact the store for Easter opening hours.",
            "updateTimeStamp": "2025-04-10 13:33:09",
            "postcodeId": "15688",
            "storeUrl": "",
            "updated": "0",
            "onlineShopUrl": "",
            "ecommerceUrl": ""
        },
        {
            "storeId": "14866",
            "retailerStoreId": "",
            "storeName": "Exeter IGA Everyday",
            "address": "118 Main Road\r\n",
            "suburb": "Exeter",
            "state": "TAS",
            "postcode": "7275",
            "phone": "03 6394 4117",
            "fax": "",
            "hours": "6:00AM - 7:00PM\r\n6:00AM - 7:00PM\r\n6:00AM - 7:00PM\r\n6:00AM - 7:00PM\r\n6:00AM - 7:00PM\r\n6:00AM - 7:00PM\r\n6:00AM - 7:00PM",
            "hoursDay": "Monday\r\nTuesday\r\nWednesday\r\nThursday\r\nFriday\r\nSaturday\r\nSunday",
            "regionId": null,
            "latitude": "-41.299218000000000",
            "longitude": "146.952138000000000",
            "tag": "",
            "locationNumber": "1457",
            "saleGroupId": "0",
            "christmasHours": "",
            "christmasHoursDay": "Please contact the store for Easter opening hours.",
            "updateTimeStamp": "2025-04-10 13:33:09",
            "postcodeId": "15882",
            "storeUrl": "",
            "updated": "0",
            "onlineShopUrl": "",
            "ecommerceUrl": ""
        },
        {
            "storeId": "14930",
            "retailerStoreId": "",
            "storeName": "IGA Xpress Exeter",
            "address": "112 Main Road\r\n",
            "suburb": "Exeter",
            "state": "TAS",
            "postcode": "7275",
            "phone": "03 6394 3066",
            "fax": "",
            "hours": "6:00AM - 6:30PM\r\n6:00AM - 6:30PM\r\n6:00AM - 6:30PM\r\n6:00AM - 6:30PM\r\n6:00AM - 6:30PM\r\n6:00AM - 6:30PM\r\n6:00AM - 6:30PM",
            "hoursDay": "Monday\r\nTuesday\r\nWednesday\r\nThursday\r\nFriday\r\nSaturday\r\nSunday",
            "regionId": null,
            "latitude": "-41.299310000000000",
            "longitude": "146.952850000000000",
            "tag": "",
            "locationNumber": "1823",
            "saleGroupId": "0",
            "christmasHours": "",
            "christmasHoursDay": "Please contact the store for Easter opening hours.",
            "updateTimeStamp": "2025-04-10 13:33:09",
            "postcodeId": "15882",
            "storeUrl": "",
            "updated": "0",
            "onlineShopUrl": "",
            "ecommerceUrl": ""
        },
        {
            "storeId": "14869",
            "retailerStoreId": "",
            "storeName": "IGA Everyday Lilydale",
            "address": "1965 Main Road\n",
            "suburb": "Lilydale",
            "state": "TAS",
            "postcode": "7268",
            "phone": "03 6395 1422",
            "fax": "",
            "hours": "7.00am-7.00pm\r\n7.00am-7.00pm\r\n7.00am-7.00pm\r\n7.00am-7.00pm\r\n7.00am-7.00pm\r\n7.00am-6.00pm\r\n8.00am-6.00pm",
            "hoursDay": "Monday\r\nTuesday\r\nWednesday\r\nThursday\r\nFriday\r\nSaturday\r\nSunday",
            "regionId": "0",
            "latitude": "-41.250443000000000",
            "longitude": "147.216936000000000",
            "tag": "",
            "locationNumber": "1460",
            "saleGroupId": "0",
            "christmasHours": "",
            "christmasHoursDay": "Please contact the store for Easter opening hours.",
            "updateTimeStamp": "2025-04-10 13:33:09",
            "postcodeId": "15866",
            "storeUrl": "http://www.igatas.com.au/?utm_source=igawebsite&utm_medium=tile&utm_campaign=store_locator&utm_content=cta_button",
            "updated": "0",
            "onlineShopUrl": "",
            "ecommerceUrl": ""
        },
        {
            "storeId": "14872",
            "retailerStoreId": "",
            "storeName": "IGA Everyday Nubeena",
            "address": "Main Road\r\n",
            "suburb": "Nubeena",
            "state": "TAS",
            "postcode": "7184",
            "phone": "03 6250 2258",
            "fax": null,
            "hours": "6.30am-6.00pm\r\n6.30am-6.00pm\r\n6.30am-6.00pm\r\n6.30am-6.00pm\r\n6.30am-6.00pm\r\n6.30am-6.00pm\r\n6.30am-6.00pm",
            "hoursDay": "Monday\r\nTuesday\r\nWednesday\r\nThursday\r\nFriday\r\nSaturday\r\nSunday",
            "regionId": "0",
            "latitude": "-43.098900000000000",
            "longitude": "147.743000000000000",
            "tag": null,
            "locationNumber": "1462",
            "saleGroupId": null,
            "christmasHours": "",
            "christmasHoursDay": "Please contact the store for Easter opening hours.",
            "updateTimeStamp": "2025-04-10 13:33:09",
            "postcodeId": "15666",
            "storeUrl": "http://www.igatas.com.au/?utm_source=igawebsite&utm_medium=tile&utm_campaign=store_locator&utm_content=cta_button",
            "updated": "0",
            "onlineShopUrl": "",
            "ecommerceUrl": ""
        },
        {
            "storeId": "14908",
            "retailerStoreId": "",
            "storeName": "IGA Xpress Nubeena",
            "address": "1856 Main Road\nCurrie",
            "suburb": "Nubeena",
            "state": "TAS",
            "postcode": "7184",
            "phone": "03 6250 1276",
            "fax": "",
            "hours": "8.00am-6.00pm\r\n8.00am-6.00pm\r\n8.00am-6.00pm\r\n8.00am-6.00pm\r\n8.00am-6.00pm\r\n8.00am-6.00pm\r\n8.00am-6.00pm",
            "hoursDay": "Monday\r\nTuesday\r\nWednesday\r\nThursday\r\nFriday\r\nSaturday\r\nSunday",
            "regionId": "0",
            "latitude": "-43.115520000000000",
            "longitude": "147.752595000000000",
            "tag": "",
            "locationNumber": "1863",
            "saleGroupId": "0",
            "christmasHours": "",
            "christmasHoursDay": "Please contact the store for Easter opening hours.",
            "updateTimeStamp": "2025-04-10 13:33:09",
            "postcodeId": "15668",
            "storeUrl": "https://www.igatas.com.au/iga-x-press-nubeena-seabreeze?utm_source=igawebsite&utm_medium=tile&utm_campaign=store_locator&utm_content=cta_button",
            "updated": "0",
            "onlineShopUrl": "",
            "ecommerceUrl": ""
        },
        {
            "storeId": "14873",
            "retailerStoreId": "",
            "storeName": "IGA Everyday Penguin",
            "address": "59 Main Road\n",
            "suburb": "Penguin",
            "state": "TAS",
            "postcode": "7316",
            "phone": "03 6437 2099",
            "fax": "",
            "hours": "7.00am-6.00pm\r\n7.00am-6.00pm\r\n7.00am-6.00pm\r\n7.00am-6.00pm\r\n7.00am-6.00pm\r\n7.00am-6.00pm\r\nClosed",
            "hoursDay": "Monday\r\nTuesday\r\nWednesday\r\nThursday\r\nFriday\r\nSaturday\r\nSunday",
            "regionId": "0",
            "latitude": "-41.112671000000000",
            "longitude": "146.071381000000000",
            "tag": "",
            "locationNumber": "1465",
            "saleGroupId": "0",
            "christmasHours": "",
            "christmasHoursDay": "Please contact the store for Easter opening hours.",
            "updateTimeStamp": "2025-04-10 13:33:09",
            "postcodeId": "16033",
            "storeUrl": "http://www.igatas.com.au/?utm_source=igawebsite&utm_medium=tile&utm_campaign=store_locator&utm_content=cta_button",
            "updated": "0",
            "onlineShopUrl": "",
            "ecommerceUrl": ""
        },
        {
            "storeId": "14910",
            "retailerStoreId": "",
            "storeName": "IGA Xpress Penguin",
            "address": "66 Main Road",
            "suburb": "Penguin",
            "state": "TAS",
            "postcode": "7316",
            "phone": "03 6437 2976",
            "fax": "",
            "hours": "7.00am-7.00pm\r\n7.00am-7.00pm\r\n7.00am-7.00pm\r\n7.00am-7.00pm\r\n7.00am-7.00pm\r\n7.00am-7.00pm\r\n7.00am-7.00pm",
            "hoursDay": "Monday\r\nTuesday\r\nWednesday\r\nThursday\r\nFriday\r\nSaturday\r\nSunday",
            "regionId": "0",
            "latitude": "-41.112917000000000",
            "longitude": "146.071874000000000",
            "tag": "30658",
            "locationNumber": "1870",
            "saleGroupId": "0",
            "christmasHours": "",
            "christmasHoursDay": "Please contact the store for Easter opening hours.",
            "updateTimeStamp": "2025-04-10 13:33:09",
            "postcodeId": "16033",
            "storeUrl": "",
            "updated": "0",
            "onlineShopUrl": "",
            "ecommerceUrl": ""
        },
        {
            "storeId": "14874",
            "retailerStoreId": "",
            "storeName": "IGA Everyday Orford",
            "address": "5 Charles Street\r\n",
            "suburb": "Orford",
            "state": "TAS",
            "postcode": "7190",
            "phone": "03 6257 1124",
            "fax": null,
            "hours": "7.30am-7.00pm\r\n7.30am-7.00pm\r\n7.30am-7.00pm\r\n7.30am-7.00pm\r\n7.30am-7.00pm\r\n7.30am-7.00pm\r\n7.30am-7.00pm",
            "hoursDay": "Monday\r\nTuesday\r\nWednesday\r\nThursday\r\nFriday\r\nSaturday\r\nSunday",
            "regionId": "0",
            "latitude": "-42.559434000000000",
            "longitude": "147.872066000000000",
            "tag": null,
            "locationNumber": "1464",
            "saleGroupId": null,
            "christmasHours": "",
            "christmasHoursDay": "Please contact the store for Easter opening hours.",
            "updateTimeStamp": "2025-04-10 13:33:09",
            "postcodeId": "15678",
            "storeUrl": "",
            "updated": "0",
            "onlineShopUrl": "",
            "ecommerceUrl": ""
        },
        {
            "storeId": "14885",
            "retailerStoreId": "",
            "storeName": "IGA Everyday Triabunna",
            "address": "Cnr Charles & Vicary Streets\r\n",
            "suburb": "Triabunna",
            "state": "TAS",
            "postcode": "7190",
            "phone": "03 6257 3227",
            "fax": null,
            "hours": "8.00am-6.00pm\r\n8.00am-6.00pm\r\n8.00am-6.00pm\r\n8.00am-6.00pm\r\n8.00am-6.00pm\r\n8.00am-6.00pm\r\n8.00am-6.00pm",
            "hoursDay": "Monday\r\nTuesday\r\nWednesday\r\nThursday\r\nFriday\r\nSaturday\r\nSunday",
            "regionId": "0",
            "latitude": "-42.507811000000000",
            "longitude": "147.914520000000000",
            "tag": null,
            "locationNumber": "1478",
            "saleGroupId": null,
            "christmasHours": "",
            "christmasHoursDay": "Please contact the store for Easter opening hours.",
            "updateTimeStamp": "2025-04-10 13:33:09",
            "postcodeId": "15685",
            "storeUrl": "http://www.igatas.com.au/?utm_source=igawebsite&utm_medium=tile&utm_campaign=store_locator&utm_content=cta_button",
            "updated": "0",
            "onlineShopUrl": "",
            "ecommerceUrl": ""
        },
        {
            "storeId": "14875",
            "retailerStoreId": "",
            "storeName": "IGA Everyday Queenstown (Evans)",
            "address": "52 Orr Street\n",
            "suburb": "Queenstown",
            "state": "TAS",
            "postcode": "7467",
            "phone": "03 6471 1122",
            "fax": "",
            "hours": "8:00am - 7:00pm\r\n8:00am - 7:00pm\r\n8:00am - 7:00pm\r\n8:00am - 7:00pm\r\n8:00am - 7:00pm\r\n9:00am - 7:00pm\r\n9:00am - 7:00pm",
            "hoursDay": "Monday\r\nTuesday\r\nWednesday\r\nThursday\r\nFriday\r\nSaturday\r\nSunday",
            "regionId": "0",
            "latitude": "-42.080436000000000",
            "longitude": "145.557432000000000",
            "tag": "",
            "locationNumber": "1466",
            "saleGroupId": "0",
            "christmasHours": "",
            "christmasHoursDay": "Please contact the store for Easter opening hours.",
            "updateTimeStamp": "2025-04-10 13:33:09",
            "postcodeId": "16144",
            "storeUrl": "",
            "updated": "0",
            "onlineShopUrl": "",
            "ecommerceUrl": ""
        },
        {
            "storeId": "14877",
            "retailerStoreId": "",
            "storeName": "IGA Everyday Queenstown (Railway)",
            "address": "30 Orr Street\r\n",
            "suburb": "Queenstown",
            "state": "TAS",
            "postcode": "7467",
            "phone": "03 6471 1025",
            "fax": null,
            "hours": "8.30am-7.00pm\r\n8.30am-7.00pm\r\n8.30am-7.00pm\r\n8.30am-7.00pm\r\n8.30am-7.00pm\r\n9.00am-7.00pm\r\n9.00am-7.00pm",
            "hoursDay": "Monday\r\nTuesday\r\nWednesday\r\nThursday\r\nFriday\r\nSaturday\r\nSunday",
            "regionId": "0",
            "latitude": "-42.080374000000000",
            "longitude": "145.555781000000000",
            "tag": null,
            "locationNumber": "1467",
            "saleGroupId": null,
            "christmasHours": "",
            "christmasHoursDay": "Please contact the store for Easter opening hours.",
            "updateTimeStamp": "2025-04-10 13:33:09",
            "postcodeId": "16144",
            "storeUrl": "http://www.igatas.com.au/?utm_source=igawebsite&utm_medium=tile&utm_campaign=store_locator&utm_content=cta_button",
            "updated": "0",
            "onlineShopUrl": "",
            "ecommerceUrl": ""
        },
        {
            "storeId": "14878",
            "retailerStoreId": "",
            "storeName": "IGA Everyday Sheffield",
            "address": "59 Main Street\n",
            "suburb": "Sheffield",
            "state": "TAS",
            "postcode": "7306",
            "phone": "03 6491 1140",
            "fax": "",
            "hours": "8.00am-6.00pm\r\n8.00am-6.00pm\r\n8.00am-6.00pm\r\n8.00am-6.00pm\r\n8.00am-6.00pm\r\n8.00am-6.00pm\r\n8.00am-6.00pm",
            "hoursDay": "Monday\r\nTuesday\r\nWednesday\r\nThursday\r\nFriday\r\nSaturday\r\nSunday",
            "regionId": "0",
            "latitude": "-41.382271000000000",
            "longitude": "146.325188000000000",
            "tag": "",
            "locationNumber": "1471",
            "saleGroupId": "0",
            "christmasHours": "",
            "christmasHoursDay": "Please contact the store for Easter opening hours.",
            "updateTimeStamp": "2025-04-10 13:33:09",
            "postcodeId": "15972",
            "storeUrl": "http://www.igatas.com.au/?utm_source=igawebsite&utm_medium=tile&utm_campaign=store_locator&utm_content=cta_button",
            "updated": "0",
            "onlineShopUrl": "",
            "ecommerceUrl": ""
        },
        {
            "storeId": "14880",
            "retailerStoreId": "",
            "storeName": "IGA Everyday Richmond",
            "address": "29 Bridge Street\n",
            "suburb": "Richmond",
            "state": "TAS",
            "postcode": "7025",
            "phone": "03 6260 2108",
            "fax": "",
            "hours": "7.00am-6.30pm\r\n7.00am-6.30pm\r\n7.00am-6.30pm\r\n7.00am-6.30pm\r\n7.00am-6.30pm\r\n8.00am-6.00pm\r\n8.00am-6.00pm",
            "hoursDay": "Monday\r\nTuesday\r\nWednesday\r\nThursday\r\nFriday\r\nSaturday\r\nSunday",
            "regionId": "0",
            "latitude": "-42.735938000000000",
            "longitude": "147.436971000000000",
            "tag": "",
            "locationNumber": "1469",
            "saleGroupId": "0",
            "christmasHours": "",
            "christmasHoursDay": "Please contact the store for Easter opening hours.",
            "updateTimeStamp": "2025-04-10 13:33:09",
            "postcodeId": "15431",
            "storeUrl": "",
            "updated": "0",
            "onlineShopUrl": "",
            "ecommerceUrl": ""
        },
        {
            "storeId": "14884",
            "retailerStoreId": "",
            "storeName": "Patrick\u2019s IGA Strahan",
            "address": "1 Reid Street\r\n",
            "suburb": "Strahan",
            "state": "TAS",
            "postcode": "7468",
            "phone": "03 6471 7738",
            "fax": "",
            "hours": "7:30AM - 7:30PM\r\n7:30AM - 7:30PM\r\n7:30AM - 7:30PM\r\n7:30AM - 7:30PM\r\n7:30AM - 7:30PM\r\n8:00AM - 6:30PM\r\n8:00AM - 6:30PM",
            "hoursDay": "Monday\r\nTuesday\r\nWednesday\r\nThursday\r\nFriday\r\nSaturday\r\nSunday",
            "regionId": null,
            "latitude": "-42.151084000000000",
            "longitude": "145.327599000000000",
            "tag": "",
            "locationNumber": "1475",
            "saleGroupId": "0",
            "christmasHours": "",
            "christmasHoursDay": "Please contact the store for Easter opening hours.",
            "updateTimeStamp": "2025-04-10 13:33:09",
            "postcodeId": "16146",
            "storeUrl": "",
            "updated": "0",
            "onlineShopUrl": "",
            "ecommerceUrl": ""
        },
        {
            "storeId": "14890",
            "retailerStoreId": "",
            "storeName": "IGA X-Press Zeehan (Pringles)",
            "address": "31 Main Street\n",
            "suburb": "Zeehan",
            "state": "TAS",
            "postcode": "7469",
            "phone": "03 6471 6302",
            "fax": "",
            "hours": "5AM - 6:30PM\r\n5AM - 6:30PM\r\n5AM - 6:30PM\r\n5AM - 6:30PM\r\n5AM - 6:30PM\r\n5AM - 6PM\r\n8AM - 6PM",
            "hoursDay": "Monday\r\nTuesday\r\nWednesday\r\nThursday\r\nFriday\r\nSaturday\r\nSunday",
            "regionId": "0",
            "latitude": "-41.891712000000000",
            "longitude": "145.343553000000000",
            "tag": "",
            "locationNumber": "1483",
            "saleGroupId": "0",
            "christmasHours": "",
            "christmasHoursDay": "Please contact the store for Easter opening hours.",
            "updateTimeStamp": "2025-04-10 13:33:09",
            "postcodeId": "16150",
            "storeUrl": "https://www.igatas.com.au/iga-xpress-zeehan?utm_source=igawebsite&utm_medium=tile&utm_campaign=store_locator&utm_content=cta_button",
            "updated": "0",
            "onlineShopUrl": "",
            "ecommerceUrl": ""
        },
        {
            "storeId": "14893",
            "retailerStoreId": "",
            "storeName": "IGA X-press Branxholm",
            "address": "4 Scott Street\r\n",
            "suburb": "Branxholm",
            "state": "TAS",
            "postcode": "7261",
            "phone": "03 6354 6168",
            "fax": "",
            "hours": "7:00AM - 5:30PM\r\n7:00AM - 5:30PM\r\n7:00AM - 5:30PM\r\n7:00AM - 5:30PM\r\n7:00AM - 5:30PM\r\n8:00AM - 5:30PM\r\n9:00AM - 5:30PM",
            "hoursDay": "Monday\r\nTuesday\r\nWednesday\r\nThursday\r\nFriday\r\nSaturday\r\nSunday",
            "regionId": null,
            "latitude": "-41.168842000000000",
            "longitude": "147.736641000000000",
            "tag": "",
            "locationNumber": "1796",
            "saleGroupId": "0",
            "christmasHours": "",
            "christmasHoursDay": "Please contact the store for Easter opening hours.",
            "updateTimeStamp": "2025-04-10 13:33:09",
            "postcodeId": "15834",
            "storeUrl": "",
            "updated": "0",
            "onlineShopUrl": "",
            "ecommerceUrl": ""
        },
        {
            "storeId": "14896",
            "retailerStoreId": "",
            "storeName": "IGA X-press Cressy",
            "address": "89 Main Street\r\n",
            "suburb": "Cressy",
            "state": "TAS",
            "postcode": "7302",
            "phone": "03 6397 6264",
            "fax": null,
            "hours": "6.30am-6.30pm\r\n6.30am-6.30pm\r\n6.30am-6.30pm\r\n6.30am-6.30pm\r\n6.30am-6.30pm\r\n6.30am-5.00pm\r\n6.30am-5.00pm",
            "hoursDay": "Monday\r\nTuesday\r\nWednesday\r\nThursday\r\nFriday\r\nSaturday\r\nSunday",
            "regionId": "0",
            "latitude": "-41.687764000000000",
            "longitude": "147.079902000000000",
            "tag": "30688",
            "locationNumber": "1813",
            "saleGroupId": null,
            "christmasHours": "",
            "christmasHoursDay": "Please contact the store for Easter opening hours.",
            "updateTimeStamp": "2025-04-10 13:33:09",
            "postcodeId": "15913",
            "storeUrl": "https://www.igatas.com.au/iga-x-press-cressy?utm_source=igawebsite&utm_medium=tile&utm_campaign=store_locator&utm_content=cta_button",
            "updated": "0",
            "onlineShopUrl": "",
            "ecommerceUrl": ""
        },
        {
            "storeId": "14899",
            "retailerStoreId": "",
            "storeName": "IGA Xpress Whitemark",
            "address": "3 Patrick Street\n",
            "suburb": "Whitemark",
            "state": "TAS",
            "postcode": "7255",
            "phone": "03 6359 2010",
            "fax": "",
            "hours": "9.00am-5.30pm\r\n9.00am-5.30pm\r\n9.00am-5.30pm\r\n9.00am-5.30pm\r\n9.00am-5.30pm\r\n9.00am-12.00pm\r\nClosed",
            "hoursDay": "Monday\r\nTuesday\r\nWednesday\r\nThursday\r\nFriday\r\nSaturday\r\nSunday",
            "regionId": "0",
            "latitude": "-40.120944000000000",
            "longitude": "148.016438000000000",
            "tag": "",
            "locationNumber": "1827",
            "saleGroupId": "0",
            "christmasHours": "",
            "christmasHoursDay": "Please contact the store for Easter opening hours.",
            "updateTimeStamp": "2025-04-10 13:33:09",
            "postcodeId": "15792",
            "storeUrl": "http://www.igatas.com.au/?utm_source=igawebsite&utm_medium=tile&utm_campaign=store_locator&utm_content=cta_button",
            "updated": "0",
            "onlineShopUrl": "",
            "ecommerceUrl": ""
        },
        {
            "storeId": "14906",
            "retailerStoreId": "",
            "storeName": "IGA Xpress Longford",
            "address": "22 Marlborough Street\n",
            "suburb": "Longford",
            "state": "TAS",
            "postcode": "7301",
            "phone": "03 6391 2629",
            "fax": "",
            "hours": "7.00am-8.00pm\r\n7.00am-8.00pm\r\n7.00am-8.00pm\r\n7.00am-8.00pm\r\n7.00am-8.00pm\r\n8.00am-8.00pm\r\n8.00am-8.00pm",
            "hoursDay": "Monday\r\nTuesday\r\nWednesday\r\nThursday\r\nFriday\r\nSaturday\r\nSunday",
            "regionId": "0",
            "latitude": "-41.596734000000000",
            "longitude": "147.121460000000000",
            "tag": "",
            "locationNumber": "1848",
            "saleGroupId": "0",
            "christmasHours": "",
            "christmasHoursDay": "Please contact the store for Easter opening hours.",
            "updateTimeStamp": "2025-04-10 13:33:09",
            "postcodeId": "15910",
            "storeUrl": "http://www.igatas.com.au/?utm_source=igawebsite&utm_medium=tile&utm_campaign=store_locator&utm_content=cta_button",
            "updated": "0",
            "onlineShopUrl": "",
            "ecommerceUrl": ""
        },
        {
            "storeId": "14921",
            "retailerStoreId": "",
            "storeName": "IGA Longford (Hill Street Grocer)",
            "address": "7a Wellington Street",
            "suburb": "Longford",
            "state": "TAS",
            "postcode": "7301",
            "phone": "03 6391 1209",
            "fax": "",
            "hours": "7.30am-7.30pm\r\n7.30am-7.30pm\r\n7.30am-7.30pm\r\n7.30am-7.30pm\r\n7.30am-7.30pm\r\n7.30am-7.30pm\r\n7.30am-7.30pm",
            "hoursDay": "Monday\r\nTuesday\r\nWednesday\r\nThursday\r\nFriday\r\nSaturday\r\nSunday",
            "regionId": "0",
            "latitude": "-41.588269000000000",
            "longitude": "147.119948000000000",
            "tag": "",
            "locationNumber": "2286",
            "saleGroupId": "0",
            "christmasHours": "",
            "christmasHoursDay": "Please contact the store for Easter opening hours.",
            "updateTimeStamp": "2025-04-10 13:33:09",
            "postcodeId": "15910",
            "storeUrl": "",
            "updated": "0",
            "onlineShopUrl": "",
            "ecommerceUrl": ""
        },
        {
            "storeId": "14938",
            "retailerStoreId": "",
            "storeName": "IGA X-press Perth",
            "address": "65 Main Road\r\n",
            "suburb": "Perth",
            "state": "TAS",
            "postcode": "7300",
            "phone": "03 6398 2219",
            "fax": null,
            "hours": "6.30am-7.00pm\r\n6.30am-7.00pm\r\n6.30am-7.00pm\r\n6.30am-7.00pm\r\n6.30am-7.00pm\r\n6.30am-7.00pm\r\n7.30am-7.00pm",
            "hoursDay": "Monday\r\nTuesday\r\nWednesday\r\nThursday\r\nFriday\r\nSaturday\r\nSunday",
            "regionId": "0",
            "latitude": "-41.576801000000000",
            "longitude": "147.174482000000000",
            "tag": null,
            "locationNumber": "1871",
            "saleGroupId": null,
            "christmasHours": "",
            "christmasHoursDay": "Please contact the store for Easter opening hours.",
            "updateTimeStamp": "2025-04-10 13:33:09",
            "postcodeId": "15905",
            "storeUrl": "https://www.igatas.com.au/iga-x-press-perth?utm_source=igawebsite&utm_medium=tile&utm_campaign=store_locator&utm_content=cta_button",
            "updated": "0",
            "onlineShopUrl": "",
            "ecommerceUrl": ""
        },
        {
            "storeId": "14909",
            "retailerStoreId": "",
            "storeName": "IGA X-press Ouse",
            "address": "6941 Lyell Highway\r\n",
            "suburb": "Ouse",
            "state": "TAS",
            "postcode": "7140",
            "phone": "03 6287 1205",
            "fax": "",
            "hours": "6:00am - 7:00pm\r\n6:00am - 7:00pm\r\n6:00am - 7:00pm\r\n6:00am - 7:00pm\r\n6:00am - 7:00pm\r\n8:00am - 7:00pm\r\n8:00am - 7:00pm",
            "hoursDay": "Monday\r\nTuesday\r\nWednesday\r\nThursday\r\nFriday\r\nSaturday\r\nSunday",
            "regionId": null,
            "latitude": "-42.485379000000000",
            "longitude": "146.711437000000000",
            "tag": "",
            "locationNumber": "1866",
            "saleGroupId": "0",
            "christmasHours": "",
            "christmasHoursDay": "Please contact the store for Easter opening hours.",
            "updateTimeStamp": "2025-04-10 13:33:09",
            "postcodeId": "15591",
            "storeUrl": "https://www.igatas.com.au/iga-x-press-ouse?utm_source=igawebsite&utm_medium=tile&utm_campaign=store_locator&utm_content=cta_button",
            "updated": "0",
            "onlineShopUrl": "",
            "ecommerceUrl": ""
        },
        {
            "storeId": "14914",
            "retailerStoreId": "",
            "storeName": "IGA Xpress Saint Marys",
            "address": "38 Main Road\r\n",
            "suburb": "St Marys",
            "state": "TAS",
            "postcode": "7215",
            "phone": "03 6372 2240",
            "fax": "",
            "hours": "6:30AM - 7:00PM\r\n6:30AM - 7:00PM\r\n6:30AM - 7:00PM\r\n6:30AM - 7:00PM\r\n6:30AM - 7:00PM\r\n6:30AM - 7:00PM\r\n7:30AM - 6:30PM",
            "hoursDay": "Monday\r\nTuesday\r\nWednesday\r\nThursday\r\nFriday\r\nSaturday\r\nSunday",
            "regionId": null,
            "latitude": "-41.579919000000000",
            "longitude": "148.185061000000000",
            "tag": "",
            "locationNumber": "1890",
            "saleGroupId": "0",
            "christmasHours": "",
            "christmasHoursDay": "Please contact the store for Easter opening hours.",
            "updateTimeStamp": "2025-04-10 13:33:09",
            "postcodeId": "15723",
            "storeUrl": "http://www.igatas.com.au/?utm_source=igawebsite&utm_medium=tile&utm_campaign=store_locator&utm_content=cta_button",
            "updated": "0",
            "onlineShopUrl": "",
            "ecommerceUrl": ""
        },
        {
            "storeId": "14929",
            "retailerStoreId": "",
            "storeName": "IGA Xpress Saint Marys Hillys ",
            "address": "56 Main Street\r\n",
            "suburb": "St Marys",
            "state": "TAS",
            "postcode": "7215",
            "phone": "",
            "fax": "",
            "hours": "7:30AM - 6:30PM\r\n7:30AM - 6:30PM\r\n7:30AM - 6:30PM\r\n7:30AM - 6:30PM\r\n7:30AM - 6:30PM\r\n7:30AM - 6:00PM\r\n8:00AM - 6:00PM\r\n",
            "hoursDay": "Monday\r\nTuesday\r\nWednesday\r\nThursday\r\nFriday\r\nSaturday\r\nSunday",
            "regionId": null,
            "latitude": "-41.579319000000000",
            "longitude": "148.188108000000000",
            "tag": "",
            "locationNumber": "1892",
            "saleGroupId": "0",
            "christmasHours": "",
            "christmasHoursDay": "Please contact the store for Easter opening hours.",
            "updateTimeStamp": "2025-04-10 13:33:09",
            "postcodeId": "15723",
            "storeUrl": "https://www.igatas.com.au/iga-x-press-st-marys-(hillys)?utm_source=igawebsite&utm_medium=tile&utm_campaign=store_locator&utm_content=cta_button",
            "updated": "0",
            "onlineShopUrl": "",
            "ecommerceUrl": ""
        },
        {
            "storeId": "14915",
            "retailerStoreId": "",
            "storeName": "IGA X-press South Riana",
            "address": "1705 Pine Road\r\n",
            "suburb": "South Riana",
            "state": "TAS",
            "postcode": "7316",
            "phone": "03 6437 6219",
            "fax": null,
            "hours": "7.30am-6.30pm\r\n7.30am-6.30pm\r\n7.30am-6.30pm\r\n7.30am-6.30pm\r\n7.30am-6.30pm\r\n8.30am-6.00pm\r\n8.30am-6.00pm",
            "hoursDay": "Monday\r\nTuesday\r\nWednesday\r\nThursday\r\nFriday\r\nSaturday\r\nSunday",
            "regionId": "0",
            "latitude": "-41.234575000000000",
            "longitude": "145.977868000000000",
            "tag": null,
            "locationNumber": "1886",
            "saleGroupId": null,
            "christmasHours": "",
            "christmasHoursDay": "Please contact the store for Easter opening hours.",
            "updateTimeStamp": "2025-04-10 13:33:09",
            "postcodeId": "16036",
            "storeUrl": "https://www.igatas.com.au/iga-x-press-south-riana?utm_source=igawebsite&utm_medium=tile&utm_campaign=store_locator&utm_content=cta_button",
            "updated": "0",
            "onlineShopUrl": "",
            "ecommerceUrl": ""
        },
        {
            "storeId": "14916",
            "retailerStoreId": "",
            "storeName": "IGA Xpress Swansea",
            "address": "8 Franklin Street\r\n",
            "suburb": "Swansea",
            "state": "TAS",
            "postcode": "7190",
            "phone": "03 6257 8118",
            "fax": "",
            "hours": "7:00AM - 6:00PM\r\n7:00AM - 6:00PM\r\n7:00AM - 6:00PM\r\n7:00AM - 6:00PM\r\n7:00AM - 6:00PM\r\n7:00AM - 6:00PM\r\n7:00AM - 6:00PM",
            "hoursDay": "Monday\r\nTuesday\r\nWednesday\r\nThursday\r\nFriday\r\nSaturday\r\nSunday",
            "regionId": null,
            "latitude": "-42.124702000000000",
            "longitude": "148.077518000000000",
            "tag": "",
            "locationNumber": "1895",
            "saleGroupId": "0",
            "christmasHours": "",
            "christmasHoursDay": "Please contact the store for Easter opening hours.",
            "updateTimeStamp": "2025-04-10 13:33:09",
            "postcodeId": "15684",
            "storeUrl": "https://www.igatas.com.au/iga-x-press-swansea?utm_source=igawebsite&utm_medium=tile&utm_campaign=store_locator&utm_content=cta_button",
            "updated": "0",
            "onlineShopUrl": "",
            "ecommerceUrl": ""
        },
        {
            "storeId": "14928",
            "retailerStoreId": "",
            "storeName": "IGA Everyday Swansea",
            "address": "13 Franklin Street\r\n",
            "suburb": "Swansea",
            "state": "TAS",
            "postcode": "7190",
            "phone": "03 6257 8101",
            "fax": "",
            "hours": "8:30AM - 5:30PM\r\n8:30AM - 5:30PM\r\n8:30AM - 5:30PM\r\n8:30AM - 5:30PM\r\n8:30AM - 5:30PM\r\n8:30AM - 5:30PM\r\n8:30AM - 5:30PM",
            "hoursDay": "Monday\r\nTuesday\r\nWednesday\r\nThursday\r\nFriday\r\nSaturday\r\nSunday",
            "regionId": null,
            "latitude": "-42.123143000000000",
            "longitude": "148.074417000000000",
            "tag": "",
            "locationNumber": "1476",
            "saleGroupId": "0",
            "christmasHours": "",
            "christmasHoursDay": "Please contact the store for Easter opening hours.",
            "updateTimeStamp": "2025-04-10 13:33:09",
            "postcodeId": "15684",
            "storeUrl": "http://www.igatas.com.au/?utm_source=igawebsite&utm_medium=tile&utm_campaign=store_locator&utm_content=cta_button",
            "updated": "0",
            "onlineShopUrl": "https://morris-swansea.com.au/?utm_source=igawebsite&utm_medium=tile&utm_campaign=store_locator&utm_content=cta_button",
            "ecommerceUrl": ""
        },
        {
            "storeId": "14933",
            "retailerStoreId": "",
            "storeName": "IGA Dodges Ferry (Hill Street Grocer)",
            "address": "60 Carlton Beach Road\n",
            "suburb": "Dodges Ferry",
            "state": "TAS",
            "postcode": "7173",
            "phone": "03 6265 8757",
            "fax": "",
            "hours": "7.30am-7.30pm\r\n7.30am-7.30pm\r\n7.30am-7.30pm\r\n7.30am-7.30pm\r\n7.30am-7.30pm\r\n7.30am-7.30pm\r\n7.30am-7.30pm",
            "hoursDay": "Monday\r\nTuesday\r\nWednesday\r\nThursday\r\nFriday\r\nSaturday\r\nSunday",
            "regionId": "0",
            "latitude": "-42.857884000000000",
            "longitude": "147.616779000000000",
            "tag": "",
            "locationNumber": "1455",
            "saleGroupId": "0",
            "christmasHours": "",
            "christmasHoursDay": "Please contact the store for Easter opening hours.",
            "updateTimeStamp": "2025-04-10 13:33:09",
            "postcodeId": "15648",
            "storeUrl": "",
            "updated": "0",
            "onlineShopUrl": "",
            "ecommerceUrl": ""
        },
        {
            "storeId": "14934",
            "retailerStoreId": "",
            "storeName": "IGA X-press Geeveston",
            "address": "9 Church Street\r\n",
            "suburb": "Geeveston",
            "state": "TAS",
            "postcode": "7116",
            "phone": "03 6297 1319",
            "fax": null,
            "hours": "7.30am-6.30pm\r\n7.30am-6.30pm\r\n7.30am-6.30pm\r\n7.30am-6.30pm\r\n7.30am-6.30pm\r\n8.00am-6.00pm\r\n8.00am-6.00pm",
            "hoursDay": "Monday\r\nTuesday\r\nWednesday\r\nThursday\r\nFriday\r\nSaturday\r\nSunday",
            "regionId": "0",
            "latitude": "-43.164180000000000",
            "longitude": "146.927006000000000",
            "tag": null,
            "locationNumber": "1831",
            "saleGroupId": null,
            "christmasHours": "",
            "christmasHoursDay": "Please contact the store for Easter opening hours.",
            "updateTimeStamp": "2025-04-10 13:33:09",
            "postcodeId": "15528",
            "storeUrl": "https://www.igatas.com.au/iga-everyday-geeveston?utm_source=igawebsite&utm_medium=tile&utm_campaign=store_locator&utm_content=cta_button",
            "updated": "0",
            "onlineShopUrl": "",
            "ecommerceUrl": ""
        },
        {
            "storeId": "14939",
            "retailerStoreId": "",
            "storeName": "IGA Xpress Rosebery",
            "address": "Agnes Street\n",
            "suburb": "Rosebery",
            "state": "TAS",
            "postcode": "7470",
            "phone": "03 6473 1152",
            "fax": "",
            "hours": "7:30 AM - 7:30 PM\r\n7:30 AM - 7:30 PM\r\n7:30 AM - 7:30 PM\r\n7:30 AM - 7:30 PM\r\n7:30 AM - 7:30 PM\r\n9:00 AM - 6:00 PM\r\n9:00 AM - 6:00 PM",
            "hoursDay": "Monday\r\nTuesday\r\nWednesday\r\nThursday\r\nFriday\r\nSaturday\r\nSunday",
            "regionId": "0",
            "latitude": "-41.779489000000000",
            "longitude": "145.539687000000000",
            "tag": "",
            "locationNumber": "1879",
            "saleGroupId": "0",
            "christmasHours": "",
            "christmasHoursDay": "Please contact the store for Easter opening hours.",
            "updateTimeStamp": "2025-04-10 13:33:09",
            "postcodeId": "16151",
            "storeUrl": "https://www.igatas.com.au/iga-x-press-rosebery?utm_source=igawebsite&utm_medium=tile&utm_campaign=store_locator&utm_content=cta_button",
            "updated": "0",
            "onlineShopUrl": "",
            "ecommerceUrl": ""
        },
        {
            "storeId": "19643",
            "retailerStoreId": "",
            "storeName": "Fellow's IGA Westbury",
            "address": "45 Meander Valley Road",
            "suburb": "Westbury",
            "state": "TAS",
            "postcode": "7303",
            "phone": "03 6393 1480",
            "fax": "",
            "hours": "7:30 AM - 8:00 PM\r\n7:30 AM - 8:00 PM\r\n7:30 AM - 8:00 PM\r\n7:30 AM - 8:00 PM\r\n7:30 AM - 8:00 PM\r\n7:30 AM - 8:00 PM\r\n8:00 AM - 8:00 PM",
            "hoursDay": "Monday\r\nTuesday\r\nWednesday\r\nThursday\r\nFriday\r\nSaturday\r\nSunday",
            "regionId": "0",
            "latitude": "-41.525810000000000",
            "longitude": "146.844690000000000",
            "tag": "",
            "locationNumber": "0",
            "saleGroupId": "0",
            "christmasHours": "",
            "christmasHoursDay": "Please contact the store for Easter opening hours.",
            "updateTimeStamp": "2025-04-10 13:33:09",
            "postcodeId": "15920",
            "storeUrl": "",
            "updated": "0",
            "onlineShopUrl": "",
            "ecommerceUrl": ""
        }
    ]
}