{
    "metadata": {
        "number_of_stores": 230,
        "company": "coles",
        "state": "NSW",
        "date_scraped": "2025-08-07"
    },
    "stores": [
        {
            "id": "COL:5697",
            "name": "Coles Eden",
            "phone": "(02) 6496 4800",
            "isTrading": true,
            "address": {
                "state": "NSW",
                "suburb": "Eden",
                "addressLine": "163 Imlay Street",
                "postcode": "2551"
            },
            "position": {
                "latitude": -37.063632,
                "longitude": 149.904887
            },
            "brand": {
                "name": "Coles Supermarkets",
                "storeFinderId": 2,
                "id": "COL"
            }
        },
        {
            "id": "COL:739",
            "name": "Coles Bega",
            "phone": "(02) 6492 2233",
            "isTrading": true,
            "address": {
                "state": "NSW",
                "suburb": "Bega",
                "addressLine": "Parker St & Carp St",
                "postcode": "2550"
            },
            "position": {
                "latitude": -36.674963,
                "longitude": 149.845138
            },
            "brand": {
                "name": "Coles Supermarkets",
                "storeFinderId": 2,
                "id": "COL"
            }
        },
        {
            "id": "COL:703",
            "name": "Coles Cooma",
            "phone": "(02) 6455 3000",
            "isTrading": true,
            "address": {
                "state": "NSW",
                "suburb": "Cooma",
                "addressLine": "85 - 91 Commissioner St",
                "postcode": "2630"
            },
            "position": {
                "latitude": -36.235937,
                "longitude": 149.126214
            },
            "brand": {
                "name": "Coles Supermarkets",
                "storeFinderId": 2,
                "id": "COL"
            }
        },
        {
            "id": "COL:811",
            "name": "Coles Batemans Bay",
            "phone": "(02) 4472 1913",
            "isTrading": true,
            "address": {
                "state": "NSW",
                "suburb": "Batemans Bay",
                "addressLine": "Vesper St & Princes Hwy",
                "postcode": "2536"
            },
            "position": {
                "latitude": -35.706692,
                "longitude": 150.175888
            },
            "brand": {
                "name": "Coles Supermarkets",
                "storeFinderId": 2,
                "id": "COL"
            }
        },
        {
            "id": "COL:845",
            "name": "Coles Ulladulla",
            "phone": "(02) 4455 1722",
            "isTrading": true,
            "address": {
                "state": "NSW",
                "suburb": "Ulladulla",
                "addressLine": "Boree St & Vincent St",
                "postcode": "2539"
            },
            "position": {
                "latitude": -35.358138,
                "longitude": 150.472517
            },
            "brand": {
                "name": "Coles Supermarkets",
                "storeFinderId": 2,
                "id": "COL"
            }
        },
        {
            "id": "COL:7591",
            "name": "Coles Vincentia",
            "phone": "(02) 4441 7396",
            "isTrading": true,
            "address": {
                "state": "NSW",
                "suburb": "Vincentia",
                "addressLine": "29 The Wool Rd",
                "postcode": "2540"
            },
            "position": {
                "latitude": -35.069971,
                "longitude": 150.674248
            },
            "brand": {
                "name": "Coles Supermarkets",
                "storeFinderId": 2,
                "id": "COL"
            }
        },
        {
            "id": "COL:820",
            "name": "Coles Queanbeyan",
            "phone": "(02) 6124 3600",
            "isTrading": true,
            "address": {
                "state": "NSW",
                "suburb": "Queanbeyan",
                "addressLine": "131 Monaro St",
                "postcode": "2620"
            },
            "position": {
                "latitude": -35.35253,
                "longitude": 149.234572
            },
            "brand": {
                "name": "Coles Supermarkets",
                "storeFinderId": 2,
                "id": "COL"
            }
        },
        {
            "id": "COL:780",
            "name": "Coles Nowra",
            "phone": "(02) 4445 8500",
            "isTrading": true,
            "address": {
                "state": "NSW",
                "suburb": "Nowra",
                "addressLine": "Kinghorne St & Junction St",
                "postcode": "2541"
            },
            "position": {
                "latitude": -34.874208,
                "longitude": 150.60336
            },
            "brand": {
                "name": "Coles Supermarkets",
                "storeFinderId": 2,
                "id": "COL"
            }
        },
        {
            "id": "COL:5797",
            "name": "Coles Shellharbour",
            "phone": "(02) 4295 8300",
            "isTrading": true,
            "address": {
                "state": "NSW",
                "suburb": "Shellharbour",
                "addressLine": "Lake Entrance Rd",
                "postcode": "2529"
            },
            "position": {
                "latitude": -34.564947,
                "longitude": 150.837256
            },
            "brand": {
                "name": "Coles Supermarkets",
                "storeFinderId": 2,
                "id": "COL"
            }
        },
        {
            "id": "COL:822",
            "name": "Coles Warrawong",
            "phone": "(02) 4215 6700",
            "isTrading": true,
            "address": {
                "state": "NSW",
                "suburb": "Warrawong",
                "addressLine": "Cowper St",
                "postcode": "2502"
            },
            "position": {
                "latitude": -34.486257,
                "longitude": 150.888536
            },
            "brand": {
                "name": "Coles Supermarkets",
                "storeFinderId": 2,
                "id": "COL"
            }
        },
        {
            "id": "COL:4387",
            "name": "Coles Berkeley",
            "phone": "(02) 4222 1000",
            "isTrading": true,
            "address": {
                "state": "NSW",
                "suburb": "Berkeley",
                "addressLine": "65 Winnima Way",
                "postcode": "2506"
            },
            "position": {
                "latitude": -34.480423,
                "longitude": 150.845859
            },
            "brand": {
                "name": "Coles Supermarkets",
                "storeFinderId": 2,
                "id": "COL"
            }
        },
        {
            "id": "COL:778",
            "name": "Coles Dapto",
            "phone": "(02) 4258 5200",
            "isTrading": true,
            "address": {
                "state": "NSW",
                "suburb": "Dapto",
                "addressLine": "75 - 87 Princes Hwy",
                "postcode": "2530"
            },
            "position": {
                "latitude": -34.494529,
                "longitude": 150.795182
            },
            "brand": {
                "name": "Coles Supermarkets",
                "storeFinderId": 2,
                "id": "COL"
            }
        },
        {
            "id": "COL:716",
            "name": "Coles Figtree",
            "phone": "(02) 4220 5100",
            "isTrading": true,
            "address": {
                "state": "NSW",
                "suburb": "Figtree",
                "addressLine": "Princes Hwy & The Avenue",
                "postcode": "2525"
            },
            "position": {
                "latitude": -34.435929,
                "longitude": 150.86169
            },
            "brand": {
                "name": "Coles Supermarkets",
                "storeFinderId": 2,
                "id": "COL"
            }
        },
        {
            "id": "COL:7587",
            "name": "Coles Wollongong",
            "phone": "(02) 4220 6700",
            "isTrading": true,
            "address": {
                "state": "NSW",
                "suburb": "Wollongong",
                "addressLine": "Cnr Keira St & Crown Lane",
                "postcode": "2500"
            },
            "position": {
                "latitude": -34.424184,
                "longitude": 150.892464
            },
            "brand": {
                "name": "Coles Supermarkets",
                "storeFinderId": 2,
                "id": "COL"
            }
        },
        {
            "id": "COL:927",
            "name": "Coles Fairy Meadow",
            "phone": "(02) 4223 9300",
            "isTrading": true,
            "address": {
                "state": "NSW",
                "suburb": "Fairy Meadow",
                "addressLine": "Cnr Of Grafton Street And Elliott's Road",
                "postcode": "2519"
            },
            "position": {
                "latitude": -34.394463,
                "longitude": 150.893961
            },
            "brand": {
                "name": "Coles Supermarkets",
                "storeFinderId": 2,
                "id": "COL"
            }
        },
        {
            "id": "COL:890",
            "name": "Coles Corrimal",
            "phone": "(02) 7203 8200",
            "isTrading": true,
            "address": {
                "state": "NSW",
                "suburb": "Corrimal",
                "addressLine": "204 Princes Highway",
                "postcode": "2518"
            },
            "position": {
                "latitude": -34.371508,
                "longitude": 150.898079
            },
            "brand": {
                "name": "Coles Supermarkets",
                "storeFinderId": 2,
                "id": "COL"
            }
        },
        {
            "id": "COL:5698",
            "name": "Coles Thirroul",
            "phone": "(02) 4267 1587",
            "isTrading": true,
            "address": {
                "state": "NSW",
                "suburb": "Thirroul",
                "addressLine": "282 Lawrence Hargrave Drive",
                "postcode": "2515"
            },
            "position": {
                "latitude": -34.315327,
                "longitude": 150.921733
            },
            "brand": {
                "name": "Coles Supermarkets",
                "storeFinderId": 2,
                "id": "COL"
            }
        },
        {
            "id": "COL:5691",
            "name": "Coles Moss Vale",
            "phone": "(02) 4869 5417",
            "isTrading": true,
            "address": {
                "state": "NSW",
                "suburb": "Moss Vale",
                "addressLine": "7 Kirkham St",
                "postcode": "2577"
            },
            "position": {
                "latitude": -34.550309,
                "longitude": 150.372262
            },
            "brand": {
                "name": "Coles Supermarkets",
                "storeFinderId": 2,
                "id": "COL"
            }
        },
        {
            "id": "COL:5813",
            "name": "Coles Cs Stctk Serv NSW M1",
            "phone": "(03) 8754 6500",
            "isTrading": false,
            "address": {
                "state": "NSW",
                "suburb": "Macquarie Park",
                "addressLine": "6 Giffnock Ave",
                "postcode": "2113"
            },
            "position": {
                "latitude": -37.88219,
                "longitude": 144.70045
            },
            "brand": {
                "name": "Coles Supermarkets",
                "storeFinderId": 2,
                "id": "COL"
            }
        },
        {
            "id": "COL:5814",
            "name": "Coles Cs Stctk Serv NSW M2",
            "phone": "(03) 8754 6500",
            "isTrading": false,
            "address": {
                "state": "NSW",
                "suburb": "Macquarie Park",
                "addressLine": "6 Giffnock Ave",
                "postcode": "2113"
            },
            "position": {
                "latitude": -37.88219,
                "longitude": 144.70045
            },
            "brand": {
                "name": "Coles Supermarkets",
                "storeFinderId": 2,
                "id": "COL"
            }
        },
        {
            "id": "COL:5828",
            "name": "Coles Thurgoona Village",
            "phone": "(02) 6048 2700",
            "isTrading": true,
            "address": {
                "state": "NSW",
                "suburb": "Thurgoona",
                "addressLine": "30 Diamond Dr",
                "postcode": "2640"
            },
            "position": {
                "latitude": -36.04463,
                "longitude": 146.99661
            },
            "brand": {
                "name": "Coles Supermarkets",
                "storeFinderId": 2,
                "id": "COL"
            }
        },
        {
            "id": "COL:693",
            "name": "Coles Albury",
            "phone": "(02) 6048 9900",
            "isTrading": true,
            "address": {
                "state": "NSW",
                "suburb": "Albury",
                "addressLine": "Townsend St & Smollet St",
                "postcode": "2640"
            },
            "position": {
                "latitude": -36.0813,
                "longitude": 146.9137
            },
            "brand": {
                "name": "Coles Supermarkets",
                "storeFinderId": 2,
                "id": "COL"
            }
        },
        {
            "id": "COL:617",
            "name": "Coles Lavington",
            "phone": "(02) 6025 4877",
            "isTrading": true,
            "address": {
                "state": "NSW",
                "suburb": "Lavington",
                "addressLine": "Griffith Rd & Urana Rd",
                "postcode": "2641"
            },
            "position": {
                "latitude": -36.050058,
                "longitude": 146.932437
            },
            "brand": {
                "name": "Coles Supermarkets",
                "storeFinderId": 2,
                "id": "COL"
            }
        },
        {
            "id": "COL:804",
            "name": "Coles Bowral",
            "phone": "(02) 4862 7200",
            "isTrading": true,
            "address": {
                "state": "NSW",
                "suburb": "Bowral",
                "addressLine": "Boolwey St & Bendooley St",
                "postcode": "2576"
            },
            "position": {
                "latitude": -34.480179,
                "longitude": 150.4193
            },
            "brand": {
                "name": "Coles Supermarkets",
                "storeFinderId": 2,
                "id": "COL"
            }
        },
        {
            "id": "COL:5736",
            "name": "Coles Helensburgh",
            "phone": "(02) 4299 0200",
            "isTrading": true,
            "address": {
                "state": "NSW",
                "suburb": "Helensburgh",
                "addressLine": "Walker St & Short St",
                "postcode": "2508"
            },
            "position": {
                "latitude": -34.191622,
                "longitude": 150.981985
            },
            "brand": {
                "name": "Coles Supermarkets",
                "storeFinderId": 2,
                "id": "COL"
            }
        },
        {
            "id": "COL:5815",
            "name": "Coles Cs Stctk Serv NSW M3",
            "phone": "(03) 8754 6500",
            "isTrading": false,
            "address": {
                "state": "NSW",
                "suburb": "Macquarie Park",
                "addressLine": "6 Giffnock Ave",
                "postcode": "2113"
            },
            "position": {
                "latitude": -37.88219,
                "longitude": 144.70045
            },
            "brand": {
                "name": "Coles Supermarkets",
                "storeFinderId": 2,
                "id": "COL"
            }
        },
        {
            "id": "COL:802",
            "name": "Coles Goulburn",
            "phone": "(02) 4822 2399",
            "isTrading": true,
            "address": {
                "state": "NSW",
                "suburb": "Goulburn",
                "addressLine": "Auburn St & Clifford St",
                "postcode": "2580"
            },
            "position": {
                "latitude": -34.752749,
                "longitude": 149.720723
            },
            "brand": {
                "name": "Coles Supermarkets",
                "storeFinderId": 2,
                "id": "COL"
            }
        },
        {
            "id": "COL:766",
            "name": "Coles Miranda",
            "phone": "(02) 9540 6200",
            "isTrading": true,
            "address": {
                "state": "NSW",
                "suburb": "Miranda",
                "addressLine": "600 Kingsway",
                "postcode": "2228"
            },
            "position": {
                "latitude": -34.034587,
                "longitude": 151.102805
            },
            "brand": {
                "name": "Coles Supermarkets",
                "storeFinderId": 2,
                "id": "COL"
            }
        },
        {
            "id": "COL:790",
            "name": "Coles Miranda",
            "phone": "(02) 7501 8200",
            "isTrading": true,
            "address": {
                "state": "NSW",
                "suburb": "Miranda",
                "addressLine": "1-13 Wandella St",
                "postcode": "2228"
            },
            "position": {
                "latitude": -34.032259,
                "longitude": 151.09966
            },
            "brand": {
                "name": "Coles Supermarkets",
                "storeFinderId": 2,
                "id": "COL"
            }
        },
        {
            "id": "COL:757",
            "name": "Coles Tumut",
            "phone": "(02) 6947 1543",
            "isTrading": true,
            "address": {
                "state": "NSW",
                "suburb": "Tumut",
                "addressLine": "29 - 39 Russell St",
                "postcode": "2720"
            },
            "position": {
                "latitude": -35.300819,
                "longitude": 148.221303
            },
            "brand": {
                "name": "Coles Supermarkets",
                "storeFinderId": 2,
                "id": "COL"
            }
        },
        {
            "id": "COL:793",
            "name": "Coles Engadine",
            "phone": "(02) 8545 0200",
            "isTrading": true,
            "address": {
                "state": "NSW",
                "suburb": "Engadine",
                "addressLine": "18 - 26 Waratah Rd",
                "postcode": "2233"
            },
            "position": {
                "latitude": -34.064788,
                "longitude": 151.010483
            },
            "brand": {
                "name": "Coles Supermarkets",
                "storeFinderId": 2,
                "id": "COL"
            }
        },
        {
            "id": "COL:5588",
            "name": "Coles Kirrawee",
            "phone": "(02) 9575 1400",
            "isTrading": true,
            "address": {
                "state": "NSW",
                "suburb": "Kirrawee",
                "addressLine": "566-594 Princess Highway",
                "postcode": "2232"
            },
            "position": {
                "latitude": -34.033525,
                "longitude": 151.074406
            },
            "brand": {
                "name": "Coles Supermarkets",
                "storeFinderId": 2,
                "id": "COL"
            }
        },
        {
            "id": "COL:737",
            "name": "Coles Maroubra Junction",
            "phone": "(02) 9179 5900",
            "isTrading": true,
            "address": {
                "state": "NSW",
                "suburb": "Maroubra",
                "addressLine": "737 Anzac Parade",
                "postcode": "2035"
            },
            "position": {
                "latitude": -33.940481,
                "longitude": 151.237811
            },
            "brand": {
                "name": "Coles Supermarkets",
                "storeFinderId": 2,
                "id": "COL"
            }
        },
        {
            "id": "COL:909",
            "name": "Coles Eastgardens",
            "phone": "(02) 8347 6100",
            "isTrading": true,
            "address": {
                "state": "NSW",
                "suburb": "Pagewood",
                "addressLine": "Bunnerong Rd & Wentworth Ave",
                "postcode": "2036"
            },
            "position": {
                "latitude": -33.944328,
                "longitude": 151.223828
            },
            "brand": {
                "name": "Coles Supermarkets",
                "storeFinderId": 2,
                "id": "COL"
            }
        },
        {
            "id": "COL:675",
            "name": "Coles Deniliquin",
            "phone": "(03) 5836 6300",
            "isTrading": true,
            "address": {
                "state": "NSW",
                "suburb": "Deniliquin",
                "addressLine": "Hardinge St & Wood St",
                "postcode": "2710"
            },
            "position": {
                "latitude": -35.531088,
                "longitude": 144.955142
            },
            "brand": {
                "name": "Coles Supermarkets",
                "storeFinderId": 2,
                "id": "COL"
            }
        },
        {
            "id": "COL:725",
            "name": "Coles Glenfield Park",
            "phone": "(02) 6971 4000",
            "isTrading": true,
            "address": {
                "state": "NSW",
                "suburb": "Glenfield Park",
                "addressLine": "Dalma Pkwy & Pinaroo Drv",
                "postcode": "2650"
            },
            "position": {
                "latitude": -35.138312,
                "longitude": 147.332599
            },
            "brand": {
                "name": "Coles Supermarkets",
                "storeFinderId": 2,
                "id": "COL"
            }
        },
        {
            "id": "COL:704",
            "name": "Coles Wagga Wagga",
            "phone": "(02) 5976 1200",
            "isTrading": true,
            "address": {
                "state": "NSW",
                "suburb": "Wagga Wagga",
                "addressLine": "Forsyth St & Baylis St",
                "postcode": "2650"
            },
            "position": {
                "latitude": -35.113695,
                "longitude": 147.370571
            },
            "brand": {
                "name": "Coles Supermarkets",
                "storeFinderId": 2,
                "id": "COL"
            }
        },
        {
            "id": "COL:7561",
            "name": "Coles Boorooma",
            "phone": null,
            "isTrading": false,
            "address": {
                "state": "NSW",
                "suburb": "Boorooma",
                "addressLine": "4 Messenger Ave",
                "postcode": "2650"
            },
            "position": {
                "latitude": -35.076103,
                "longitude": 147.358215
            },
            "brand": {
                "name": "Coles Supermarkets",
                "storeFinderId": 2,
                "id": "COL"
            }
        },
        {
            "id": "COL:7579",
            "name": "Coles Narrandera",
            "phone": "(02) 5903 7200",
            "isTrading": true,
            "address": {
                "state": "NSW",
                "suburb": "Narrandera",
                "addressLine": "101 - 103 East St",
                "postcode": "2700"
            },
            "position": {
                "latitude": -34.745492,
                "longitude": 146.552898
            },
            "brand": {
                "name": "Coles Supermarkets",
                "storeFinderId": 2,
                "id": "COL"
            }
        },
        {
            "id": "COL:4789",
            "name": "Coles Sutherland",
            "phone": "(02) 9521 9400",
            "isTrading": true,
            "address": {
                "state": "NSW",
                "suburb": "Sutherland",
                "addressLine": "822-826 Old Princes Highway",
                "postcode": "2232"
            },
            "position": {
                "latitude": -34.03362,
                "longitude": 151.05636
            },
            "brand": {
                "name": "Coles Supermarkets",
                "storeFinderId": 2,
                "id": "COL"
            }
        },
        {
            "id": "COL:5751",
            "name": "Coles Local Pagewood",
            "phone": "(02) 7231 1800",
            "isTrading": true,
            "address": {
                "state": "NSW",
                "suburb": "Eastgardens",
                "addressLine": "6 Tingwell Blvd Eastgardens",
                "postcode": "2036"
            },
            "position": {
                "latitude": -33.94164,
                "longitude": 151.225346
            },
            "brand": {
                "name": "Coles Supermarkets",
                "storeFinderId": 2,
                "id": "COL"
            }
        },
        {
            "id": "COL:762",
            "name": "Coles Ramsgate",
            "phone": "(02) 9529 5911",
            "isTrading": true,
            "address": {
                "state": "NSW",
                "suburb": "Ramsgate",
                "addressLine": "277 The Grand Parade",
                "postcode": "2217"
            },
            "position": {
                "latitude": -33.986297,
                "longitude": 151.146298
            },
            "brand": {
                "name": "Coles Supermarkets",
                "storeFinderId": 2,
                "id": "COL"
            }
        },
        {
            "id": "COL:838",
            "name": "Coles Griffith",
            "phone": "(02) 5924 2300",
            "isTrading": true,
            "address": {
                "state": "NSW",
                "suburb": "Griffith",
                "addressLine": "Yambil St & Crossing St",
                "postcode": "2680"
            },
            "position": {
                "latitude": -34.291006,
                "longitude": 146.053549
            },
            "brand": {
                "name": "Coles Supermarkets",
                "storeFinderId": 2,
                "id": "COL"
            }
        },
        {
            "id": "COL:772",
            "name": "Coles Sylvania",
            "phone": "(02) 8578 8000",
            "isTrading": true,
            "address": {
                "state": "NSW",
                "suburb": "Sylvania",
                "addressLine": "Port Hacking Rd & Princes Hwy",
                "postcode": "2224"
            },
            "position": {
                "latitude": -34.010652,
                "longitude": 151.103184
            },
            "brand": {
                "name": "Coles Supermarkets",
                "storeFinderId": 2,
                "id": "COL"
            }
        },
        {
            "id": "COL:800",
            "name": "Coles Randwick",
            "phone": "(02) 9179 6000",
            "isTrading": true,
            "address": {
                "state": "NSW",
                "suburb": "Randwick",
                "addressLine": "148 Belmore Rd",
                "postcode": "2031"
            },
            "position": {
                "latitude": -33.916585,
                "longitude": 151.240108
            },
            "brand": {
                "name": "Coles Supermarkets",
                "storeFinderId": 2,
                "id": "COL"
            }
        },
        {
            "id": "COL:4960",
            "name": "Coles Broken Hill",
            "phone": "(08) 8080 0100",
            "isTrading": true,
            "address": {
                "state": "NSW",
                "suburb": "Broken Hill",
                "addressLine": "South Rd & Gossan St",
                "postcode": "2880"
            },
            "position": {
                "latitude": -31.965069,
                "longitude": 141.454924
            },
            "brand": {
                "name": "Coles Supermarkets",
                "storeFinderId": 2,
                "id": "COL"
            }
        },
        {
            "id": "COL:5757",
            "name": "Coles Parkes",
            "phone": "(02) 6863 6200",
            "isTrading": true,
            "address": {
                "state": "NSW",
                "suburb": "Parkes",
                "addressLine": "31 Bogan Street",
                "postcode": "2870"
            },
            "position": {
                "latitude": -33.134935,
                "longitude": 148.173245
            },
            "brand": {
                "name": "Coles Supermarkets",
                "storeFinderId": 2,
                "id": "COL"
            }
        },
        {
            "id": "COL:5749",
            "name": "Coles Cowra",
            "phone": "(02) 6342 3283",
            "isTrading": true,
            "address": {
                "state": "NSW",
                "suburb": "Cowra",
                "addressLine": "Kendall St & Macquarie St",
                "postcode": "2794"
            },
            "position": {
                "latitude": -33.834723,
                "longitude": 148.688984
            },
            "brand": {
                "name": "Coles Supermarkets",
                "storeFinderId": 2,
                "id": "COL"
            }
        },
        {
            "id": "COL:5755",
            "name": "Coles Narromine",
            "phone": "(02) 6889 4703",
            "isTrading": true,
            "address": {
                "state": "NSW",
                "suburb": "Narromine",
                "addressLine": "Dandaloo St",
                "postcode": "2821"
            },
            "position": {
                "latitude": -32.23222,
                "longitude": 148.238823
            },
            "brand": {
                "name": "Coles Supermarkets",
                "storeFinderId": 2,
                "id": "COL"
            }
        },
        {
            "id": "COL:835",
            "name": "Coles Orange",
            "phone": "(02) 6393 5600",
            "isTrading": true,
            "address": {
                "state": "NSW",
                "suburb": "Orange",
                "addressLine": "Anson St & Byng St",
                "postcode": "2800"
            },
            "position": {
                "latitude": -33.282639,
                "longitude": 149.09948
            },
            "brand": {
                "name": "Coles Supermarkets",
                "storeFinderId": 2,
                "id": "COL"
            }
        },
        {
            "id": "COL:788",
            "name": "Coles Dubbo",
            "phone": "(02) 7966 6700",
            "isTrading": true,
            "address": {
                "state": "NSW",
                "suburb": "Dubbo",
                "addressLine": "Macquarie St & Bultje St",
                "postcode": "2830"
            },
            "position": {
                "latitude": -32.249775,
                "longitude": 148.599261
            },
            "brand": {
                "name": "Coles Supermarkets",
                "storeFinderId": 2,
                "id": "COL"
            }
        },
        {
            "id": "COL:5714",
            "name": "Coles Wellington",
            "phone": "(02) 6845 4400",
            "isTrading": true,
            "address": {
                "state": "NSW",
                "suburb": "Wellington",
                "addressLine": "128 - 140 Percy St",
                "postcode": "2820"
            },
            "position": {
                "latitude": -32.554805,
                "longitude": 148.942787
            },
            "brand": {
                "name": "Coles Supermarkets",
                "storeFinderId": 2,
                "id": "COL"
            }
        },
        {
            "id": "COL:836",
            "name": "Coles Bathurst",
            "phone": "(02) 6334 6200",
            "isTrading": true,
            "address": {
                "state": "NSW",
                "suburb": "Bathurst",
                "addressLine": "47 William St",
                "postcode": "2795"
            },
            "position": {
                "latitude": -33.416376,
                "longitude": 149.582316
            },
            "brand": {
                "name": "Coles Supermarkets",
                "storeFinderId": 2,
                "id": "COL"
            }
        },
        {
            "id": "COL:801",
            "name": "Coles Lithgow",
            "phone": "(02) 5339 6000",
            "isTrading": true,
            "address": {
                "state": "NSW",
                "suburb": "Lithgow",
                "addressLine": "Lithgow St & Bent St",
                "postcode": "2790"
            },
            "position": {
                "latitude": -33.485979,
                "longitude": 150.15313
            },
            "brand": {
                "name": "Coles Supermarkets",
                "storeFinderId": 2,
                "id": "COL"
            }
        },
        {
            "id": "COL:921",
            "name": "Coles Katoomba",
            "phone": "(02) 4780 8500",
            "isTrading": true,
            "address": {
                "state": "NSW",
                "suburb": "Katoomba",
                "addressLine": "34 Parke Street",
                "postcode": "2780"
            },
            "position": {
                "latitude": -33.714122,
                "longitude": 150.310574
            },
            "brand": {
                "name": "Coles Supermarkets",
                "storeFinderId": 2,
                "id": "COL"
            }
        },
        {
            "id": "COL:711",
            "name": "Coles Picton",
            "phone": "(02) 4677 0655",
            "isTrading": true,
            "address": {
                "state": "NSW",
                "suburb": "Picton",
                "addressLine": "9 - 13 Margaret St",
                "postcode": "2571"
            },
            "position": {
                "latitude": -34.168857,
                "longitude": 150.613422
            },
            "brand": {
                "name": "Coles Supermarkets",
                "storeFinderId": 2,
                "id": "COL"
            }
        },
        {
            "id": "COL:709",
            "name": "Coles Winmalee",
            "phone": "(02) 4754 8000",
            "isTrading": true,
            "address": {
                "state": "NSW",
                "suburb": "Winmalee",
                "addressLine": "32 - 44 White Cross Rd",
                "postcode": "2777"
            },
            "position": {
                "latitude": -33.670333,
                "longitude": 150.608454
            },
            "brand": {
                "name": "Coles Supermarkets",
                "storeFinderId": 2,
                "id": "COL"
            }
        },
        {
            "id": "COL:5590",
            "name": "Coles Glenmore Park",
            "phone": "(02) 4749 0800",
            "isTrading": true,
            "address": {
                "state": "NSW",
                "suburb": "Glenmore Parkway",
                "addressLine": "Glenmore Park Shopping Centre",
                "postcode": "2745"
            },
            "position": {
                "latitude": -33.787661,
                "longitude": 150.668423
            },
            "brand": {
                "name": "Coles Supermarkets",
                "storeFinderId": 2,
                "id": "COL"
            }
        },
        {
            "id": "COL:785",
            "name": "Coles Camden",
            "phone": "(02) 4655 7946",
            "isTrading": true,
            "address": {
                "state": "NSW",
                "suburb": "Camden",
                "addressLine": "Murray St & South Argyle St",
                "postcode": "2570"
            },
            "position": {
                "latitude": -34.057318,
                "longitude": 150.692841
            },
            "brand": {
                "name": "Coles Supermarkets",
                "storeFinderId": 2,
                "id": "COL"
            }
        },
        {
            "id": "COL:903",
            "name": "Coles Penrith",
            "phone": "(02) 4723 9500",
            "isTrading": true,
            "address": {
                "state": "NSW",
                "suburb": "Penrith",
                "addressLine": "Station St & Reserve St",
                "postcode": "2750"
            },
            "position": {
                "latitude": -33.757057,
                "longitude": 150.692839
            },
            "brand": {
                "name": "Coles Supermarkets",
                "storeFinderId": 2,
                "id": "COL"
            }
        },
        {
            "id": "COL:7556",
            "name": "Coles Penrith Westfield",
            "phone": "(02) 4749 6400",
            "isTrading": true,
            "address": {
                "state": "NSW",
                "suburb": "Penrith",
                "addressLine": "585 High Street",
                "postcode": "2750"
            },
            "position": {
                "latitude": -33.751171,
                "longitude": 150.693701
            },
            "brand": {
                "name": "Coles Supermarkets",
                "storeFinderId": 2,
                "id": "COL"
            }
        },
        {
            "id": "COL:713",
            "name": "Coles Harrington Park",
            "phone": "(02) 4648 3658",
            "isTrading": true,
            "address": {
                "state": "NSW",
                "suburb": "Harrington Park",
                "addressLine": "Fairwater Dr & Lake View Crt",
                "postcode": "2567"
            },
            "position": {
                "latitude": -34.028484,
                "longitude": 150.732979
            },
            "brand": {
                "name": "Coles Supermarkets",
                "storeFinderId": 2,
                "id": "COL"
            }
        },
        {
            "id": "COL:5800",
            "name": "Coles Narellan",
            "phone": "(02) 4645 7100",
            "isTrading": true,
            "address": {
                "state": "NSW",
                "suburb": "Narellan",
                "addressLine": "326 Camden Valley Way",
                "postcode": "2567"
            },
            "position": {
                "latitude": -34.039142,
                "longitude": 150.737459
            },
            "brand": {
                "name": "Coles Supermarkets",
                "storeFinderId": 2,
                "id": "COL"
            }
        },
        {
            "id": "COL:5558",
            "name": "Coles Oran Park",
            "phone": "(02) 4624 2000",
            "isTrading": true,
            "address": {
                "state": "NSW",
                "suburb": "Oran Park",
                "addressLine": "351 Oran Park Drive",
                "postcode": "2570"
            },
            "position": {
                "latitude": -33.997567,
                "longitude": 150.740605
            },
            "brand": {
                "name": "Coles Supermarkets",
                "storeFinderId": 2,
                "id": "COL"
            }
        },
        {
            "id": "COL:5769",
            "name": "Coles Mt Annan",
            "phone": "(02) 4636 9300",
            "isTrading": true,
            "address": {
                "state": "NSW",
                "suburb": "Mount Annan",
                "addressLine": "Waterworth Dr & Holdsworth Dr",
                "postcode": "2567"
            },
            "position": {
                "latitude": -34.05035,
                "longitude": 150.755306
            },
            "brand": {
                "name": "Coles Supermarkets",
                "storeFinderId": 2,
                "id": "COL"
            }
        },
        {
            "id": "COL:874",
            "name": "Coles Cambridge Gardens",
            "phone": "(02) 4749 6300",
            "isTrading": true,
            "address": {
                "state": "NSW",
                "suburb": "Cambridge Gardens",
                "addressLine": "Richmond Rd & Boomerang Pl",
                "postcode": "2747"
            },
            "position": {
                "latitude": -33.74036,
                "longitude": 150.717478
            },
            "brand": {
                "name": "Coles Supermarkets",
                "storeFinderId": 2,
                "id": "COL"
            }
        },
        {
            "id": "COL:4813",
            "name": "Coles Macarthur Square",
            "phone": "(02) 4629 2100",
            "isTrading": true,
            "address": {
                "state": "NSW",
                "suburb": "Campbelltown",
                "addressLine": "Corner Of Gilchrist And Kellicar Road",
                "postcode": "2560"
            },
            "position": {
                "latitude": -34.075746,
                "longitude": 150.798188
            },
            "brand": {
                "name": "Coles Supermarkets",
                "storeFinderId": 2,
                "id": "COL"
            }
        },
        {
            "id": "COL:5806",
            "name": "Coles Willowdale",
            "phone": "(02) 8763 8100",
            "isTrading": true,
            "address": {
                "state": "NSW",
                "suburb": "Denham Court",
                "addressLine": "5 Willowdale Drive",
                "postcode": "2565"
            },
            "position": {
                "latitude": -33.9763,
                "longitude": 150.812003
            },
            "brand": {
                "name": "Coles Supermarkets",
                "storeFinderId": 2,
                "id": "COL"
            }
        },
        {
            "id": "COL:906",
            "name": "Coles Campbelltown",
            "phone": "(02) 4629 4300",
            "isTrading": true,
            "address": {
                "state": "NSW",
                "suburb": "Campbelltown",
                "addressLine": "271-281 Queen St",
                "postcode": "2560"
            },
            "position": {
                "latitude": -34.068369,
                "longitude": 150.811155
            },
            "brand": {
                "name": "Coles Supermarkets",
                "storeFinderId": 2,
                "id": "COL"
            }
        },
        {
            "id": "COL:970",
            "name": "Coles Ropes Crossing",
            "phone": "(02) 9421 4900",
            "isTrading": true,
            "address": {
                "state": "NSW",
                "suburb": "Ropes Crossing",
                "addressLine": "8 Central Place",
                "postcode": "2760"
            },
            "position": {
                "latitude": -33.732507,
                "longitude": 150.781421
            },
            "brand": {
                "name": "Coles Supermarkets",
                "storeFinderId": 2,
                "id": "COL"
            }
        },
        {
            "id": "COL:5777",
            "name": "Coles North Richmond",
            "phone": "(02) 4545 8200",
            "isTrading": true,
            "address": {
                "state": "NSW",
                "suburb": "North Richmond",
                "addressLine": "8 - 16 Riverview St",
                "postcode": "2754"
            },
            "position": {
                "latitude": -33.581299,
                "longitude": 150.719941
            },
            "brand": {
                "name": "Coles Supermarkets",
                "storeFinderId": 2,
                "id": "COL"
            }
        },
        {
            "id": "COL:7823",
            "name": "Coles Edmondson Park",
            "phone": "(02) 7203 5000",
            "isTrading": true,
            "address": {
                "state": "NSW",
                "suburb": "Edmondson Park",
                "addressLine": "Camden Valley Way",
                "postcode": "2174"
            },
            "position": {
                "latitude": -33.970251,
                "longitude": 150.857049
            },
            "brand": {
                "name": "Coles Supermarkets",
                "storeFinderId": 2,
                "id": "COL"
            }
        },
        {
            "id": "COL:4177",
            "name": "Coles Ingleburn",
            "phone": "(02) 8797 9600",
            "isTrading": true,
            "address": {
                "state": "NSW",
                "suburb": "Ingleburn",
                "addressLine": "100 Macquarie Road",
                "postcode": "2565"
            },
            "position": {
                "latitude": -33.99753,
                "longitude": 150.865501
            },
            "brand": {
                "name": "Coles Supermarkets",
                "storeFinderId": 2,
                "id": "COL"
            }
        },
        {
            "id": "COL:834",
            "name": "Coles Green Valley",
            "phone": "(02) 8769 3700",
            "isTrading": true,
            "address": {
                "state": "NSW",
                "suburb": "Green Valley",
                "addressLine": "195 Wilson Road",
                "postcode": "2168"
            },
            "position": {
                "latitude": -33.9076,
                "longitude": 150.867228
            },
            "brand": {
                "name": "Coles Supermarkets",
                "storeFinderId": 2,
                "id": "COL"
            }
        },
        {
            "id": "COL:726",
            "name": "Coles Mount Druitt",
            "phone": "(02) 8652 9400",
            "isTrading": true,
            "address": {
                "state": "NSW",
                "suburb": "Mount Druitt",
                "addressLine": "Carlisle Ave & Luxford Rd",
                "postcode": "2770"
            },
            "position": {
                "latitude": -33.766139,
                "longitude": 150.821044
            },
            "brand": {
                "name": "Coles Supermarkets",
                "storeFinderId": 2,
                "id": "COL"
            }
        },
        {
            "id": "COL:936",
            "name": "Coles Edensor Park",
            "phone": "(02) 8769 4100",
            "isTrading": true,
            "address": {
                "state": "NSW",
                "suburb": "Edensor Park",
                "addressLine": "Edensor Rd & Allambie Rd",
                "postcode": "2176"
            },
            "position": {
                "latitude": -33.876514,
                "longitude": 150.876551
            },
            "brand": {
                "name": "Coles Supermarkets",
                "storeFinderId": 2,
                "id": "COL"
            }
        },
        {
            "id": "COL:908",
            "name": "Coles Casula",
            "phone": "(02) 8778 3800",
            "isTrading": true,
            "address": {
                "state": "NSW",
                "suburb": "Casula",
                "addressLine": "Kurrajong Rd",
                "postcode": "2170"
            },
            "position": {
                "latitude": -33.947753,
                "longitude": 150.899197
            },
            "brand": {
                "name": "Coles Supermarkets",
                "storeFinderId": 2,
                "id": "COL"
            }
        },
        {
            "id": "COL:7594",
            "name": "Coles Online Hub Store Ocado - Sydney - Team Shop",
            "phone": "(02) 9172 5200",
            "isTrading": false,
            "address": {
                "state": "NSW",
                "suburb": "Wetherill Park",
                "addressLine": "156 Cowpasture Road",
                "postcode": "2164"
            },
            "position": {
                "latitude": -33.843354,
                "longitude": 150.87653
            },
            "brand": {
                "name": "Coles Supermarkets",
                "storeFinderId": 2,
                "id": "COL"
            }
        },
        {
            "id": "COL:7673",
            "name": "Coles Online Hub Store Ocado - Sydney",
            "phone": "(02) 9172 5200",
            "isTrading": false,
            "address": {
                "state": "NSW",
                "suburb": "Wetherill Park",
                "addressLine": "156 Cowpasture Road",
                "postcode": "2164"
            },
            "position": {
                "latitude": -33.843354,
                "longitude": 150.87653
            },
            "brand": {
                "name": "Coles Supermarkets",
                "storeFinderId": 2,
                "id": "COL"
            }
        },
        {
            "id": "COL:723",
            "name": "Coles Liverpool Westfield",
            "phone": "(02) 8327 8700",
            "isTrading": true,
            "address": {
                "state": "NSW",
                "suburb": "Liverpool",
                "addressLine": "Northumberland St & Elizabeth St",
                "postcode": "2170"
            },
            "position": {
                "latitude": -33.919478,
                "longitude": 150.922346
            },
            "brand": {
                "name": "Coles Supermarkets",
                "storeFinderId": 2,
                "id": "COL"
            }
        },
        {
            "id": "COL:7596",
            "name": "Coles Wetherill Park",
            "phone": "(02) 9827 1400",
            "isTrading": true,
            "address": {
                "state": "NSW",
                "suburb": "Wetherill Park",
                "addressLine": "561-563 Polding Street",
                "postcode": "2176"
            },
            "position": {
                "latitude": -33.859404,
                "longitude": 150.89756
            },
            "brand": {
                "name": "Coles Supermarkets",
                "storeFinderId": 2,
                "id": "COL"
            }
        },
        {
            "id": "COL:847",
            "name": "Coles Illawong",
            "phone": "(02) 7501 8900",
            "isTrading": true,
            "address": {
                "state": "NSW",
                "suburb": "Illawong",
                "addressLine": "Fowler Rd",
                "postcode": "2234"
            },
            "position": {
                "latitude": -33.997351,
                "longitude": 151.041945
            },
            "brand": {
                "name": "Coles Supermarkets",
                "storeFinderId": 2,
                "id": "COL"
            }
        },
        {
            "id": "COL:7558",
            "name": "Coles Revesby",
            "phone": "(02) 8723 6400",
            "isTrading": true,
            "address": {
                "state": "NSW",
                "suburb": "Revesby",
                "addressLine": "20-30 Blamey Street",
                "postcode": "2212"
            },
            "position": {
                "latitude": -33.953336,
                "longitude": 151.013292
            },
            "brand": {
                "name": "Coles Supermarkets",
                "storeFinderId": 2,
                "id": "COL"
            }
        },
        {
            "id": "COL:923",
            "name": "Coles Oatley West",
            "phone": "(02) 8558 9500",
            "isTrading": true,
            "address": {
                "state": "NSW",
                "suburb": "Oatley",
                "addressLine": "47 Mulga Rd",
                "postcode": "2223"
            },
            "position": {
                "latitude": -33.980667,
                "longitude": 151.075807
            },
            "brand": {
                "name": "Coles Supermarkets",
                "storeFinderId": 2,
                "id": "COL"
            }
        },
        {
            "id": "COL:842",
            "name": "Coles Wattle Grove",
            "phone": "(02) 8109 1000",
            "isTrading": true,
            "address": {
                "state": "NSW",
                "suburb": "Wattle Grove",
                "addressLine": "Australis Ave & Village Way",
                "postcode": "2173"
            },
            "position": {
                "latitude": -33.955138,
                "longitude": 150.943204
            },
            "brand": {
                "name": "Coles Supermarkets",
                "storeFinderId": 2,
                "id": "COL"
            }
        },
        {
            "id": "COL:783",
            "name": "Coles Kareela",
            "phone": "(02) 8543 8400",
            "isTrading": true,
            "address": {
                "state": "NSW",
                "suburb": "Kareela",
                "addressLine": "Bates Drv & Freya St",
                "postcode": "2232"
            },
            "position": {
                "latitude": -34.01805,
                "longitude": 151.080207
            },
            "brand": {
                "name": "Coles Supermarkets",
                "storeFinderId": 2,
                "id": "COL"
            }
        },
        {
            "id": "COL:720",
            "name": "Coles Roselands",
            "phone": "(02) 7955 6700",
            "isTrading": true,
            "address": {
                "state": "NSW",
                "suburb": "Roselands",
                "addressLine": "Roselands Drv",
                "postcode": "2196"
            },
            "position": {
                "latitude": -33.934354,
                "longitude": 151.069094
            },
            "brand": {
                "name": "Coles Supermarkets",
                "storeFinderId": 2,
                "id": "COL"
            }
        },
        {
            "id": "COL:942",
            "name": "Coles Hurstville Station",
            "phone": "(02) 8558 9700",
            "isTrading": true,
            "address": {
                "state": "NSW",
                "suburb": "Hurstville",
                "addressLine": "225 Forest Rd",
                "postcode": "2220"
            },
            "position": {
                "latitude": -33.967446,
                "longitude": 151.10208
            },
            "brand": {
                "name": "Coles Supermarkets",
                "storeFinderId": 2,
                "id": "COL"
            }
        },
        {
            "id": "COL:782",
            "name": "Coles Hurstville",
            "phone": "(02) 8567 3400",
            "isTrading": true,
            "address": {
                "state": "NSW",
                "suburb": "Hurstville",
                "addressLine": "Cross St & Park Rd",
                "postcode": "2220"
            },
            "position": {
                "latitude": -33.966374,
                "longitude": 151.10611
            },
            "brand": {
                "name": "Coles Supermarkets",
                "storeFinderId": 2,
                "id": "COL"
            }
        },
        {
            "id": "COL:7662",
            "name": "Coles Bankstown",
            "phone": "(02) 8761 1000",
            "isTrading": true,
            "address": {
                "state": "NSW",
                "suburb": "Bankstown",
                "addressLine": "Bankstown Central - Jacobs Street",
                "postcode": "2200"
            },
            "position": {
                "latitude": -33.916409,
                "longitude": 151.037318
            },
            "brand": {
                "name": "Coles Supermarkets",
                "storeFinderId": 2,
                "id": "COL"
            }
        },
        {
            "id": "COL:953",
            "name": "Coles Chipping Norton",
            "phone": "(02) 8717 0400",
            "isTrading": true,
            "address": {
                "state": "NSW",
                "suburb": "Chipping Norton",
                "addressLine": "20 Ernest Ave",
                "postcode": "2170"
            },
            "position": {
                "latitude": -33.914646,
                "longitude": 150.962082
            },
            "brand": {
                "name": "Coles Supermarkets",
                "storeFinderId": 2,
                "id": "COL"
            }
        },
        {
            "id": "COL:5792",
            "name": "Coles Greenacre",
            "phone": "(02) 8709 0400",
            "isTrading": true,
            "address": {
                "state": "NSW",
                "suburb": "Greenacre",
                "addressLine": "13-19 Boronia Rd (near Waterloo Rd)",
                "postcode": "2190"
            },
            "position": {
                "latitude": -33.906258,
                "longitude": 151.056122
            },
            "brand": {
                "name": "Coles Supermarkets",
                "storeFinderId": 2,
                "id": "COL"
            }
        },
        {
            "id": "COL:4812",
            "name": "Coles Clemton Park",
            "phone": "(02) 8398 3400",
            "isTrading": true,
            "address": {
                "state": "NSW",
                "suburb": "Clemton Park",
                "addressLine": "Cnr Charlotte & Harp Street",
                "postcode": "2194"
            },
            "position": {
                "latitude": -33.92333,
                "longitude": 151.101738
            },
            "brand": {
                "name": "Coles Supermarkets",
                "storeFinderId": 2,
                "id": "COL"
            }
        },
        {
            "id": "COL:7708",
            "name": "Coles Chullora",
            "phone": "(02) 7905 4100",
            "isTrading": true,
            "address": {
                "state": "NSW",
                "suburb": "Chullora",
                "addressLine": "355 Waterloo Rd",
                "postcode": "2190"
            },
            "position": {
                "latitude": -33.893013,
                "longitude": 151.06158
            },
            "brand": {
                "name": "Coles Supermarkets",
                "storeFinderId": 2,
                "id": "COL"
            }
        },
        {
            "id": "COL:750",
            "name": "Coles Local Earlwood",
            "phone": "(02) 9178 4400",
            "isTrading": true,
            "address": {
                "state": "NSW",
                "suburb": "Earlwood",
                "addressLine": "5 - 15 Clarke St",
                "postcode": "2206"
            },
            "position": {
                "latitude": -33.926368,
                "longitude": 151.12388
            },
            "brand": {
                "name": "Coles Supermarkets",
                "storeFinderId": 2,
                "id": "COL"
            }
        },
        {
            "id": "COL:831",
            "name": "Coles Brighton Le Sands",
            "phone": "(02) 7231 7400",
            "isTrading": true,
            "address": {
                "state": "NSW",
                "suburb": "Brighton Le Sands",
                "addressLine": "36 Princess St",
                "postcode": "2216"
            },
            "position": {
                "latitude": -33.959419,
                "longitude": 151.153634
            },
            "brand": {
                "name": "Coles Supermarkets",
                "storeFinderId": 2,
                "id": "COL"
            }
        },
        {
            "id": "COL:770",
            "name": "Coles Local Rose Bay",
            "phone": "(02) 9021 6700",
            "isTrading": true,
            "address": {
                "state": "NSW",
                "suburb": "Rose Bay North",
                "addressLine": "694 Old South Head Rd",
                "postcode": "2029"
            },
            "position": {
                "latitude": -33.865587,
                "longitude": 151.277881
            },
            "brand": {
                "name": "Coles Supermarkets",
                "storeFinderId": 2,
                "id": "COL"
            }
        },
        {
            "id": "COL:853",
            "name": "Coles Bondi Westfield",
            "phone": "(02) 8383 4800",
            "isTrading": true,
            "address": {
                "state": "NSW",
                "suburb": "Bondi Junction",
                "addressLine": "500 Oxford Street",
                "postcode": "2022"
            },
            "position": {
                "latitude": -33.893048,
                "longitude": 151.25085
            },
            "brand": {
                "name": "Coles Supermarkets",
                "storeFinderId": 2,
                "id": "COL"
            }
        },
        {
            "id": "COL:809",
            "name": "Coles Bondi Junction",
            "phone": "(02) 8362 2100",
            "isTrading": true,
            "address": {
                "state": "NSW",
                "suburb": "Bondi Junction",
                "addressLine": "Spring St & Newland St",
                "postcode": "2022"
            },
            "position": {
                "latitude": -33.892883,
                "longitude": 151.248066
            },
            "brand": {
                "name": "Coles Supermarkets",
                "storeFinderId": 2,
                "id": "COL"
            }
        },
        {
            "id": "COL:899",
            "name": "Coles Edgecliff",
            "phone": "(02) 7904 6400",
            "isTrading": true,
            "address": {
                "state": "NSW",
                "suburb": "Edgecliff",
                "addressLine": "New South Head Rd & Ocean St",
                "postcode": "2027"
            },
            "position": {
                "latitude": -33.879329,
                "longitude": 151.236607
            },
            "brand": {
                "name": "Coles Supermarkets",
                "storeFinderId": 2,
                "id": "COL"
            }
        },
        {
            "id": "COL:7569",
            "name": "Coles East Village",
            "phone": "(02) 8344 6200",
            "isTrading": true,
            "address": {
                "state": "NSW",
                "suburb": "Zetland",
                "addressLine": "Odea Ave",
                "postcode": "2017"
            },
            "position": {
                "latitude": -33.904155,
                "longitude": 151.213538
            },
            "brand": {
                "name": "Coles Supermarkets",
                "storeFinderId": 2,
                "id": "COL"
            }
        },
        {
            "id": "COL:987",
            "name": "Coles Waterloo",
            "phone": "(02) 9549 3700",
            "isTrading": true,
            "address": {
                "state": "NSW",
                "suburb": "Waterloo",
                "addressLine": "1 Crystal St",
                "postcode": "2017"
            },
            "position": {
                "latitude": -33.897714,
                "longitude": 151.213068
            },
            "brand": {
                "name": "Coles Supermarkets",
                "storeFinderId": 2,
                "id": "COL"
            }
        },
        {
            "id": "COL:7671",
            "name": "Coles Surry Hills",
            "phone": "(02) 8364 1500",
            "isTrading": true,
            "address": {
                "state": "NSW",
                "suburb": "Redfern",
                "addressLine": "Tenancy B101, 4 Baptist Street",
                "postcode": "2016"
            },
            "position": {
                "latitude": -33.891703,
                "longitude": 151.211966
            },
            "brand": {
                "name": "Coles Supermarkets",
                "storeFinderId": 2,
                "id": "COL"
            }
        },
        {
            "id": "COL:754",
            "name": "Coles Central Kings Cross",
            "phone": "(02) 7263 3300",
            "isTrading": true,
            "address": {
                "state": "NSW",
                "suburb": "Kings Cross",
                "addressLine": "88 - 94 Darlinghurst Rd",
                "postcode": "2011"
            },
            "position": {
                "latitude": -33.875347,
                "longitude": 151.222213
            },
            "brand": {
                "name": "Coles Supermarkets",
                "storeFinderId": 2,
                "id": "COL"
            }
        },
        {
            "id": "COL:5827",
            "name": "Coles Online Hub Store Ocado Spoke - Alexandria",
            "phone": "(02) 9172 5200",
            "isTrading": false,
            "address": {
                "state": "NSW",
                "suburb": "Alexandria",
                "addressLine": "520 Gardeners Rd",
                "postcode": "2015"
            },
            "position": {
                "latitude": -33.919262,
                "longitude": 151.188758
            },
            "brand": {
                "name": "Coles Supermarkets",
                "storeFinderId": 2,
                "id": "COL"
            }
        },
        {
            "id": "COL:710",
            "name": "Coles World Square",
            "phone": "(02) 8275 8600",
            "isTrading": true,
            "address": {
                "state": "NSW",
                "suburb": "Sydney",
                "addressLine": "650 George St",
                "postcode": "2000"
            },
            "position": {
                "latitude": -33.877321,
                "longitude": 151.206106
            },
            "brand": {
                "name": "Coles Supermarkets",
                "storeFinderId": 2,
                "id": "COL"
            }
        },
        {
            "id": "COL:869",
            "name": "Coles Manly Peninsula",
            "phone": "(02) 7203 5700",
            "isTrading": true,
            "address": {
                "state": "NSW",
                "suburb": "Manly",
                "addressLine": "Wentworth St & Darley Rd",
                "postcode": "2095"
            },
            "position": {
                "latitude": -33.798928,
                "longitude": 151.286745
            },
            "brand": {
                "name": "Coles Supermarkets",
                "storeFinderId": 2,
                "id": "COL"
            }
        },
        {
            "id": "COL:7689",
            "name": "Coles Local Sydney Cbd - York Street",
            "phone": "(02) 8364 1800",
            "isTrading": true,
            "address": {
                "state": "NSW",
                "suburb": "Sydney",
                "addressLine": "68 York Street",
                "postcode": "2000"
            },
            "position": {
                "latitude": -33.870325,
                "longitude": 151.206366
            },
            "brand": {
                "name": "Coles Supermarkets",
                "storeFinderId": 2,
                "id": "COL"
            }
        },
        {
            "id": "COL:815",
            "name": "Coles Local Manly Corso",
            "phone": "(02) 9932 5500",
            "isTrading": true,
            "address": {
                "state": "NSW",
                "suburb": "Manly",
                "addressLine": "8-28 The Corso",
                "postcode": "2095"
            },
            "position": {
                "latitude": -33.799099,
                "longitude": 151.284891
            },
            "brand": {
                "name": "Coles Supermarkets",
                "storeFinderId": 2,
                "id": "COL"
            }
        },
        {
            "id": "COL:840",
            "name": "Coles Central Wynyard Express",
            "phone": "(02) 9299 4769",
            "isTrading": true,
            "address": {
                "state": "NSW",
                "suburb": "Sydney",
                "addressLine": "Wynyard St & Carrington St",
                "postcode": "2000"
            },
            "position": {
                "latitude": -33.865729,
                "longitude": 151.206146
            },
            "brand": {
                "name": "Coles Supermarkets",
                "storeFinderId": 2,
                "id": "COL"
            }
        },
        {
            "id": "COL:839",
            "name": "Coles Broadway",
            "phone": "(02) 8333 9200",
            "isTrading": true,
            "address": {
                "state": "NSW",
                "suburb": "Broadway",
                "addressLine": "Broadway St & Bay St",
                "postcode": "2037"
            },
            "position": {
                "latitude": -33.883842,
                "longitude": 151.19326
            },
            "brand": {
                "name": "Coles Supermarkets",
                "storeFinderId": 2,
                "id": "COL"
            }
        },
        {
            "id": "COL:728",
            "name": "Coles Pyrmont",
            "phone": "(02) 7262 3600",
            "isTrading": true,
            "address": {
                "state": "NSW",
                "suburb": "Pyrmont",
                "addressLine": "50-72 Union St & Edward St",
                "postcode": "2009"
            },
            "position": {
                "latitude": -33.869623,
                "longitude": 151.196403
            },
            "brand": {
                "name": "Coles Supermarkets",
                "storeFinderId": 2,
                "id": "COL"
            }
        },
        {
            "id": "COL:4166",
            "name": "Coles Marrickville",
            "phone": "(02) 8327 8300",
            "isTrading": true,
            "address": {
                "state": "NSW",
                "suburb": "Marrickville",
                "addressLine": "51-55 Edinburgh Road",
                "postcode": "2204"
            },
            "position": {
                "latitude": -33.907295,
                "longitude": 151.172133
            },
            "brand": {
                "name": "Coles Supermarkets",
                "storeFinderId": 2,
                "id": "COL"
            }
        },
        {
            "id": "COL:784",
            "name": "Coles Dee Why",
            "phone": "(02) 7262 0400",
            "isTrading": true,
            "address": {
                "state": "NSW",
                "suburb": "Dee Why",
                "addressLine": "26 Howard Ave",
                "postcode": "2099"
            },
            "position": {
                "latitude": -33.752513,
                "longitude": 151.288948
            },
            "brand": {
                "name": "Coles Supermarkets",
                "storeFinderId": 2,
                "id": "COL"
            }
        },
        {
            "id": "COL:745",
            "name": "Coles Manly Vale",
            "phone": "(02) 7263 3400",
            "isTrading": true,
            "address": {
                "state": "NSW",
                "suburb": "Manly Vale",
                "addressLine": "12 - 14 Koorala St",
                "postcode": "2093"
            },
            "position": {
                "latitude": -33.785295,
                "longitude": 151.268569
            },
            "brand": {
                "name": "Coles Supermarkets",
                "storeFinderId": 2,
                "id": "COL"
            }
        },
        {
            "id": "COL:886",
            "name": "Coles Balgowlah",
            "phone": "(02) 9934 9800",
            "isTrading": true,
            "address": {
                "state": "NSW",
                "suburb": "Balgowlah",
                "addressLine": "197 - 215 Condamine St",
                "postcode": "2093"
            },
            "position": {
                "latitude": -33.793507,
                "longitude": 151.264444
            },
            "brand": {
                "name": "Coles Supermarkets",
                "storeFinderId": 2,
                "id": "COL"
            }
        },
        {
            "id": "COL:944",
            "name": "Coles The Grand (dee Why)",
            "phone": "(02) 9919 0100",
            "isTrading": true,
            "address": {
                "state": "NSW",
                "suburb": "Dee Why",
                "addressLine": "Pittwater Rd",
                "postcode": "2099"
            },
            "position": {
                "latitude": -33.754901,
                "longitude": 151.283901
            },
            "brand": {
                "name": "Coles Supermarkets",
                "storeFinderId": 2,
                "id": "COL"
            }
        },
        {
            "id": "COL:897",
            "name": "Coles Warringah",
            "phone": "(02) 9909 6200",
            "isTrading": true,
            "address": {
                "state": "NSW",
                "suburb": "Brookvale",
                "addressLine": "Pittwater Rd & Cross St",
                "postcode": "2100"
            },
            "position": {
                "latitude": -33.769061,
                "longitude": 151.266118
            },
            "brand": {
                "name": "Coles Supermarkets",
                "storeFinderId": 2,
                "id": "COL"
            }
        },
        {
            "id": "COL:4974",
            "name": "Coles Neutral Bay Grosvenor St",
            "phone": "(02) 9180 8400",
            "isTrading": true,
            "address": {
                "state": "NSW",
                "suburb": "Neutral Bay",
                "addressLine": "43-51 Grosvenor St",
                "postcode": "2089"
            },
            "position": {
                "latitude": -33.830633,
                "longitude": 151.222496
            },
            "brand": {
                "name": "Coles Supermarkets",
                "storeFinderId": 2,
                "id": "COL"
            }
        },
        {
            "id": "COL:814",
            "name": "Coles Local Newport",
            "phone": "(02) 9998 5900",
            "isTrading": true,
            "address": {
                "state": "NSW",
                "suburb": "Newport",
                "addressLine": "381 Barrenjoey Rd",
                "postcode": "2106"
            },
            "position": {
                "latitude": -33.654037,
                "longitude": 151.320675
            },
            "brand": {
                "name": "Coles Supermarkets",
                "storeFinderId": 2,
                "id": "COL"
            }
        },
        {
            "id": "COL:884",
            "name": "Coles Mona Vale",
            "phone": "(02) 8445 3600",
            "isTrading": true,
            "address": {
                "state": "NSW",
                "suburb": "Mona Vale",
                "addressLine": "10 Park St",
                "postcode": "2103"
            },
            "position": {
                "latitude": -33.675972,
                "longitude": 151.304908
            },
            "brand": {
                "name": "Coles Supermarkets",
                "storeFinderId": 2,
                "id": "COL"
            }
        },
        {
            "id": "COL:797",
            "name": "Coles Warriewood",
            "phone": "(02) 9172 9600",
            "isTrading": true,
            "address": {
                "state": "NSW",
                "suburb": "Warriewood",
                "addressLine": "Jacksons Rd",
                "postcode": "2102"
            },
            "position": {
                "latitude": -33.695051,
                "longitude": 151.295347
            },
            "brand": {
                "name": "Coles Supermarkets",
                "storeFinderId": 2,
                "id": "COL"
            }
        },
        {
            "id": "COL:798",
            "name": "Coles The Entrance",
            "phone": "(02) 4332 7454",
            "isTrading": true,
            "address": {
                "state": "NSW",
                "suburb": "The Entrance",
                "addressLine": "The Entrance Rd & Dening St",
                "postcode": "2261"
            },
            "position": {
                "latitude": -33.345825,
                "longitude": 151.496031
            },
            "brand": {
                "name": "Coles Supermarkets",
                "storeFinderId": 2,
                "id": "COL"
            }
        },
        {
            "id": "COL:904",
            "name": "Coles Bateau Bay",
            "phone": "(02) 4334 5388",
            "isTrading": true,
            "address": {
                "state": "NSW",
                "suburb": "Bateau Bay",
                "addressLine": "The Entrance Rd",
                "postcode": "2261"
            },
            "position": {
                "latitude": -33.374859,
                "longitude": 151.472457
            },
            "brand": {
                "name": "Coles Supermarkets",
                "storeFinderId": 2,
                "id": "COL"
            }
        },
        {
            "id": "COL:781",
            "name": "Coles Toukley",
            "phone": "(02) 4396 4002",
            "isTrading": true,
            "address": {
                "state": "NSW",
                "suburb": "Toukley",
                "addressLine": "Yaralla St & Hargraves St",
                "postcode": "2263"
            },
            "position": {
                "latitude": -33.264802,
                "longitude": 151.539663
            },
            "brand": {
                "name": "Coles Supermarkets",
                "storeFinderId": 2,
                "id": "COL"
            }
        },
        {
            "id": "COL:5696",
            "name": "Coles Killarney Vale",
            "phone": "(02) 4332 7492",
            "isTrading": true,
            "address": {
                "state": "NSW",
                "suburb": "Killarney Vale",
                "addressLine": "Wyong St & South St",
                "postcode": "2261"
            },
            "position": {
                "latitude": -33.365677,
                "longitude": 151.461167
            },
            "brand": {
                "name": "Coles Supermarkets",
                "storeFinderId": 2,
                "id": "COL"
            }
        },
        {
            "id": "COL:5759",
            "name": "Coles Budgewoi",
            "phone": "(02) 4390 6000",
            "isTrading": true,
            "address": {
                "state": "NSW",
                "suburb": "Budgewoi",
                "addressLine": "Noela Pl & Tenth Ave",
                "postcode": "2262"
            },
            "position": {
                "latitude": -33.233581,
                "longitude": 151.554132
            },
            "brand": {
                "name": "Coles Supermarkets",
                "storeFinderId": 2,
                "id": "COL"
            }
        },
        {
            "id": "COL:5730",
            "name": "Coles Kincumber",
            "phone": "(02) 4368 8700",
            "isTrading": true,
            "address": {
                "state": "NSW",
                "suburb": "Kincumber",
                "addressLine": "Avoca Drive",
                "postcode": "2251"
            },
            "position": {
                "latitude": -33.467293,
                "longitude": 151.382996
            },
            "brand": {
                "name": "Coles Supermarkets",
                "storeFinderId": 2,
                "id": "COL"
            }
        },
        {
            "id": "COL:885",
            "name": "Coles Erina",
            "phone": "(02) 4335 5500",
            "isTrading": true,
            "address": {
                "state": "NSW",
                "suburb": "Erina",
                "addressLine": "620 - 658 Terrigal Dve",
                "postcode": "2250"
            },
            "position": {
                "latitude": -33.436419,
                "longitude": 151.391319
            },
            "brand": {
                "name": "Coles Supermarkets",
                "storeFinderId": 2,
                "id": "COL"
            }
        },
        {
            "id": "COL:7565",
            "name": "Coles Salamander Bay",
            "phone": "(02) 4919 2500",
            "isTrading": true,
            "address": {
                "state": "NSW",
                "suburb": "Salamander Bay",
                "addressLine": "Salamander Way & Bagnall Beach Rd",
                "postcode": "2317"
            },
            "position": {
                "latitude": -32.736193,
                "longitude": 152.106757
            },
            "brand": {
                "name": "Coles Supermarkets",
                "storeFinderId": 2,
                "id": "COL"
            }
        },
        {
            "id": "COL:807",
            "name": "Coles Swansea",
            "phone": "(02) 4971 1655",
            "isTrading": true,
            "address": {
                "state": "NSW",
                "suburb": "Swansea",
                "addressLine": "210 - 224 Pacific Hwy",
                "postcode": "2281"
            },
            "position": {
                "latitude": -33.091623,
                "longitude": 151.636769
            },
            "brand": {
                "name": "Coles Supermarkets",
                "storeFinderId": 2,
                "id": "COL"
            }
        },
        {
            "id": "COL:5692",
            "name": "Coles Tea Gardens",
            "phone": "(02) 4997 2603",
            "isTrading": true,
            "address": {
                "state": "NSW",
                "suburb": "Tea Gardens",
                "addressLine": "Myall Rd",
                "postcode": "2324"
            },
            "position": {
                "latitude": -32.652476,
                "longitude": 152.149527
            },
            "brand": {
                "name": "Coles Supermarkets",
                "storeFinderId": 2,
                "id": "COL"
            }
        },
        {
            "id": "COL:813",
            "name": "Coles Newcastle",
            "phone": "(02) 4969 3899",
            "isTrading": true,
            "address": {
                "state": "NSW",
                "suburb": "The Junction",
                "addressLine": "204 Union St",
                "postcode": "2291"
            },
            "position": {
                "latitude": -32.938398,
                "longitude": 151.758625
            },
            "brand": {
                "name": "Coles Supermarkets",
                "storeFinderId": 2,
                "id": "COL"
            }
        },
        {
            "id": "COL:4178",
            "name": "Coles Jewellstown",
            "phone": "(02) 4948 5744",
            "isTrading": true,
            "address": {
                "state": "NSW",
                "suburb": "Belmont North",
                "addressLine": "Ntaba Rd",
                "postcode": "2280"
            },
            "position": {
                "latitude": -33.012915,
                "longitude": 151.684313
            },
            "brand": {
                "name": "Coles Supermarkets",
                "storeFinderId": 2,
                "id": "COL"
            }
        },
        {
            "id": "COL:819",
            "name": "Coles Lake Haven",
            "phone": "(02) 4393 4200",
            "isTrading": true,
            "address": {
                "state": "NSW",
                "suburb": "Gorokan",
                "addressLine": "Lake Haven Drive",
                "postcode": "2263"
            },
            "position": {
                "latitude": -33.241282,
                "longitude": 151.504638
            },
            "brand": {
                "name": "Coles Supermarkets",
                "storeFinderId": 2,
                "id": "COL"
            }
        },
        {
            "id": "COL:989",
            "name": "Coles Tanilba Bay",
            "phone": "(02) 4980 5300",
            "isTrading": true,
            "address": {
                "state": "NSW",
                "suburb": "Tanilba Bay",
                "addressLine": "67 Beatty Blvd",
                "postcode": "2319"
            },
            "position": {
                "latitude": -32.735483,
                "longitude": 151.999464
            },
            "brand": {
                "name": "Coles Supermarkets",
                "storeFinderId": 2,
                "id": "COL"
            }
        },
        {
            "id": "COL:823",
            "name": "Coles Belmont",
            "phone": "(02) 4945 0355",
            "isTrading": true,
            "address": {
                "state": "NSW",
                "suburb": "Belmont",
                "addressLine": "Macquarie St & Edgar St",
                "postcode": "2280"
            },
            "position": {
                "latitude": -33.034734,
                "longitude": 151.65891
            },
            "brand": {
                "name": "Coles Supermarkets",
                "storeFinderId": 2,
                "id": "COL"
            }
        },
        {
            "id": "COL:993",
            "name": "Coles Marketown",
            "phone": "(02) 4926 4494",
            "isTrading": true,
            "address": {
                "state": "NSW",
                "suburb": "Newcastle West",
                "addressLine": "King St & National Park St",
                "postcode": "2302"
            },
            "position": {
                "latitude": -32.927974,
                "longitude": 151.760638
            },
            "brand": {
                "name": "Coles Supermarkets",
                "storeFinderId": 2,
                "id": "COL"
            }
        },
        {
            "id": "COL:882",
            "name": "Coles San Remo",
            "phone": "(02) 4390 6100",
            "isTrading": true,
            "address": {
                "state": "NSW",
                "suburb": "San Remo",
                "addressLine": "21 Pacific Hwy",
                "postcode": "2262"
            },
            "position": {
                "latitude": -33.215429,
                "longitude": 151.510841
            },
            "brand": {
                "name": "Coles Supermarkets",
                "storeFinderId": 2,
                "id": "COL"
            }
        },
        {
            "id": "COL:995",
            "name": "Coles Charlestown",
            "phone": "(02) 4942 0100",
            "isTrading": true,
            "address": {
                "state": "NSW",
                "suburb": "Charlestown",
                "addressLine": "Pearson St",
                "postcode": "2290"
            },
            "position": {
                "latitude": -32.963649,
                "longitude": 151.694269
            },
            "brand": {
                "name": "Coles Supermarkets",
                "storeFinderId": 2,
                "id": "COL"
            }
        },
        {
            "id": "COL:833",
            "name": "Coles Kotara",
            "phone": "(02) 4952 7066",
            "isTrading": true,
            "address": {
                "state": "NSW",
                "suburb": "Kotara",
                "addressLine": "Park Ave & Northcott Drv",
                "postcode": "2289"
            },
            "position": {
                "latitude": -32.94208,
                "longitude": 151.710545
            },
            "brand": {
                "name": "Coles Supermarkets",
                "storeFinderId": 2,
                "id": "COL"
            }
        },
        {
            "id": "COL:5798",
            "name": "Coles Mayfield",
            "phone": "(02) 8327 8400",
            "isTrading": true,
            "address": {
                "state": "NSW",
                "suburb": "Mayfield",
                "addressLine": "Maitland Rd & Nile St",
                "postcode": "2304"
            },
            "position": {
                "latitude": -32.901117,
                "longitude": 151.742161
            },
            "brand": {
                "name": "Coles Supermarkets",
                "storeFinderId": 2,
                "id": "COL"
            }
        },
        {
            "id": "COL:5807",
            "name": "Coles Lake Macquarie",
            "phone": "(02) 4050 2100",
            "isTrading": true,
            "address": {
                "state": "NSW",
                "suburb": "Mount Hutton",
                "addressLine": "Wilsons Road",
                "postcode": "2290"
            },
            "position": {
                "latitude": -32.984483,
                "longitude": 151.67268
            },
            "brand": {
                "name": "Coles Supermarkets",
                "storeFinderId": 2,
                "id": "COL"
            }
        },
        {
            "id": "COL:746",
            "name": "Coles Waratah",
            "phone": "(02) 4056 7200",
            "isTrading": true,
            "address": {
                "state": "NSW",
                "suburb": "Waratah",
                "addressLine": "Turton Rd & Georgetown Rd",
                "postcode": "2298"
            },
            "position": {
                "latitude": -32.907028,
                "longitude": 151.726479
            },
            "brand": {
                "name": "Coles Supermarkets",
                "storeFinderId": 2,
                "id": "COL"
            }
        },
        {
            "id": "COL:7555",
            "name": "Coles Medowie",
            "phone": "(02) 4982 9600",
            "isTrading": true,
            "address": {
                "state": "NSW",
                "suburb": "Medowie",
                "addressLine": "Ferodale Road & Medowie Road",
                "postcode": "2318"
            },
            "position": {
                "latitude": -32.739975,
                "longitude": 151.86483
            },
            "brand": {
                "name": "Coles Supermarkets",
                "storeFinderId": 2,
                "id": "COL"
            }
        },
        {
            "id": "COL:880",
            "name": "Coles Warners Bay",
            "phone": "(02) 4947 3800",
            "isTrading": true,
            "address": {
                "state": "NSW",
                "suburb": "Warners Bay",
                "addressLine": "30-32 John St",
                "postcode": "2282"
            },
            "position": {
                "latitude": -32.973911,
                "longitude": 151.645682
            },
            "brand": {
                "name": "Coles Supermarkets",
                "storeFinderId": 2,
                "id": "COL"
            }
        },
        {
            "id": "COL:992",
            "name": "Coles Wadalba",
            "phone": "(02) 4392 0019",
            "isTrading": true,
            "address": {
                "state": "NSW",
                "suburb": "Wadalba",
                "addressLine": "Figtree Blvd & Orchid Way",
                "postcode": "2259"
            },
            "position": {
                "latitude": -33.264197,
                "longitude": 151.464648
            },
            "brand": {
                "name": "Coles Supermarkets",
                "storeFinderId": 2,
                "id": "COL"
            }
        },
        {
            "id": "COL:5726",
            "name": "Coles Chittaway Point",
            "phone": "(02) 4388 4744",
            "isTrading": true,
            "address": {
                "state": "NSW",
                "suburb": "Chittaway Point",
                "addressLine": "Chittaway Rd & Wyong Rd",
                "postcode": "2261"
            },
            "position": {
                "latitude": -33.326975,
                "longitude": 151.42928
            },
            "brand": {
                "name": "Coles Supermarkets",
                "storeFinderId": 2,
                "id": "COL"
            }
        },
        {
            "id": "COL:5753",
            "name": "Coles Mudgee",
            "phone": "(02) 6372 7155",
            "isTrading": true,
            "address": {
                "state": "NSW",
                "suburb": "Mudgee",
                "addressLine": "Church St & Mortimer St",
                "postcode": "2850"
            },
            "position": {
                "latitude": -32.592388,
                "longitude": 149.589117
            },
            "brand": {
                "name": "Coles Supermarkets",
                "storeFinderId": 2,
                "id": "COL"
            }
        },
        {
            "id": "COL:792",
            "name": "Coles Richmond",
            "phone": "(02) 4545 4300",
            "isTrading": true,
            "address": {
                "state": "NSW",
                "suburb": "Richmond",
                "addressLine": "271 - 281 Windsor St",
                "postcode": "2753"
            },
            "position": {
                "latitude": -33.595732,
                "longitude": 150.749066
            },
            "brand": {
                "name": "Coles Supermarkets",
                "storeFinderId": 2,
                "id": "COL"
            }
        },
        {
            "id": "COL:844",
            "name": "Coles Windsor",
            "phone": "(02) 4545 8000",
            "isTrading": true,
            "address": {
                "state": "NSW",
                "suburb": "Windsor",
                "addressLine": "223 George St",
                "postcode": "2756"
            },
            "position": {
                "latitude": -33.60734,
                "longitude": 150.818731
            },
            "brand": {
                "name": "Coles Supermarkets",
                "storeFinderId": 2,
                "id": "COL"
            }
        },
        {
            "id": "COL:7710",
            "name": "Coles Elara Marsden Park",
            "phone": "(02) 8327 8600",
            "isTrading": true,
            "address": {
                "state": "NSW",
                "suburb": "Elara",
                "addressLine": "Cnr Of Parish St & Elara Boulevard,",
                "postcode": "2765"
            },
            "position": {
                "latitude": -33.6952,
                "longitude": 150.8203
            },
            "brand": {
                "name": "Coles Supermarkets",
                "storeFinderId": 2,
                "id": "COL"
            }
        },
        {
            "id": "COL:7549",
            "name": "Coles Box Hill Carmel Village",
            "phone": "(02) 8652 1200",
            "isTrading": true,
            "address": {
                "state": "NSW",
                "suburb": "Box Hill",
                "addressLine": "745 Windsor Rd",
                "postcode": "2765"
            },
            "position": {
                "latitude": -33.658873,
                "longitude": 150.879731
            },
            "brand": {
                "name": "Coles Supermarkets",
                "storeFinderId": 2,
                "id": "COL"
            }
        },
        {
            "id": "COL:7572",
            "name": "Coles Schofields",
            "phone": "(02) 9172 9400",
            "isTrading": true,
            "address": {
                "state": "NSW",
                "suburb": "Schofields",
                "addressLine": "227 Railway Terrace",
                "postcode": "2762"
            },
            "position": {
                "latitude": -33.70503,
                "longitude": 150.874876
            },
            "brand": {
                "name": "Coles Supermarkets",
                "storeFinderId": 2,
                "id": "COL"
            }
        },
        {
            "id": "COL:827",
            "name": "Coles Doonside",
            "phone": "(02) 9679 9099",
            "isTrading": true,
            "address": {
                "state": "NSW",
                "suburb": "Doonside",
                "addressLine": "Richmond Rd & Woodcroft Drv",
                "postcode": "2767"
            },
            "position": {
                "latitude": -33.74871,
                "longitude": 150.878837
            },
            "brand": {
                "name": "Coles Supermarkets",
                "storeFinderId": 2,
                "id": "COL"
            }
        },
        {
            "id": "COL:924",
            "name": "Coles Rouse Hill",
            "phone": "(02) 8652 0300",
            "isTrading": true,
            "address": {
                "state": "NSW",
                "suburb": "Rouse Hill",
                "addressLine": "Windsor Rd & Commercial Rd",
                "postcode": "2155"
            },
            "position": {
                "latitude": -33.692118,
                "longitude": 150.925826
            },
            "brand": {
                "name": "Coles Supermarkets",
                "storeFinderId": 2,
                "id": "COL"
            }
        },
        {
            "id": "COL:702",
            "name": "Coles Stanhope Gardens",
            "phone": "(02) 8652 3000",
            "isTrading": true,
            "address": {
                "state": "NSW",
                "suburb": "Stanhope Gardens",
                "addressLine": "Stanhope Pkwy & Sentry Drv",
                "postcode": "2768"
            },
            "position": {
                "latitude": -33.718326,
                "longitude": 150.919592
            },
            "brand": {
                "name": "Coles Supermarkets",
                "storeFinderId": 2,
                "id": "COL"
            }
        },
        {
            "id": "COL:862",
            "name": "Coles Blacktown",
            "phone": "(02) 8652 8900",
            "isTrading": true,
            "address": {
                "state": "NSW",
                "suburb": "Blacktown",
                "addressLine": "17 Patrick St",
                "postcode": "2148"
            },
            "position": {
                "latitude": -33.769857,
                "longitude": 150.905935
            },
            "brand": {
                "name": "Coles Supermarkets",
                "storeFinderId": 2,
                "id": "COL"
            }
        },
        {
            "id": "COL:796",
            "name": "Coles Kings Langley",
            "phone": "(02) 8652 3900",
            "isTrading": true,
            "address": {
                "state": "NSW",
                "suburb": "Kings Langley",
                "addressLine": "James Cook Drive & Ravenhill St",
                "postcode": "2147"
            },
            "position": {
                "latitude": -33.742933,
                "longitude": 150.923126
            },
            "brand": {
                "name": "Coles Supermarkets",
                "storeFinderId": 2,
                "id": "COL"
            }
        },
        {
            "id": "COL:883",
            "name": "Coles Kellyville",
            "phone": "(02) 8818 2100",
            "isTrading": true,
            "address": {
                "state": "NSW",
                "suburb": "Kellyville",
                "addressLine": "Wrights Rd & Victoria Rd",
                "postcode": "2155"
            },
            "position": {
                "latitude": -33.713408,
                "longitude": 150.971213
            },
            "brand": {
                "name": "Coles Supermarkets",
                "storeFinderId": 2,
                "id": "COL"
            }
        },
        {
            "id": "COL:851",
            "name": "Coles Norwest",
            "phone": "(02) 7966 6800",
            "isTrading": true,
            "address": {
                "state": "NSW",
                "suburb": "Baulkham Hills",
                "addressLine": "Norwest Boulevard",
                "postcode": "2153"
            },
            "position": {
                "latitude": -33.733016,
                "longitude": 150.962023
            },
            "brand": {
                "name": "Coles Supermarkets",
                "storeFinderId": 2,
                "id": "COL"
            }
        },
        {
            "id": "COL:929",
            "name": "Coles Berowra",
            "phone": "(02) 9456 2513",
            "isTrading": true,
            "address": {
                "state": "NSW",
                "suburb": "Berowra Heights",
                "addressLine": "1 Turner Rd",
                "postcode": "2082"
            },
            "position": {
                "latitude": -33.61281,
                "longitude": 151.138301
            },
            "brand": {
                "name": "Coles Supermarkets",
                "storeFinderId": 2,
                "id": "COL"
            }
        },
        {
            "id": "COL:760",
            "name": "Coles Asquith",
            "phone": "(02) 8415 3400",
            "isTrading": true,
            "address": {
                "state": "NSW",
                "suburb": "Asquith",
                "addressLine": "339 Pacific Hwy",
                "postcode": "2077"
            },
            "position": {
                "latitude": -33.688318,
                "longitude": 151.106601
            },
            "brand": {
                "name": "Coles Supermarkets",
                "storeFinderId": 2,
                "id": "COL"
            }
        },
        {
            "id": "COL:860",
            "name": "Coles Hornsby",
            "phone": "(02) 9472 7600",
            "isTrading": true,
            "address": {
                "state": "NSW",
                "suburb": "Hornsby",
                "addressLine": "Florence St & Hunter St",
                "postcode": "2077"
            },
            "position": {
                "latitude": -33.703319,
                "longitude": 151.101118
            },
            "brand": {
                "name": "Coles Supermarkets",
                "storeFinderId": 2,
                "id": "COL"
            }
        },
        {
            "id": "COL:825",
            "name": "Coles Castle Hill",
            "phone": "(02) 7800 7800",
            "isTrading": true,
            "address": {
                "state": "NSW",
                "suburb": "Castle Hill",
                "addressLine": "Old Castle Hill Rd",
                "postcode": "2154"
            },
            "position": {
                "latitude": -33.730022,
                "longitude": 151.005754
            },
            "brand": {
                "name": "Coles Supermarkets",
                "storeFinderId": 2,
                "id": "COL"
            }
        },
        {
            "id": "COL:5733",
            "name": "Coles Umina Beach",
            "phone": "(02) 7203 8300",
            "isTrading": true,
            "address": {
                "state": "NSW",
                "suburb": "Umina Beach",
                "addressLine": "4 Oscar St",
                "postcode": "2257"
            },
            "position": {
                "latitude": -33.521081,
                "longitude": 151.317271
            },
            "brand": {
                "name": "Coles Supermarkets",
                "storeFinderId": 2,
                "id": "COL"
            }
        },
        {
            "id": "COL:905",
            "name": "Coles Woy Woy",
            "phone": "(02) 9121 8100",
            "isTrading": true,
            "address": {
                "state": "NSW",
                "suburb": "Woy Woy",
                "addressLine": "Railway St & George St",
                "postcode": "2256"
            },
            "position": {
                "latitude": -33.488152,
                "longitude": 151.323324
            },
            "brand": {
                "name": "Coles Supermarkets",
                "storeFinderId": 2,
                "id": "COL"
            }
        },
        {
            "id": "COL:761",
            "name": "Coles West Pennant Hills",
            "phone": "(02) 7811 4100",
            "isTrading": true,
            "address": {
                "state": "NSW",
                "suburb": "West Pennant Hills",
                "addressLine": "556 Pennant Hills Rd",
                "postcode": "2125"
            },
            "position": {
                "latitude": -33.74701,
                "longitude": 151.050065
            },
            "brand": {
                "name": "Coles Supermarkets",
                "storeFinderId": 2,
                "id": "COL"
            }
        },
        {
            "id": "COL:717",
            "name": "Coles Turramurra",
            "phone": "(02) 7262 3700",
            "isTrading": true,
            "address": {
                "state": "NSW",
                "suburb": "Turramurra",
                "addressLine": "1 Ray St",
                "postcode": "2074"
            },
            "position": {
                "latitude": -33.732525,
                "longitude": 151.127233
            },
            "brand": {
                "name": "Coles Supermarkets",
                "storeFinderId": 2,
                "id": "COL"
            }
        },
        {
            "id": "COL:821",
            "name": "Coles West Gosford",
            "phone": "(02) 7207 6700",
            "isTrading": true,
            "address": {
                "state": "NSW",
                "suburb": "West Gosford",
                "addressLine": "Brisbane Water Drive",
                "postcode": "2250"
            },
            "position": {
                "latitude": -33.428364,
                "longitude": 151.315716
            },
            "brand": {
                "name": "Coles Supermarkets",
                "storeFinderId": 2,
                "id": "COL"
            }
        },
        {
            "id": "COL:951",
            "name": "Coles Baulkham Hills",
            "phone": "(02) 7811 6200",
            "isTrading": true,
            "address": {
                "state": "NSW",
                "suburb": "Baulkham Hills",
                "addressLine": "Windsor Rd & Olive St",
                "postcode": "2153"
            },
            "position": {
                "latitude": -33.758987,
                "longitude": 150.991129
            },
            "brand": {
                "name": "Coles Supermarkets",
                "storeFinderId": 2,
                "id": "COL"
            }
        },
        {
            "id": "COL:5676",
            "name": "Coles St Ives",
            "phone": "(02) 7955 9900",
            "isTrading": true,
            "address": {
                "state": "NSW",
                "suburb": "St Ives",
                "addressLine": "166 Mona Vale Rd",
                "postcode": "2075"
            },
            "position": {
                "latitude": -33.730169,
                "longitude": 151.15777
            },
            "brand": {
                "name": "Coles Supermarkets",
                "storeFinderId": 2,
                "id": "COL"
            }
        },
        {
            "id": "COL:5689",
            "name": "Coles Green Point",
            "phone": "(02) 4367 9400",
            "isTrading": true,
            "address": {
                "state": "NSW",
                "suburb": "Green Point",
                "addressLine": "Avoca Drv & Sun Valley Rd",
                "postcode": "2251"
            },
            "position": {
                "latitude": -33.446702,
                "longitude": 151.3727
            },
            "brand": {
                "name": "Coles Supermarkets",
                "storeFinderId": 2,
                "id": "COL"
            }
        },
        {
            "id": "COL:786",
            "name": "Coles Wyoming",
            "phone": "(02) 4378 1100",
            "isTrading": true,
            "address": {
                "state": "NSW",
                "suburb": "Wyoming",
                "addressLine": "Pacific Hwy & Kinarra Ave",
                "postcode": "2250"
            },
            "position": {
                "latitude": -33.405108,
                "longitude": 151.351294
            },
            "brand": {
                "name": "Coles Supermarkets",
                "storeFinderId": 2,
                "id": "COL"
            }
        },
        {
            "id": "COL:7554",
            "name": "Coles Lisarow",
            "phone": "(02) 4328 0000",
            "isTrading": true,
            "address": {
                "state": "NSW",
                "suburb": "Lisarow",
                "addressLine": "11 Parsons Rd",
                "postcode": "2250"
            },
            "position": {
                "latitude": -33.385491,
                "longitude": 151.367588
            },
            "brand": {
                "name": "Coles Supermarkets",
                "storeFinderId": 2,
                "id": "COL"
            }
        },
        {
            "id": "COL:752",
            "name": "Coles Tuggerah",
            "phone": "(02) 4351 9377",
            "isTrading": true,
            "address": {
                "state": "NSW",
                "suburb": "Tuggerah",
                "addressLine": "Westfield S/c Cnr Gavenlock & Cobbs Rd",
                "postcode": "2259"
            },
            "position": {
                "latitude": -33.308,
                "longitude": 151.409967
            },
            "brand": {
                "name": "Coles Supermarkets",
                "storeFinderId": 2,
                "id": "COL"
            }
        },
        {
            "id": "COL:925",
            "name": "Coles Wyong",
            "phone": "(02) 4353 9599",
            "isTrading": true,
            "address": {
                "state": "NSW",
                "suburb": "Wyong",
                "addressLine": "11 - 18 Alison Rd",
                "postcode": "2259"
            },
            "position": {
                "latitude": -33.283465,
                "longitude": 151.42315
            },
            "brand": {
                "name": "Coles Supermarkets",
                "storeFinderId": 2,
                "id": "COL"
            }
        },
        {
            "id": "COL:5771",
            "name": "Coles Bonnells Bay",
            "phone": "(02) 4973 7800",
            "isTrading": true,
            "address": {
                "state": "NSW",
                "suburb": "Bonnells Bay",
                "addressLine": "330 Fishery Point Rd",
                "postcode": "2264"
            },
            "position": {
                "latitude": -33.11083,
                "longitude": 151.531955
            },
            "brand": {
                "name": "Coles Supermarkets",
                "storeFinderId": 2,
                "id": "COL"
            }
        },
        {
            "id": "COL:950",
            "name": "Coles Morisset",
            "phone": "(02) 4973 7100",
            "isTrading": true,
            "address": {
                "state": "NSW",
                "suburb": "Morisset",
                "addressLine": "35 Yambo St",
                "postcode": "2264"
            },
            "position": {
                "latitude": -33.106437,
                "longitude": 151.487967
            },
            "brand": {
                "name": "Coles Supermarkets",
                "storeFinderId": 2,
                "id": "COL"
            }
        },
        {
            "id": "COL:850",
            "name": "Coles Toronto",
            "phone": "(02) 4080 2500",
            "isTrading": true,
            "address": {
                "state": "NSW",
                "suburb": "Toronto",
                "addressLine": "63 The Boulevarde",
                "postcode": "2283"
            },
            "position": {
                "latitude": -33.013037,
                "longitude": 151.595078
            },
            "brand": {
                "name": "Coles Supermarkets",
                "storeFinderId": 2,
                "id": "COL"
            }
        },
        {
            "id": "COL:824",
            "name": "Coles Wallsend",
            "phone": "(02) 4951 8344",
            "isTrading": true,
            "address": {
                "state": "NSW",
                "suburb": "Wallsend",
                "addressLine": "Cowper St",
                "postcode": "2287"
            },
            "position": {
                "latitude": -32.903238,
                "longitude": 151.667392
            },
            "brand": {
                "name": "Coles Supermarkets",
                "storeFinderId": 2,
                "id": "COL"
            }
        },
        {
            "id": "COL:893",
            "name": "Coles Glendale",
            "phone": "(02) 4954 6922",
            "isTrading": true,
            "address": {
                "state": "NSW",
                "suburb": "Glendale",
                "addressLine": "Lake Rd & Stockland Drv",
                "postcode": "2285"
            },
            "position": {
                "latitude": -32.935462,
                "longitude": 151.641974
            },
            "brand": {
                "name": "Coles Supermarkets",
                "storeFinderId": 2,
                "id": "COL"
            }
        },
        {
            "id": "COL:901",
            "name": "Coles Forster",
            "phone": "(02) 6555 7266",
            "isTrading": true,
            "address": {
                "state": "NSW",
                "suburb": "Forster",
                "addressLine": "Breese Pde",
                "postcode": "2428"
            },
            "position": {
                "latitude": -32.198882,
                "longitude": 152.518736
            },
            "brand": {
                "name": "Coles Supermarkets",
                "storeFinderId": 2,
                "id": "COL"
            }
        },
        {
            "id": "COL:879",
            "name": "Coles Edgeworth",
            "phone": "(02) 4953 0511",
            "isTrading": true,
            "address": {
                "state": "NSW",
                "suburb": "Edgeworth",
                "addressLine": "Main Rd & Callan St",
                "postcode": "2285"
            },
            "position": {
                "latitude": -32.924403,
                "longitude": 151.622843
            },
            "brand": {
                "name": "Coles Supermarkets",
                "storeFinderId": 2,
                "id": "COL"
            }
        },
        {
            "id": "COL:940",
            "name": "Coles Fletcher",
            "phone": "(02) 4941 6300",
            "isTrading": true,
            "address": {
                "state": "NSW",
                "suburb": "Fletcher",
                "addressLine": "Cnr Churnwood Dr And Minmi Road",
                "postcode": "2287"
            },
            "position": {
                "latitude": -32.877317,
                "longitude": 151.647313
            },
            "brand": {
                "name": "Coles Supermarkets",
                "storeFinderId": 2,
                "id": "COL"
            }
        },
        {
            "id": "COL:5598",
            "name": "Coles Old Bar",
            "phone": "(02) 6557 3100",
            "isTrading": true,
            "address": {
                "state": "NSW",
                "suburb": "Old Bar",
                "addressLine": "54 Old Bar Rd",
                "postcode": "2430"
            },
            "position": {
                "latitude": -31.968964,
                "longitude": 152.582929
            },
            "brand": {
                "name": "Coles Supermarkets",
                "storeFinderId": 2,
                "id": "COL"
            }
        },
        {
            "id": "COL:5776",
            "name": "Coles Sth Muswellbrook",
            "phone": "(02) 6542 3000",
            "isTrading": true,
            "address": {
                "state": "NSW",
                "suburb": "Muswellbrook South",
                "addressLine": "19 - 29 Rutherford Rd",
                "postcode": "2333"
            },
            "position": {
                "latitude": -32.282348,
                "longitude": 150.895945
            },
            "brand": {
                "name": "Coles Supermarkets",
                "storeFinderId": 2,
                "id": "COL"
            }
        },
        {
            "id": "COL:945",
            "name": "Coles Singleton",
            "phone": "(02) 6575 4300",
            "isTrading": true,
            "address": {
                "state": "NSW",
                "suburb": "Singleton",
                "addressLine": "Gowrie St",
                "postcode": "2330"
            },
            "position": {
                "latitude": -32.566419,
                "longitude": 151.165026
            },
            "brand": {
                "name": "Coles Supermarkets",
                "storeFinderId": 2,
                "id": "COL"
            }
        },
        {
            "id": "COL:864",
            "name": "Coles Cessnock",
            "phone": "(02) 4991 6172",
            "isTrading": true,
            "address": {
                "state": "NSW",
                "suburb": "Cessnock",
                "addressLine": "North Ave & Cooper St",
                "postcode": "2325"
            },
            "position": {
                "latitude": -32.835771,
                "longitude": 151.35427
            },
            "brand": {
                "name": "Coles Supermarkets",
                "storeFinderId": 2,
                "id": "COL"
            }
        },
        {
            "id": "COL:7702",
            "name": "Coles Huntlee",
            "phone": "(02) 4024 9200",
            "isTrading": true,
            "address": {
                "state": "NSW",
                "suburb": "Branxton",
                "addressLine": "22 Empire St",
                "postcode": "2335"
            },
            "position": {
                "latitude": -32.669922,
                "longitude": 151.350097
            },
            "brand": {
                "name": "Coles Supermarkets",
                "storeFinderId": 2,
                "id": "COL"
            }
        },
        {
            "id": "COL:999",
            "name": "Coles Kurri Kurri",
            "phone": "(02) 4936 5100",
            "isTrading": true,
            "address": {
                "state": "NSW",
                "suburb": "Kurri Kurri",
                "addressLine": "259 - 277 Lang St",
                "postcode": "2327"
            },
            "position": {
                "latitude": -32.819944,
                "longitude": 151.478517
            },
            "brand": {
                "name": "Coles Supermarkets",
                "storeFinderId": 2,
                "id": "COL"
            }
        },
        {
            "id": "COL:946",
            "name": "Coles Rutherford",
            "phone": "(02) 4936 9150",
            "isTrading": true,
            "address": {
                "state": "NSW",
                "suburb": "Rutherford",
                "addressLine": "Arthur St & East Mall",
                "postcode": "2320"
            },
            "position": {
                "latitude": -32.716197,
                "longitude": 151.528301
            },
            "brand": {
                "name": "Coles Supermarkets",
                "storeFinderId": 2,
                "id": "COL"
            }
        },
        {
            "id": "COL:898",
            "name": "Coles Green Hills",
            "phone": "(02) 4020 2900",
            "isTrading": true,
            "address": {
                "state": "NSW",
                "suburb": "Green Hills",
                "addressLine": "Mitchell Drv & Molly Morgan Drv",
                "postcode": "2323"
            },
            "position": {
                "latitude": -32.762095,
                "longitude": 151.590975
            },
            "brand": {
                "name": "Coles Supermarkets",
                "storeFinderId": 2,
                "id": "COL"
            }
        },
        {
            "id": "COL:5690",
            "name": "Coles Thornton",
            "phone": "(02) 4966 5511",
            "isTrading": true,
            "address": {
                "state": "NSW",
                "suburb": "Thornton",
                "addressLine": "Taylor Ave & Thomas Cooke Dve",
                "postcode": "2322"
            },
            "position": {
                "latitude": -32.777006,
                "longitude": 151.639069
            },
            "brand": {
                "name": "Coles Supermarkets",
                "storeFinderId": 2,
                "id": "COL"
            }
        },
        {
            "id": "COL:967",
            "name": "Coles Taree Manning Mall",
            "phone": "(02) 6539 0200",
            "isTrading": true,
            "address": {
                "state": "NSW",
                "suburb": "Taree",
                "addressLine": "Macquarie St & Manning St",
                "postcode": "2430"
            },
            "position": {
                "latitude": -31.910009,
                "longitude": 152.460466
            },
            "brand": {
                "name": "Coles Supermarkets",
                "storeFinderId": 2,
                "id": "COL"
            }
        },
        {
            "id": "COL:5778",
            "name": "Coles Wingham",
            "phone": "(02) 6591 1300",
            "isTrading": true,
            "address": {
                "state": "NSW",
                "suburb": "Wingham",
                "addressLine": "Primrose St & Isabella St",
                "postcode": "2429"
            },
            "position": {
                "latitude": -31.868316,
                "longitude": 152.371297
            },
            "brand": {
                "name": "Coles Supermarkets",
                "storeFinderId": 2,
                "id": "COL"
            }
        },
        {
            "id": "COL:5685",
            "name": "Coles Laurieton",
            "phone": "(02) 6559 8500",
            "isTrading": true,
            "address": {
                "state": "NSW",
                "suburb": "Laurieton",
                "addressLine": "Bold St & Tunis St",
                "postcode": "2443"
            },
            "position": {
                "latitude": -31.648352,
                "longitude": 152.796507
            },
            "brand": {
                "name": "Coles Supermarkets",
                "storeFinderId": 2,
                "id": "COL"
            }
        },
        {
            "id": "COL:5683",
            "name": "Coles Lighthouse Beach",
            "phone": "(02) 5526 5800",
            "isTrading": true,
            "address": {
                "state": "NSW",
                "suburb": "Port Macquarie South",
                "addressLine": "Ocean Drive & Emerald Drive",
                "postcode": "2444"
            },
            "position": {
                "latitude": -31.477537,
                "longitude": 152.914264
            },
            "brand": {
                "name": "Coles Supermarkets",
                "storeFinderId": 2,
                "id": "COL"
            }
        },
        {
            "id": "COL:5684",
            "name": "Coles Lake Innes Village",
            "phone": "(02) 5526 0900",
            "isTrading": true,
            "address": {
                "state": "NSW",
                "suburb": "Port Macquarie West",
                "addressLine": "525 Oxley Hwy",
                "postcode": "2444"
            },
            "position": {
                "latitude": -31.457462,
                "longitude": 152.873834
            },
            "brand": {
                "name": "Coles Supermarkets",
                "storeFinderId": 2,
                "id": "COL"
            }
        },
        {
            "id": "COL:5686",
            "name": "Coles Port Macquarie",
            "phone": "(02) 6588 0700",
            "isTrading": true,
            "address": {
                "state": "NSW",
                "suburb": "Port Macquarie",
                "addressLine": "28 Hayward St",
                "postcode": "2444"
            },
            "position": {
                "latitude": -31.433929,
                "longitude": 152.908166
            },
            "brand": {
                "name": "Coles Supermarkets",
                "storeFinderId": 2,
                "id": "COL"
            }
        },
        {
            "id": "COL:4522",
            "name": "Coles Gunnedah",
            "phone": "(02) 6741 7600",
            "isTrading": true,
            "address": {
                "state": "NSW",
                "suburb": "Gunnedah",
                "addressLine": "80 - 98 Little Conadilly St",
                "postcode": "2380"
            },
            "position": {
                "latitude": -30.975586,
                "longitude": 150.252202
            },
            "brand": {
                "name": "Coles Supermarkets",
                "storeFinderId": 2,
                "id": "COL"
            }
        },
        {
            "id": "COL:8769",
            "name": "Coles Narrabri",
            "phone": "(02) 6799 2500",
            "isTrading": true,
            "address": {
                "state": "NSW",
                "suburb": "Narrabri",
                "addressLine": "154 Maitland St",
                "postcode": "2390"
            },
            "position": {
                "latitude": -30.324301,
                "longitude": 149.782715
            },
            "brand": {
                "name": "Coles Supermarkets",
                "storeFinderId": 2,
                "id": "COL"
            }
        },
        {
            "id": "COL:939",
            "name": "Coles Scone",
            "phone": "(02) 6545 2011",
            "isTrading": true,
            "address": {
                "state": "NSW",
                "suburb": "Scone",
                "addressLine": "209 Kelly St",
                "postcode": "2337"
            },
            "position": {
                "latitude": -32.052469,
                "longitude": 150.866274
            },
            "brand": {
                "name": "Coles Supermarkets",
                "storeFinderId": 2,
                "id": "COL"
            }
        },
        {
            "id": "COL:5680",
            "name": "Coles Kempsey",
            "phone": "(02) 6560 1400",
            "isTrading": true,
            "address": {
                "state": "NSW",
                "suburb": "Kempsey",
                "addressLine": "Pacific Hwy & Belgrave St",
                "postcode": "2440"
            },
            "position": {
                "latitude": -31.081116,
                "longitude": 152.841772
            },
            "brand": {
                "name": "Coles Supermarkets",
                "storeFinderId": 2,
                "id": "COL"
            }
        },
        {
            "id": "COL:5678",
            "name": "Coles South West Rocks",
            "phone": "(02) 6566 6645",
            "isTrading": true,
            "address": {
                "state": "NSW",
                "suburb": "South West Rocks",
                "addressLine": "Gregory St & Spencers Creek Rd",
                "postcode": "2431"
            },
            "position": {
                "latitude": -30.907424,
                "longitude": 153.042224
            },
            "brand": {
                "name": "Coles Supermarkets",
                "storeFinderId": 2,
                "id": "COL"
            }
        },
        {
            "id": "COL:4473",
            "name": "Coles Moree",
            "phone": "(02) 6752 3877",
            "isTrading": true,
            "address": {
                "state": "NSW",
                "suburb": "Moree",
                "addressLine": "85 Balo St",
                "postcode": "2400"
            },
            "position": {
                "latitude": -29.460712,
                "longitude": 149.840765
            },
            "brand": {
                "name": "Coles Supermarkets",
                "storeFinderId": 2,
                "id": "COL"
            }
        },
        {
            "id": "COL:5796",
            "name": "Coles South Tamworth",
            "phone": "(02) 6760 1400",
            "isTrading": true,
            "address": {
                "state": "NSW",
                "suburb": "South Tamworth",
                "addressLine": "4-10 Kathleen St",
                "postcode": "2340"
            },
            "position": {
                "latitude": -31.104636,
                "longitude": 150.918802
            },
            "brand": {
                "name": "Coles Supermarkets",
                "storeFinderId": 2,
                "id": "COL"
            }
        },
        {
            "id": "COL:8770",
            "name": "Coles Tamworth North",
            "phone": "(02) 6768 1000",
            "isTrading": true,
            "address": {
                "state": "NSW",
                "suburb": "Tamworth North",
                "addressLine": "Peel St & Mauris St",
                "postcode": "2340"
            },
            "position": {
                "latitude": -31.077159,
                "longitude": 150.917864
            },
            "brand": {
                "name": "Coles Supermarkets",
                "storeFinderId": 2,
                "id": "COL"
            }
        },
        {
            "id": "COL:8761",
            "name": "Coles Tamworth",
            "phone": "(02) 6766 4856",
            "isTrading": true,
            "address": {
                "state": "NSW",
                "suburb": "Tamworth",
                "addressLine": "Peel St & White St",
                "postcode": "2340"
            },
            "position": {
                "latitude": -31.09227,
                "longitude": 150.931969
            },
            "brand": {
                "name": "Coles Supermarkets",
                "storeFinderId": 2,
                "id": "COL"
            }
        },
        {
            "id": "COL:5682",
            "name": "Coles Toormina",
            "phone": "(02) 6659 6500",
            "isTrading": true,
            "address": {
                "state": "NSW",
                "suburb": "Toormina",
                "addressLine": "Toormina Rd & Minorie Dr",
                "postcode": "2452"
            },
            "position": {
                "latitude": -30.354203,
                "longitude": 153.091414
            },
            "brand": {
                "name": "Coles Supermarkets",
                "storeFinderId": 2,
                "id": "COL"
            }
        },
        {
            "id": "COL:5679",
            "name": "Coles Coffs Harbour",
            "phone": "(02) 6659 1600",
            "isTrading": true,
            "address": {
                "state": "NSW",
                "suburb": "Coffs Harbour",
                "addressLine": "Harbour Dr & Earl St",
                "postcode": "2450"
            },
            "position": {
                "latitude": -30.299177,
                "longitude": 153.118578
            },
            "brand": {
                "name": "Coles Supermarkets",
                "storeFinderId": 2,
                "id": "COL"
            }
        },
        {
            "id": "COL:5681",
            "name": "Coles Moonee Beach",
            "phone": "(02) 6656 6333",
            "isTrading": true,
            "address": {
                "state": "NSW",
                "suburb": "Moonee Beach",
                "addressLine": "Pacific Hwy & Moonee Beach Rd",
                "postcode": "2450"
            },
            "position": {
                "latitude": -30.204838,
                "longitude": 153.149308
            },
            "brand": {
                "name": "Coles Supermarkets",
                "storeFinderId": 2,
                "id": "COL"
            }
        },
        {
            "id": "COL:4444",
            "name": "Coles Inverell",
            "phone": "(02) 6722 3811",
            "isTrading": true,
            "address": {
                "state": "NSW",
                "suburb": "Inverell",
                "addressLine": "12 Byron St",
                "postcode": "2360"
            },
            "position": {
                "latitude": -29.773954,
                "longitude": 151.110054
            },
            "brand": {
                "name": "Coles Supermarkets",
                "storeFinderId": 2,
                "id": "COL"
            }
        },
        {
            "id": "COL:8760",
            "name": "Coles Armidale",
            "phone": "(02) 5701 7300",
            "isTrading": true,
            "address": {
                "state": "NSW",
                "suburb": "Armidale",
                "addressLine": "Dumaresq St & Marsh St",
                "postcode": "2350"
            },
            "position": {
                "latitude": -30.51274,
                "longitude": 151.668683
            },
            "brand": {
                "name": "Coles Supermarkets",
                "storeFinderId": 2,
                "id": "COL"
            }
        },
        {
            "id": "COL:5693",
            "name": "Coles South Grafton",
            "phone": "(02) 6642 1688",
            "isTrading": true,
            "address": {
                "state": "NSW",
                "suburb": "South Grafton",
                "addressLine": "Bent St & Charles St",
                "postcode": "2460"
            },
            "position": {
                "latitude": -29.706391,
                "longitude": 152.938865
            },
            "brand": {
                "name": "Coles Supermarkets",
                "storeFinderId": 2,
                "id": "COL"
            }
        },
        {
            "id": "COL:4485",
            "name": "Coles Grafton",
            "phone": "(02) 5634 5100",
            "isTrading": true,
            "address": {
                "state": "NSW",
                "suburb": "Grafton",
                "addressLine": "King St & Pound St",
                "postcode": "2460"
            },
            "position": {
                "latitude": -29.689394,
                "longitude": 152.931945
            },
            "brand": {
                "name": "Coles Supermarkets",
                "storeFinderId": 2,
                "id": "COL"
            }
        },
        {
            "id": "COL:4551",
            "name": "Coles Yamba",
            "phone": "(02) 6603 0500",
            "isTrading": true,
            "address": {
                "state": "NSW",
                "suburb": "Yamba",
                "addressLine": "Treelands Dr & Yamba Rd",
                "postcode": "2464"
            },
            "position": {
                "latitude": -29.42764,
                "longitude": 153.32704
            },
            "brand": {
                "name": "Coles Supermarkets",
                "storeFinderId": 2,
                "id": "COL"
            }
        },
        {
            "id": "COL:5597",
            "name": "Coles Glen Innes",
            "phone": "(02) 6732 2067",
            "isTrading": true,
            "address": {
                "state": "NSW",
                "suburb": "Glen Innes",
                "addressLine": "217 Grey Street",
                "postcode": "2370"
            },
            "position": {
                "latitude": -29.739455,
                "longitude": 151.735661
            },
            "brand": {
                "name": "Coles Supermarkets",
                "storeFinderId": 2,
                "id": "COL"
            }
        },
        {
            "id": "COL:4401",
            "name": "Coles Ballina",
            "phone": "(02) 6618 5500",
            "isTrading": true,
            "address": {
                "state": "NSW",
                "suburb": "Ballina",
                "addressLine": "Fox St & Kerr St",
                "postcode": "2478"
            },
            "position": {
                "latitude": -28.859572,
                "longitude": 153.561172
            },
            "brand": {
                "name": "Coles Supermarkets",
                "storeFinderId": 2,
                "id": "COL"
            }
        },
        {
            "id": "COL:8750",
            "name": "Coles Alstonville",
            "phone": "(02) 6628 5186",
            "isTrading": true,
            "address": {
                "state": "NSW",
                "suburb": "Alstonville",
                "addressLine": "Bruxner Hwy & Mains St",
                "postcode": "2477"
            },
            "position": {
                "latitude": -28.84233,
                "longitude": 153.440626
            },
            "brand": {
                "name": "Coles Supermarkets",
                "storeFinderId": 2,
                "id": "COL"
            }
        },
        {
            "id": "COL:5694",
            "name": "Coles Casino",
            "phone": "(02) 6662 5800",
            "isTrading": true,
            "address": {
                "state": "NSW",
                "suburb": "Casino",
                "addressLine": "Canberbury St & Hickey St",
                "postcode": "2470"
            },
            "position": {
                "latitude": -28.862717,
                "longitude": 153.050343
            },
            "brand": {
                "name": "Coles Supermarkets",
                "storeFinderId": 2,
                "id": "COL"
            }
        },
        {
            "id": "COL:4535",
            "name": "Coles Goonellabah",
            "phone": "(02) 6625 0023",
            "isTrading": true,
            "address": {
                "state": "NSW",
                "suburb": "Goonellabah",
                "addressLine": "44 Oliver Avenue",
                "postcode": "2480"
            },
            "position": {
                "latitude": -28.823521,
                "longitude": 153.325942
            },
            "brand": {
                "name": "Coles Supermarkets",
                "storeFinderId": 2,
                "id": "COL"
            }
        },
        {
            "id": "COL:4477",
            "name": "Coles Lismore",
            "phone": "(02) 5698 3200",
            "isTrading": true,
            "address": {
                "state": "NSW",
                "suburb": "Lismore",
                "addressLine": "Mckenzie St",
                "postcode": "2480"
            },
            "position": {
                "latitude": -28.810276,
                "longitude": 153.2861
            },
            "brand": {
                "name": "Coles Supermarkets",
                "storeFinderId": 2,
                "id": "COL"
            }
        },
        {
            "id": "COL:5695",
            "name": "Coles Tenterfield",
            "phone": "(02) 6736 4922",
            "isTrading": true,
            "address": {
                "state": "NSW",
                "suburb": "Tenterfield",
                "addressLine": "Rouse St & Miles St",
                "postcode": "2372"
            },
            "position": {
                "latitude": -29.056629,
                "longitude": 152.017471
            },
            "brand": {
                "name": "Coles Supermarkets",
                "storeFinderId": 2,
                "id": "COL"
            }
        },
        {
            "id": "COL:4651",
            "name": "Coles Ocean Shores",
            "phone": "(02) 6680 2236",
            "isTrading": true,
            "address": {
                "state": "NSW",
                "suburb": "Ocean Shores",
                "addressLine": "Rajah Rd",
                "postcode": "2483"
            },
            "position": {
                "latitude": -28.524431,
                "longitude": 153.54648
            },
            "brand": {
                "name": "Coles Supermarkets",
                "storeFinderId": 2,
                "id": "COL"
            }
        },
        {
            "id": "COL:4505",
            "name": "Coles Murwillumbah",
            "phone": "(02) 6672 4213",
            "isTrading": true,
            "address": {
                "state": "NSW",
                "suburb": "Murwillumbah",
                "addressLine": "52 - 56 Wollumbin St",
                "postcode": "2484"
            },
            "position": {
                "latitude": -28.328059,
                "longitude": 153.396091
            },
            "brand": {
                "name": "Coles Supermarkets",
                "storeFinderId": 2,
                "id": "COL"
            }
        },
        {
            "id": "COL:4460",
            "name": "Coles Casuarina",
            "phone": "(02) 8398 5900",
            "isTrading": true,
            "address": {
                "state": "NSW",
                "suburb": "Casuarina",
                "addressLine": "482 Tweed Coast Rd",
                "postcode": "2487"
            },
            "position": {
                "latitude": -28.29721,
                "longitude": 153.570242
            },
            "brand": {
                "name": "Coles Supermarkets",
                "storeFinderId": 2,
                "id": "COL"
            }
        },
        {
            "id": "COL:4577",
            "name": "Coles Banora Central",
            "phone": "(07) 5506 3900",
            "isTrading": true,
            "address": {
                "state": "NSW",
                "suburb": "Banora Point",
                "addressLine": "Fraser Drv & Leisure Drv",
                "postcode": "2486"
            },
            "position": {
                "latitude": -28.213609,
                "longitude": 153.521894
            },
            "brand": {
                "name": "Coles Supermarkets",
                "storeFinderId": 2,
                "id": "COL"
            }
        },
        {
            "id": "COL:4459",
            "name": "Coles Tweed City",
            "phone": "(07) 5506 4000",
            "isTrading": true,
            "address": {
                "state": "NSW",
                "suburb": "Tweed Heads South",
                "addressLine": "54 Minjungbal Dr",
                "postcode": "2486"
            },
            "position": {
                "latitude": -28.200224,
                "longitude": 153.546667
            },
            "brand": {
                "name": "Coles Supermarkets",
                "storeFinderId": 2,
                "id": "COL"
            }
        },
        {
            "id": "COL:4474",
            "name": "Coles Tweed Heads",
            "phone": "(07) 5536 3977",
            "isTrading": true,
            "address": {
                "state": "NSW",
                "suburb": "Tweed Heads",
                "addressLine": "Wharf St & Bay Street",
                "postcode": "2485"
            },
            "position": {
                "latitude": -28.173073,
                "longitude": 153.543588
            },
            "brand": {
                "name": "Coles Supermarkets",
                "storeFinderId": 2,
                "id": "COL"
            }
        }
    ]
}