{
    "metadata": {
        "number_of_stores": 178,
        "company": "coles",
        "state": "QLD",
        "date_scraped": "2025-08-07"
    },
    "stores": [
        {
            "id": "COL:5816",
            "name": "Coles Stocktake Service QLDM1",
            "phone": "(03) 8754 6500",
            "isTrading": false,
            "address": {
                "state": "QLD",
                "suburb": "Upper Mt Gravatt",
                "addressLine": "96 Mt Gravatt-Capalaba Rd",
                "postcode": "4122"
            },
            "position": {
                "latitude": -37.88219,
                "longitude": 144.70045
            },
            "brand": {
                "name": "Coles Supermarkets",
                "storeFinderId": 2,
                "id": "COL"
            }
        },
        {
            "id": "COL:5817",
            "name": "Coles Stocktake Service QLDM2",
            "phone": "(03) 8754 6500",
            "isTrading": false,
            "address": {
                "state": "QLD",
                "suburb": "Upper Mt Gravatt",
                "addressLine": "96 Mt Gravatt-Capalaba Rd",
                "postcode": "4122"
            },
            "position": {
                "latitude": -37.88219,
                "longitude": 144.70045
            },
            "brand": {
                "name": "Coles Supermarkets",
                "storeFinderId": 2,
                "id": "COL"
            }
        },
        {
            "id": "COL:4384",
            "name": "Coles Goondiwindi",
            "phone": "(07) 4671 5902",
            "isTrading": true,
            "address": {
                "state": "QLD",
                "suburb": "Goondiwindi",
                "addressLine": "Herbert St & Callandoon St",
                "postcode": "4390"
            },
            "position": {
                "latitude": -28.545735,
                "longitude": 150.304794
            },
            "brand": {
                "name": "Coles Supermarkets",
                "storeFinderId": 2,
                "id": "COL"
            }
        },
        {
            "id": "COL:4490",
            "name": "Coles Dalby",
            "phone": "(07) 4662 1499",
            "isTrading": true,
            "address": {
                "state": "QLD",
                "suburb": "Dalby",
                "addressLine": "New Condamine St & Patrick St",
                "postcode": "4405"
            },
            "position": {
                "latitude": -27.179458,
                "longitude": 151.265549
            },
            "brand": {
                "name": "Coles Supermarkets",
                "storeFinderId": 2,
                "id": "COL"
            }
        },
        {
            "id": "COL:4662",
            "name": "Coles Warwick",
            "phone": "(07) 4542 6800",
            "isTrading": true,
            "address": {
                "state": "QLD",
                "suburb": "Warwick",
                "addressLine": "81 Palmerin Street",
                "postcode": "4370"
            },
            "position": {
                "latitude": -28.215144,
                "longitude": 152.031918
            },
            "brand": {
                "name": "Coles Supermarkets",
                "storeFinderId": 2,
                "id": "COL"
            }
        },
        {
            "id": "COL:4405",
            "name": "Coles The Pines",
            "phone": "(07) 5586 4400",
            "isTrading": true,
            "address": {
                "state": "QLD",
                "suburb": "Elanora",
                "addressLine": "Guineas Ck Rd & Kp Mcgrath Drv",
                "postcode": "4221"
            },
            "position": {
                "latitude": -28.134541,
                "longitude": 153.468174
            },
            "brand": {
                "name": "Coles Supermarkets",
                "storeFinderId": 2,
                "id": "COL"
            }
        },
        {
            "id": "COL:4417",
            "name": "Coles Glenvale",
            "phone": "(07) 4529 5500",
            "isTrading": true,
            "address": {
                "state": "QLD",
                "suburb": "Glenvale",
                "addressLine": "Glenvale Rd & Greenwattle St",
                "postcode": "4350"
            },
            "position": {
                "latitude": -27.564955,
                "longitude": 151.914114
            },
            "brand": {
                "name": "Coles Supermarkets",
                "storeFinderId": 2,
                "id": "COL"
            }
        },
        {
            "id": "COL:4645",
            "name": "Coles Clifford Gardens",
            "phone": "(07) 4615 0500",
            "isTrading": true,
            "address": {
                "state": "QLD",
                "suburb": "Toowoomba",
                "addressLine": "Cnr Anzac Av & James St",
                "postcode": "4350"
            },
            "position": {
                "latitude": -27.565392,
                "longitude": 151.930776
            },
            "brand": {
                "name": "Coles Supermarkets",
                "storeFinderId": 2,
                "id": "COL"
            }
        },
        {
            "id": "COL:4491",
            "name": "Coles Toowoomba South",
            "phone": "(07) 4635 5411",
            "isTrading": true,
            "address": {
                "state": "QLD",
                "suburb": "Toowoomba",
                "addressLine": "Ruthven St & Stenner St",
                "postcode": "4350"
            },
            "position": {
                "latitude": -27.594574,
                "longitude": 151.94834
            },
            "brand": {
                "name": "Coles Supermarkets",
                "storeFinderId": 2,
                "id": "COL"
            }
        },
        {
            "id": "COL:4433",
            "name": "Coles Wilsonton",
            "phone": "(07) 4615 1700",
            "isTrading": true,
            "address": {
                "state": "QLD",
                "suburb": "Wilsonton",
                "addressLine": "Hooper St",
                "postcode": "4350"
            },
            "position": {
                "latitude": -27.542862,
                "longitude": 151.925822
            },
            "brand": {
                "name": "Coles Supermarkets",
                "storeFinderId": 2,
                "id": "COL"
            }
        },
        {
            "id": "COL:4534",
            "name": "Coles Toowoomba Grand Central",
            "phone": "(07) 4632 3422",
            "isTrading": true,
            "address": {
                "state": "QLD",
                "suburb": "Toowoomba City",
                "addressLine": "Margaret St & Clifford St",
                "postcode": "4350"
            },
            "position": {
                "latitude": -27.560891,
                "longitude": 151.947776
            },
            "brand": {
                "name": "Coles Supermarkets",
                "storeFinderId": 2,
                "id": "COL"
            }
        },
        {
            "id": "COL:4658",
            "name": "Coles Toowoomba North",
            "phone": "(07) 4699 5100",
            "isTrading": true,
            "address": {
                "state": "QLD",
                "suburb": "Toowoomba North",
                "addressLine": "Cnr North St & Ruthven St",
                "postcode": "4350"
            },
            "position": {
                "latitude": -27.540886,
                "longitude": 151.953405
            },
            "brand": {
                "name": "Coles Supermarkets",
                "storeFinderId": 2,
                "id": "COL"
            }
        },
        {
            "id": "COL:4452",
            "name": "Coles Highfields",
            "phone": "(07) 4615 5126",
            "isTrading": true,
            "address": {
                "state": "QLD",
                "suburb": "Highfields",
                "addressLine": "1 Plaza Cir",
                "postcode": "4352"
            },
            "position": {
                "latitude": -27.458469,
                "longitude": 151.958534
            },
            "brand": {
                "name": "Coles Supermarkets",
                "storeFinderId": 2,
                "id": "COL"
            }
        },
        {
            "id": "COL:4483",
            "name": "Coles Gatton",
            "phone": "(07) 5462 2622",
            "isTrading": true,
            "address": {
                "state": "QLD",
                "suburb": "Gatton",
                "addressLine": "Anne St & William St",
                "postcode": "4343"
            },
            "position": {
                "latitude": -27.559314,
                "longitude": 152.277398
            },
            "brand": {
                "name": "Coles Supermarkets",
                "storeFinderId": 2,
                "id": "COL"
            }
        },
        {
            "id": "COL:4511",
            "name": "Coles Beaudesert",
            "phone": "(07) 3183 5700",
            "isTrading": true,
            "address": {
                "state": "QLD",
                "suburb": "Beaudesert",
                "addressLine": "Anna St & William St",
                "postcode": "4285"
            },
            "position": {
                "latitude": -27.989533,
                "longitude": 152.998844
            },
            "brand": {
                "name": "Coles Supermarkets",
                "storeFinderId": 2,
                "id": "COL"
            }
        },
        {
            "id": "COL:4597",
            "name": "Coles Mudgeeraba",
            "phone": "(07) 5522 9177",
            "isTrading": true,
            "address": {
                "state": "QLD",
                "suburb": "Mudgeeraba",
                "addressLine": "Railway St & Link Rd",
                "postcode": "4213"
            },
            "position": {
                "latitude": -28.080595,
                "longitude": 153.365189
            },
            "brand": {
                "name": "Coles Supermarkets",
                "storeFinderId": 2,
                "id": "COL"
            }
        },
        {
            "id": "COL:4427",
            "name": "Coles Robina",
            "phone": "(07) 5501 6100",
            "isTrading": true,
            "address": {
                "state": "QLD",
                "suburb": "Robina",
                "addressLine": "Robina Town Centre Drive",
                "postcode": "4230"
            },
            "position": {
                "latitude": -28.079396,
                "longitude": 153.384916
            },
            "brand": {
                "name": "Coles Supermarkets",
                "storeFinderId": 2,
                "id": "COL"
            }
        },
        {
            "id": "COL:7834",
            "name": "Coles Palm Beach",
            "phone": "(07) 5631 1100",
            "isTrading": true,
            "address": {
                "state": "QLD",
                "suburb": "Palm Beach",
                "addressLine": "Gold Coast Highway & Fourth Avenue",
                "postcode": "4221"
            },
            "position": {
                "latitude": -28.122402,
                "longitude": 153.47293
            },
            "brand": {
                "name": "Coles Supermarkets",
                "storeFinderId": 2,
                "id": "COL"
            }
        },
        {
            "id": "COL:4520",
            "name": "Coles Burleigh Waters",
            "phone": "(07) 5669 7400",
            "isTrading": true,
            "address": {
                "state": "QLD",
                "suburb": "Burleigh Waters",
                "addressLine": "Bermuda St & Reedy Creek Rd",
                "postcode": "4220"
            },
            "position": {
                "latitude": -28.099602,
                "longitude": 153.424532
            },
            "brand": {
                "name": "Coles Supermarkets",
                "storeFinderId": 2,
                "id": "COL"
            }
        },
        {
            "id": "COL:7687",
            "name": "Coles Varsity",
            "phone": null,
            "isTrading": false,
            "address": {
                "state": "QLD",
                "suburb": "Varsity Lakes",
                "addressLine": "1 Bellvue Drive",
                "postcode": "4227"
            },
            "position": {
                "latitude": -28.079374,
                "longitude": 153.408691
            },
            "brand": {
                "name": "Coles Supermarkets",
                "storeFinderId": 2,
                "id": "COL"
            }
        },
        {
            "id": "COL:4583",
            "name": "Coles Miami",
            "phone": "(07) 5535 2188",
            "isTrading": true,
            "address": {
                "state": "QLD",
                "suburb": "Miami",
                "addressLine": "Nundah Ave & Gold Coast Hwy",
                "postcode": "4220"
            },
            "position": {
                "latitude": -28.073796,
                "longitude": 153.444178
            },
            "brand": {
                "name": "Coles Supermarkets",
                "storeFinderId": 2,
                "id": "COL"
            }
        },
        {
            "id": "COL:8741",
            "name": "Coles Mermaid Waters",
            "phone": "(07) 5554 0200",
            "isTrading": true,
            "address": {
                "state": "QLD",
                "suburb": "Mermaid Waters",
                "addressLine": "Bermuda St & Markeri St",
                "postcode": "4218"
            },
            "position": {
                "latitude": -28.046002,
                "longitude": 153.407563
            },
            "brand": {
                "name": "Coles Supermarkets",
                "storeFinderId": 2,
                "id": "COL"
            }
        },
        {
            "id": "COL:4089",
            "name": "Coles Yamanto",
            "phone": "(07) 3173 6500",
            "isTrading": true,
            "address": {
                "state": "QLD",
                "suburb": "Yamanto",
                "addressLine": "Cnr Warwick Rd & Pasasale Dr",
                "postcode": "4305"
            },
            "position": {
                "latitude": -27.660686,
                "longitude": 152.742057
            },
            "brand": {
                "name": "Coles Supermarkets",
                "storeFinderId": 2,
                "id": "COL"
            }
        },
        {
            "id": "COL:4596",
            "name": "Coles Ipswich Riverlink",
            "phone": "(07) 2890 2100",
            "isTrading": true,
            "address": {
                "state": "QLD",
                "suburb": "North Ipswich",
                "addressLine": "The Terrace",
                "postcode": "4305"
            },
            "position": {
                "latitude": -27.608109,
                "longitude": 152.757578
            },
            "brand": {
                "name": "Coles Supermarkets",
                "storeFinderId": 2,
                "id": "COL"
            }
        },
        {
            "id": "COL:4566",
            "name": "Coles Ipswich",
            "phone": "(07) 3810 0100",
            "isTrading": true,
            "address": {
                "state": "QLD",
                "suburb": "Ipswich",
                "addressLine": "Cnr Brisbane St & Gordon St",
                "postcode": "4305"
            },
            "position": {
                "latitude": -27.615421,
                "longitude": 152.76178
            },
            "brand": {
                "name": "Coles Supermarkets",
                "storeFinderId": 2,
                "id": "COL"
            }
        },
        {
            "id": "COL:4667",
            "name": "Coles Ripley Town Centre",
            "phone": "(07) 3894 8700",
            "isTrading": true,
            "address": {
                "state": "QLD",
                "suburb": "Ripley",
                "addressLine": "Ripley Road",
                "postcode": "4306"
            },
            "position": {
                "latitude": -27.681325,
                "longitude": 152.799036
            },
            "brand": {
                "name": "Coles Supermarkets",
                "storeFinderId": 2,
                "id": "COL"
            }
        },
        {
            "id": "COL:4782",
            "name": "Coles Silkstone Village",
            "phone": "(07) 3069 5600",
            "isTrading": true,
            "address": {
                "state": "QLD",
                "suburb": "Newtown",
                "addressLine": "83/81 Blackstone Rd",
                "postcode": "4304"
            },
            "position": {
                "latitude": -27.620616,
                "longitude": 152.779784
            },
            "brand": {
                "name": "Coles Supermarkets",
                "storeFinderId": 2,
                "id": "COL"
            }
        },
        {
            "id": "COL:4565",
            "name": "Coles Karalee",
            "phone": "(07) 3413 2500",
            "isTrading": true,
            "address": {
                "state": "QLD",
                "suburb": "Karalee",
                "addressLine": "1-17 Enterprise Cl & 39-51 Junction Rd",
                "postcode": "4306"
            },
            "position": {
                "latitude": -27.57097,
                "longitude": 152.79771
            },
            "brand": {
                "name": "Coles Supermarkets",
                "storeFinderId": 2,
                "id": "COL"
            }
        },
        {
            "id": "COL:4090",
            "name": "Coles Flagstone",
            "phone": "(07) 3183 5600",
            "isTrading": true,
            "address": {
                "state": "QLD",
                "suburb": "Flagstone",
                "addressLine": "6 Gates Rd",
                "postcode": "4280"
            },
            "position": {
                "latitude": -27.809317,
                "longitude": 152.949639
            },
            "brand": {
                "name": "Coles Supermarkets",
                "storeFinderId": 2,
                "id": "COL"
            }
        },
        {
            "id": "COL:4783",
            "name": "Coles Redbank Plains",
            "phone": "(07) 3201 9300",
            "isTrading": true,
            "address": {
                "state": "QLD",
                "suburb": "Redbank Plains",
                "addressLine": "393 Redbank Plains Rd",
                "postcode": "4301"
            },
            "position": {
                "latitude": -27.645939,
                "longitude": 152.87102
            },
            "brand": {
                "name": "Coles Supermarkets",
                "storeFinderId": 2,
                "id": "COL"
            }
        },
        {
            "id": "COL:4453",
            "name": "Coles Jimboomba",
            "phone": "(07) 5547 9100",
            "isTrading": true,
            "address": {
                "state": "QLD",
                "suburb": "Jimboomba",
                "addressLine": "665 - 687 Cusack Ln",
                "postcode": "4280"
            },
            "position": {
                "latitude": -27.831851,
                "longitude": 153.026331
            },
            "brand": {
                "name": "Coles Supermarkets",
                "storeFinderId": 2,
                "id": "COL"
            }
        },
        {
            "id": "COL:4666",
            "name": "Coles Springfield Orion",
            "phone": "(07) 3470 3100",
            "isTrading": true,
            "address": {
                "state": "QLD",
                "suburb": "Springfield Central",
                "addressLine": "1 Main Street",
                "postcode": "4300"
            },
            "position": {
                "latitude": -27.67695,
                "longitude": 152.900827
            },
            "brand": {
                "name": "Coles Supermarkets",
                "storeFinderId": 2,
                "id": "COL"
            }
        },
        {
            "id": "COL:4572",
            "name": "Coles Worongary",
            "phone": "(07) 5525 1600",
            "isTrading": true,
            "address": {
                "state": "QLD",
                "suburb": "Worongary",
                "addressLine": "1 Mudgeeraba Rd",
                "postcode": "4213"
            },
            "position": {
                "latitude": -28.049353,
                "longitude": 153.353855
            },
            "brand": {
                "name": "Coles Supermarkets",
                "storeFinderId": 2,
                "id": "COL"
            }
        },
        {
            "id": "COL:4560",
            "name": "Coles Nerang Fair",
            "phone": "(07) 5672 0100",
            "isTrading": true,
            "address": {
                "state": "QLD",
                "suburb": "Nerang",
                "addressLine": "74 - 98  Beaudesert-Nerang Rd",
                "postcode": "4211"
            },
            "position": {
                "latitude": -27.993861,
                "longitude": 153.331722
            },
            "brand": {
                "name": "Coles Supermarkets",
                "storeFinderId": 2,
                "id": "COL"
            }
        },
        {
            "id": "COL:4501",
            "name": "Coles Nerang",
            "phone": "(07) 5699 0800",
            "isTrading": true,
            "address": {
                "state": "QLD",
                "suburb": "Nerang",
                "addressLine": "Station St & Cayuga Rd",
                "postcode": "4211"
            },
            "position": {
                "latitude": -27.998022,
                "longitude": 153.338097
            },
            "brand": {
                "name": "Coles Supermarkets",
                "storeFinderId": 2,
                "id": "COL"
            }
        },
        {
            "id": "COL:4368",
            "name": "Coles Pacific Fair",
            "phone": "(07) 5504 3400",
            "isTrading": true,
            "address": {
                "state": "QLD",
                "suburb": "Broadbeach Waters",
                "addressLine": "Hooker Blvd",
                "postcode": "4218"
            },
            "position": {
                "latitude": -28.037515,
                "longitude": 153.426517
            },
            "brand": {
                "name": "Coles Supermarkets",
                "storeFinderId": 2,
                "id": "COL"
            }
        },
        {
            "id": "COL:8739",
            "name": "Coles Benowa",
            "phone": "(07) 5597 8600",
            "isTrading": true,
            "address": {
                "state": "QLD",
                "suburb": "Benowa",
                "addressLine": "Benowa Rd & Ashmore Rd",
                "postcode": "4217"
            },
            "position": {
                "latitude": -28.009152,
                "longitude": 153.391879
            },
            "brand": {
                "name": "Coles Supermarkets",
                "storeFinderId": 2,
                "id": "COL"
            }
        },
        {
            "id": "COL:4554",
            "name": "Coles Surfers Paradise",
            "phone": "(07) 5538 1466",
            "isTrading": true,
            "address": {
                "state": "QLD",
                "suburb": "Surfers Paradise",
                "addressLine": "Gold Coast Hwy & Elkhorn Ave",
                "postcode": "4217"
            },
            "position": {
                "latitude": -27.999568,
                "longitude": 153.427935
            },
            "brand": {
                "name": "Coles Supermarkets",
                "storeFinderId": 2,
                "id": "COL"
            }
        },
        {
            "id": "COL:4541",
            "name": "Coles Emerald",
            "phone": "(07) 4980 8100",
            "isTrading": true,
            "address": {
                "state": "QLD",
                "suburb": "Emerald",
                "addressLine": "Clermont St & Opal St",
                "postcode": "4720"
            },
            "position": {
                "latitude": -23.528279,
                "longitude": 148.163429
            },
            "brand": {
                "name": "Coles Supermarkets",
                "storeFinderId": 2,
                "id": "COL"
            }
        },
        {
            "id": "COL:4504",
            "name": "Coles Redbank",
            "phone": "(07) 3436 0400",
            "isTrading": true,
            "address": {
                "state": "QLD",
                "suburb": "Redbank",
                "addressLine": "1 Collingwood Park Drv",
                "postcode": "4301"
            },
            "position": {
                "latitude": -27.605131,
                "longitude": 152.86832
            },
            "brand": {
                "name": "Coles Supermarkets",
                "storeFinderId": 2,
                "id": "COL"
            }
        },
        {
            "id": "COL:4652",
            "name": "Coles Moggill",
            "phone": "(07) 3173 6700",
            "isTrading": true,
            "address": {
                "state": "QLD",
                "suburb": "Moggill",
                "addressLine": "Moggill Rd",
                "postcode": "4070"
            },
            "position": {
                "latitude": -27.570467,
                "longitude": 152.875802
            },
            "brand": {
                "name": "Coles Supermarkets",
                "storeFinderId": 2,
                "id": "COL"
            }
        },
        {
            "id": "COL:4533",
            "name": "Coles Springfield",
            "phone": "(07) 3894 2700",
            "isTrading": true,
            "address": {
                "state": "QLD",
                "suburb": "Springfield",
                "addressLine": "Springfield Pkwy & Topaz Rd",
                "postcode": "4300"
            },
            "position": {
                "latitude": -27.653133,
                "longitude": 152.918076
            },
            "brand": {
                "name": "Coles Supermarkets",
                "storeFinderId": 2,
                "id": "COL"
            }
        },
        {
            "id": "COL:4557",
            "name": "Coles Middle Park",
            "phone": "(07) 3723 3800",
            "isTrading": true,
            "address": {
                "state": "QLD",
                "suburb": "Middle Park",
                "addressLine": "92 Horizon Dr",
                "postcode": "4074"
            },
            "position": {
                "latitude": -27.555187,
                "longitude": 152.922543
            },
            "brand": {
                "name": "Coles Supermarkets",
                "storeFinderId": 2,
                "id": "COL"
            }
        },
        {
            "id": "COL:4421",
            "name": "Coles Forest Lake",
            "phone": "(07) 3714 2500",
            "isTrading": true,
            "address": {
                "state": "QLD",
                "suburb": "Forest Lake",
                "addressLine": "235 Forest Lake Bvd",
                "postcode": "4078"
            },
            "position": {
                "latitude": -27.624702,
                "longitude": 152.969815
            },
            "brand": {
                "name": "Coles Supermarkets",
                "storeFinderId": 2,
                "id": "COL"
            }
        },
        {
            "id": "COL:4412",
            "name": "Coles Mount Ommaney",
            "phone": "(07) 3725 7200",
            "isTrading": true,
            "address": {
                "state": "QLD",
                "suburb": "Mount Ommaney",
                "addressLine": "171 Dandenong Rd",
                "postcode": "4074"
            },
            "position": {
                "latitude": -27.550758,
                "longitude": 152.939118
            },
            "brand": {
                "name": "Coles Supermarkets",
                "storeFinderId": 2,
                "id": "COL"
            }
        },
        {
            "id": "COL:4784",
            "name": "Coles Yarrabilba",
            "phone": "(07) 3118 8400",
            "isTrading": true,
            "address": {
                "state": "QLD",
                "suburb": "Yarrabilba",
                "addressLine": "Cnr Yarrabilba And Darlington Drive",
                "postcode": "4207"
            },
            "position": {
                "latitude": -27.802445,
                "longitude": 153.102325
            },
            "brand": {
                "name": "Coles Supermarkets",
                "storeFinderId": 2,
                "id": "COL"
            }
        },
        {
            "id": "COL:4424",
            "name": "Coles Park Ridge",
            "phone": "(07) 3380 4800",
            "isTrading": true,
            "address": {
                "state": "QLD",
                "suburb": "Park Ridge",
                "addressLine": "Mount Lindsey Highway And Park Ridge Rd",
                "postcode": "4125"
            },
            "position": {
                "latitude": -27.696806,
                "longitude": 153.039039
            },
            "brand": {
                "name": "Coles Supermarkets",
                "storeFinderId": 2,
                "id": "COL"
            }
        },
        {
            "id": "COL:4390",
            "name": "Coles Benowa Village",
            "phone": "(07) 5510 7500",
            "isTrading": true,
            "address": {
                "state": "QLD",
                "suburb": "Benowa",
                "addressLine": "11 Ross Street",
                "postcode": "4217"
            },
            "position": {
                "latitude": -27.999839,
                "longitude": 153.376973
            },
            "brand": {
                "name": "Coles Supermarkets",
                "storeFinderId": 2,
                "id": "COL"
            }
        },
        {
            "id": "COL:4663",
            "name": "Coles Pacific Pines",
            "phone": "(07) 5644 1300",
            "isTrading": true,
            "address": {
                "state": "QLD",
                "suburb": "Pacific Pines",
                "addressLine": "Norris Street",
                "postcode": "4211"
            },
            "position": {
                "latitude": -27.925011,
                "longitude": 153.305366
            },
            "brand": {
                "name": "Coles Supermarkets",
                "storeFinderId": 2,
                "id": "COL"
            }
        },
        {
            "id": "COL:8737",
            "name": "Coles Upper Coomera Village",
            "phone": "(07) 5561 8311",
            "isTrading": true,
            "address": {
                "state": "QLD",
                "suburb": "Upper Coomera",
                "addressLine": "Tamborine Oxenford Rd & Reserve Rd",
                "postcode": "4209"
            },
            "position": {
                "latitude": -27.900032,
                "longitude": 153.284003
            },
            "brand": {
                "name": "Coles Supermarkets",
                "storeFinderId": 2,
                "id": "COL"
            }
        },
        {
            "id": "COL:4653",
            "name": "Coles Southport Park",
            "phone": "(07) 5635 5200",
            "isTrading": true,
            "address": {
                "state": "QLD",
                "suburb": "Southport",
                "addressLine": "163 Ferry Road",
                "postcode": "4215"
            },
            "position": {
                "latitude": -27.986038,
                "longitude": 153.411234
            },
            "brand": {
                "name": "Coles Supermarkets",
                "storeFinderId": 2,
                "id": "COL"
            }
        },
        {
            "id": "COL:4515",
            "name": "Coles Kenmore",
            "phone": "(07) 3110 5400",
            "isTrading": true,
            "address": {
                "state": "QLD",
                "suburb": "Kenmore",
                "addressLine": "Brookfield Rd",
                "postcode": "4069"
            },
            "position": {
                "latitude": -27.506316,
                "longitude": 152.938354
            },
            "brand": {
                "name": "Coles Supermarkets",
                "storeFinderId": 2,
                "id": "COL"
            }
        },
        {
            "id": "COL:8714",
            "name": "Coles Jindalee",
            "phone": "(07) 3173 6600",
            "isTrading": true,
            "address": {
                "state": "QLD",
                "suburb": "Jindalee",
                "addressLine": "Sinnamon Rd",
                "postcode": "4074"
            },
            "position": {
                "latitude": -27.533296,
                "longitude": 152.947734
            },
            "brand": {
                "name": "Coles Supermarkets",
                "storeFinderId": 2,
                "id": "COL"
            }
        },
        {
            "id": "COL:4525",
            "name": "Coles Browns Plains",
            "phone": "(07) 3809 3344",
            "isTrading": true,
            "address": {
                "state": "QLD",
                "suburb": "Browns Plains",
                "addressLine": "Mt Lindesay Hwy & Browns Plains Rd",
                "postcode": "4118"
            },
            "position": {
                "latitude": -27.662146,
                "longitude": 153.039772
            },
            "brand": {
                "name": "Coles Supermarkets",
                "storeFinderId": 2,
                "id": "COL"
            }
        },
        {
            "id": "COL:5559",
            "name": "Coles Pallara",
            "phone": "(07) 2114 3500",
            "isTrading": true,
            "address": {
                "state": "QLD",
                "suburb": "Pallara",
                "addressLine": "201 Gooderham Road",
                "postcode": "4110"
            },
            "position": {
                "latitude": -27.60736,
                "longitude": 153.01124
            },
            "brand": {
                "name": "Coles Supermarkets",
                "storeFinderId": 2,
                "id": "COL"
            }
        },
        {
            "id": "COL:4502",
            "name": "Coles Marsden",
            "phone": "(07) 2105 0400",
            "isTrading": true,
            "address": {
                "state": "QLD",
                "suburb": "Marsden",
                "addressLine": "Chambers Flat Rd",
                "postcode": "4132"
            },
            "position": {
                "latitude": -27.678974,
                "longitude": 153.114612
            },
            "brand": {
                "name": "Coles Supermarkets",
                "storeFinderId": 2,
                "id": "COL"
            }
        },
        {
            "id": "COL:8757",
            "name": "Coles Waterford",
            "phone": "(07) 2889 6200",
            "isTrading": true,
            "address": {
                "state": "QLD",
                "suburb": "Waterford",
                "addressLine": "Kingston Rd & Tygum Rd",
                "postcode": "4133"
            },
            "position": {
                "latitude": -27.692687,
                "longitude": 153.134792
            },
            "brand": {
                "name": "Coles Supermarkets",
                "storeFinderId": 2,
                "id": "COL"
            }
        },
        {
            "id": "COL:4671",
            "name": "Coles Sunnybank Hills",
            "phone": "(07) 3712 5600",
            "isTrading": true,
            "address": {
                "state": "QLD",
                "suburb": "Sunnybank Hills",
                "addressLine": "Compton Rd & Calam Rd",
                "postcode": "4109"
            },
            "position": {
                "latitude": -27.611238,
                "longitude": 153.055551
            },
            "brand": {
                "name": "Coles Supermarkets",
                "storeFinderId": 2,
                "id": "COL"
            }
        },
        {
            "id": "COL:8732",
            "name": "Coles Helensvale Plaza",
            "phone": "(07) 5580 7300",
            "isTrading": true,
            "address": {
                "state": "QLD",
                "suburb": "Helensvale",
                "addressLine": "Gold Coast Hwy",
                "postcode": "4212"
            },
            "position": {
                "latitude": -27.923665,
                "longitude": 153.334476
            },
            "brand": {
                "name": "Coles Supermarkets",
                "storeFinderId": 2,
                "id": "COL"
            }
        },
        {
            "id": "COL:4576",
            "name": "Coles Upper Coomera",
            "phone": "(07) 5500 0256",
            "isTrading": true,
            "address": {
                "state": "QLD",
                "suburb": "Upper Coomera",
                "addressLine": "72 Reserve Rd",
                "postcode": "4209"
            },
            "position": {
                "latitude": -27.869582,
                "longitude": 153.305545
            },
            "brand": {
                "name": "Coles Supermarkets",
                "storeFinderId": 2,
                "id": "COL"
            }
        },
        {
            "id": "COL:4584",
            "name": "Coles Helensvale",
            "phone": "(07) 5514 3000",
            "isTrading": true,
            "address": {
                "state": "QLD",
                "suburb": "Helensvale",
                "addressLine": "Gold Coast Hwy & Town Centre Drv",
                "postcode": "4212"
            },
            "position": {
                "latitude": -27.925732,
                "longitude": 153.336912
            },
            "brand": {
                "name": "Coles Supermarkets",
                "storeFinderId": 2,
                "id": "COL"
            }
        },
        {
            "id": "COL:4669",
            "name": "Coles Coomera City Centre",
            "phone": "(07) 5680 9400",
            "isTrading": true,
            "address": {
                "state": "QLD",
                "suburb": "Upper Coomera",
                "addressLine": "1 City Centre Dr",
                "postcode": "4209"
            },
            "position": {
                "latitude": -27.851378,
                "longitude": 153.300593
            },
            "brand": {
                "name": "Coles Supermarkets",
                "storeFinderId": 2,
                "id": "COL"
            }
        },
        {
            "id": "COL:4555",
            "name": "Coles Arundel",
            "phone": "(07) 5699 0700",
            "isTrading": true,
            "address": {
                "state": "QLD",
                "suburb": "Arundel",
                "addressLine": "Daintree Dr & Napper Rd",
                "postcode": "4214"
            },
            "position": {
                "latitude": -27.947296,
                "longitude": 153.352202
            },
            "brand": {
                "name": "Coles Supermarkets",
                "storeFinderId": 2,
                "id": "COL"
            }
        },
        {
            "id": "COL:4383",
            "name": "Coles Coomera Westfield",
            "phone": "(07) 5605 8700",
            "isTrading": true,
            "address": {
                "state": "QLD",
                "suburb": "Coomera",
                "addressLine": "Foxwell Rd",
                "postcode": "4209"
            },
            "position": {
                "latitude": -27.853923,
                "longitude": 153.316041
            },
            "brand": {
                "name": "Coles Supermarkets",
                "storeFinderId": 2,
                "id": "COL"
            }
        },
        {
            "id": "COL:4835",
            "name": "Coles Pimpama City Shopping Centre",
            "phone": "(07) 5645 3800",
            "isTrading": true,
            "address": {
                "state": "QLD",
                "suburb": "Pimpama",
                "addressLine": "119 Pimpama Jacobs Well Road",
                "postcode": "4209"
            },
            "position": {
                "latitude": -27.813561,
                "longitude": 153.292501
            },
            "brand": {
                "name": "Coles Supermarkets",
                "storeFinderId": 2,
                "id": "COL"
            }
        },
        {
            "id": "COL:4437",
            "name": "Coles Ormeau Village",
            "phone": "(07) 5645 1200",
            "isTrading": true,
            "address": {
                "state": "QLD",
                "suburb": "Ormeau",
                "addressLine": "49 Eggersdorf Rd",
                "postcode": "4208"
            },
            "position": {
                "latitude": -27.783545,
                "longitude": 153.260373
            },
            "brand": {
                "name": "Coles Supermarkets",
                "storeFinderId": 2,
                "id": "COL"
            }
        },
        {
            "id": "COL:4418",
            "name": "Coles Hope Island",
            "phone": "(07) 5510 8566",
            "isTrading": true,
            "address": {
                "state": "QLD",
                "suburb": "Hope Island",
                "addressLine": "Santa Barbara Rd",
                "postcode": "4212"
            },
            "position": {
                "latitude": -27.867632,
                "longitude": 153.350018
            },
            "brand": {
                "name": "Coles Supermarkets",
                "storeFinderId": 2,
                "id": "COL"
            }
        },
        {
            "id": "COL:8736",
            "name": "Coles Ormeau",
            "phone": "(07) 5645 1500",
            "isTrading": true,
            "address": {
                "state": "QLD",
                "suburb": "Ormeau",
                "addressLine": "180 - 186 Pascoe Rd",
                "postcode": "4208"
            },
            "position": {
                "latitude": -27.763632,
                "longitude": 153.244094
            },
            "brand": {
                "name": "Coles Supermarkets",
                "storeFinderId": 2,
                "id": "COL"
            }
        },
        {
            "id": "COL:4446",
            "name": "Coles Labrador",
            "phone": "(07) 5672 8600",
            "isTrading": true,
            "address": {
                "state": "QLD",
                "suburb": "Labrador",
                "addressLine": "100 Brisbane Rd",
                "postcode": "4215"
            },
            "position": {
                "latitude": -27.936274,
                "longitude": 153.397209
            },
            "brand": {
                "name": "Coles Supermarkets",
                "storeFinderId": 2,
                "id": "COL"
            }
        },
        {
            "id": "COL:4388",
            "name": "Coles Mount Warren Park",
            "phone": "(07) 3382 0122",
            "isTrading": true,
            "address": {
                "state": "QLD",
                "suburb": "Mount Warren Park",
                "addressLine": "23 - 30 Mt Warren Blvd",
                "postcode": "4207"
            },
            "position": {
                "latitude": -27.72343,
                "longitude": 153.196633
            },
            "brand": {
                "name": "Coles Supermarkets",
                "storeFinderId": 2,
                "id": "COL"
            }
        },
        {
            "id": "COL:4530",
            "name": "Coles Runaway Bay",
            "phone": "(07) 5537 2344",
            "isTrading": true,
            "address": {
                "state": "QLD",
                "suburb": "Runaway Bay",
                "addressLine": "Lae Drv & Morala Av",
                "postcode": "4216"
            },
            "position": {
                "latitude": -27.913696,
                "longitude": 153.400292
            },
            "brand": {
                "name": "Coles Supermarkets",
                "storeFinderId": 2,
                "id": "COL"
            }
        },
        {
            "id": "COL:4500",
            "name": "Coles Australia Fair",
            "phone": "(07) 5668 4900",
            "isTrading": true,
            "address": {
                "state": "QLD",
                "suburb": "Southport",
                "addressLine": "223-225 Scarborough St",
                "postcode": "4215"
            },
            "position": {
                "latitude": -27.969135,
                "longitude": 153.415268
            },
            "brand": {
                "name": "Coles Supermarkets",
                "storeFinderId": 2,
                "id": "COL"
            }
        },
        {
            "id": "COL:4487",
            "name": "Coles Mount Isa",
            "phone": "(07) 4437 1100",
            "isTrading": true,
            "address": {
                "state": "QLD",
                "suburb": "Mount Isa",
                "addressLine": "Simpson St & Marian St",
                "postcode": "4825"
            },
            "position": {
                "latitude": -20.726005,
                "longitude": 139.494411
            },
            "brand": {
                "name": "Coles Supermarkets",
                "storeFinderId": 2,
                "id": "COL"
            }
        },
        {
            "id": "COL:4503",
            "name": "Coles Moranbah",
            "phone": "(07) 4941 8888",
            "isTrading": true,
            "address": {
                "state": "QLD",
                "suburb": "Moranbah",
                "addressLine": "Griffin Street",
                "postcode": "4744"
            },
            "position": {
                "latitude": -22.00099,
                "longitude": 148.043099
            },
            "brand": {
                "name": "Coles Supermarkets",
                "storeFinderId": 2,
                "id": "COL"
            }
        },
        {
            "id": "COL:4518",
            "name": "Coles Rockhampton South",
            "phone": "(07) 4927 8344",
            "isTrading": true,
            "address": {
                "state": "QLD",
                "suburb": "Rockhampton",
                "addressLine": "Fitzroy St & Bolsover St",
                "postcode": "4700"
            },
            "position": {
                "latitude": -23.377172,
                "longitude": 150.509802
            },
            "brand": {
                "name": "Coles Supermarkets",
                "storeFinderId": 2,
                "id": "COL"
            }
        },
        {
            "id": "COL:4455",
            "name": "Coles Rockhampton North",
            "phone": "(07) 4930 8400",
            "isTrading": true,
            "address": {
                "state": "QLD",
                "suburb": "Rockhampton",
                "addressLine": "249 Musgrave St",
                "postcode": "4701"
            },
            "position": {
                "latitude": -23.356489,
                "longitude": 150.522542
            },
            "brand": {
                "name": "Coles Supermarkets",
                "storeFinderId": 2,
                "id": "COL"
            }
        },
        {
            "id": "COL:4440",
            "name": "Coles Gympie",
            "phone": "(07) 5482 4377",
            "isTrading": true,
            "address": {
                "state": "QLD",
                "suburb": "Gympie",
                "addressLine": "Monkland St & Nash St",
                "postcode": "4570"
            },
            "position": {
                "latitude": -26.188037,
                "longitude": 152.661451
            },
            "brand": {
                "name": "Coles Supermarkets",
                "storeFinderId": 2,
                "id": "COL"
            }
        },
        {
            "id": "COL:8712",
            "name": "Coles Ferny Grove",
            "phone": "(07) 3120 8200",
            "isTrading": true,
            "address": {
                "state": "QLD",
                "suburb": "Ferny Grove",
                "addressLine": "45-47 Mcginn Road",
                "postcode": "4055"
            },
            "position": {
                "latitude": -27.404878,
                "longitude": 152.931228
            },
            "brand": {
                "name": "Coles Supermarkets",
                "storeFinderId": 2,
                "id": "COL"
            }
        },
        {
            "id": "COL:4506",
            "name": "Coles The Gap",
            "phone": "(07) 3110 3600",
            "isTrading": true,
            "address": {
                "state": "QLD",
                "suburb": "The Gap",
                "addressLine": "1000 Waterworks Rd",
                "postcode": "4061"
            },
            "position": {
                "latitude": -27.445674,
                "longitude": 152.952426
            },
            "brand": {
                "name": "Coles Supermarkets",
                "storeFinderId": 2,
                "id": "COL"
            }
        },
        {
            "id": "COL:4492",
            "name": "Coles Arana Hills",
            "phone": "(07) 3333 8200",
            "isTrading": true,
            "address": {
                "state": "QLD",
                "suburb": "Arana Hills",
                "addressLine": "Patricks Rd & Dawson Pde",
                "postcode": "4054"
            },
            "position": {
                "latitude": -27.399186,
                "longitude": 152.958408
            },
            "brand": {
                "name": "Coles Supermarkets",
                "storeFinderId": 2,
                "id": "COL"
            }
        },
        {
            "id": "COL:4660",
            "name": "Coles Indooroopilly",
            "phone": "(07) 3720 3400",
            "isTrading": true,
            "address": {
                "state": "QLD",
                "suburb": "Indooroopilly",
                "addressLine": "Moggill Rd",
                "postcode": "4068"
            },
            "position": {
                "latitude": -27.499067,
                "longitude": 152.973333
            },
            "brand": {
                "name": "Coles Supermarkets",
                "storeFinderId": 2,
                "id": "COL"
            }
        },
        {
            "id": "COL:4694",
            "name": "Coles Local Taringa",
            "phone": "(07) 2106 4400",
            "isTrading": true,
            "address": {
                "state": "QLD",
                "suburb": "Taringa",
                "addressLine": "216 Moggill Road",
                "postcode": "4068"
            },
            "position": {
                "latitude": -27.493368,
                "longitude": 152.978211
            },
            "brand": {
                "name": "Coles Supermarkets",
                "storeFinderId": 2,
                "id": "COL"
            }
        },
        {
            "id": "COL:4495",
            "name": "Coles Corinda",
            "phone": "(07) 3379 8199",
            "isTrading": true,
            "address": {
                "state": "QLD",
                "suburb": "Corinda",
                "addressLine": "Oxley Rd & Clewley St",
                "postcode": "4075"
            },
            "position": {
                "latitude": -27.538774,
                "longitude": 152.981966
            },
            "brand": {
                "name": "Coles Supermarkets",
                "storeFinderId": 2,
                "id": "COL"
            }
        },
        {
            "id": "COL:4508",
            "name": "Coles Toowong",
            "phone": "(07) 3335 4600",
            "isTrading": true,
            "address": {
                "state": "QLD",
                "suburb": "Toowong",
                "addressLine": "Sherwood Rd",
                "postcode": "4066"
            },
            "position": {
                "latitude": -27.484793,
                "longitude": 152.99276
            },
            "brand": {
                "name": "Coles Supermarkets",
                "storeFinderId": 2,
                "id": "COL"
            }
        },
        {
            "id": "COL:4430",
            "name": "Coles Brookside",
            "phone": "(07) 3513 9200",
            "isTrading": true,
            "address": {
                "state": "QLD",
                "suburb": "Mitchelton",
                "addressLine": "Osborne Rd",
                "postcode": "4053"
            },
            "position": {
                "latitude": -27.408936,
                "longitude": 152.980225
            },
            "brand": {
                "name": "Coles Supermarkets",
                "storeFinderId": 2,
                "id": "COL"
            }
        },
        {
            "id": "COL:4512",
            "name": "Coles Fairfield Gardens - Brisbane",
            "phone": "(07) 3214 6500",
            "isTrading": true,
            "address": {
                "state": "QLD",
                "suburb": "Fairfield",
                "addressLine": "Fairfield Rd & Brougham St",
                "postcode": "4103"
            },
            "position": {
                "latitude": -27.509002,
                "longitude": 153.025143
            },
            "brand": {
                "name": "Coles Supermarkets",
                "storeFinderId": 2,
                "id": "COL"
            }
        },
        {
            "id": "COL:4553",
            "name": "Coles West End",
            "phone": "(07) 2105 0300",
            "isTrading": true,
            "address": {
                "state": "QLD",
                "suburb": "West End",
                "addressLine": "Mollison St & Boundary Rd",
                "postcode": "4101"
            },
            "position": {
                "latitude": -27.476585,
                "longitude": 153.011324
            },
            "brand": {
                "name": "Coles Supermarkets",
                "storeFinderId": 2,
                "id": "COL"
            }
        },
        {
            "id": "COL:4571",
            "name": "Coles Local Woolloongabba",
            "phone": "(07) 2889 1200",
            "isTrading": true,
            "address": {
                "state": "QLD",
                "suburb": "Woolloongabba",
                "addressLine": "795 Stanley St",
                "postcode": "4102"
            },
            "position": {
                "latitude": -27.486774,
                "longitude": 153.034937
            },
            "brand": {
                "name": "Coles Supermarkets",
                "storeFinderId": 2,
                "id": "COL"
            }
        },
        {
            "id": "COL:7588",
            "name": "Coles Milton Village",
            "phone": null,
            "isTrading": false,
            "address": {
                "state": "QLD",
                "suburb": "Milton",
                "addressLine": "36 Baroona Road",
                "postcode": "4064"
            },
            "position": {
                "latitude": -27.46876,
                "longitude": 153.002457
            },
            "brand": {
                "name": "Coles Supermarkets",
                "storeFinderId": 2,
                "id": "COL"
            }
        },
        {
            "id": "COL:4564",
            "name": "Coles Central Brisbane Myer Express",
            "phone": "(07) 3211 9393",
            "isTrading": true,
            "address": {
                "state": "QLD",
                "suburb": "Brisbane",
                "addressLine": "Level E Elizabeth St",
                "postcode": "4000"
            },
            "position": {
                "latitude": -27.470814,
                "longitude": 153.02455
            },
            "brand": {
                "name": "Coles Supermarkets",
                "storeFinderId": 2,
                "id": "COL"
            }
        },
        {
            "id": "COL:4461",
            "name": "Coles Petrie Terrace",
            "phone": "(07) 3367 9600",
            "isTrading": true,
            "address": {
                "state": "QLD",
                "suburb": "Petrie Terrace",
                "addressLine": "Petrie Tce",
                "postcode": "4000"
            },
            "position": {
                "latitude": -27.46522,
                "longitude": 153.013021
            },
            "brand": {
                "name": "Coles Supermarkets",
                "storeFinderId": 2,
                "id": "COL"
            }
        },
        {
            "id": "COL:4334",
            "name": "Coles Local Brisbane - Adelaide St",
            "phone": "(07) 2890 1600",
            "isTrading": true,
            "address": {
                "state": "QLD",
                "suburb": "Brisbane",
                "addressLine": "Corner Of Albert St And Burnett Lane",
                "postcode": "4000"
            },
            "position": {
                "latitude": -27.469014,
                "longitude": 153.024553
            },
            "brand": {
                "name": "Coles Supermarkets",
                "storeFinderId": 2,
                "id": "COL"
            }
        },
        {
            "id": "COL:4507",
            "name": "Coles Greenslopes",
            "phone": "(07) 3329 3600",
            "isTrading": true,
            "address": {
                "state": "QLD",
                "suburb": "Greenslopes",
                "addressLine": "700 Logan Rd",
                "postcode": "4120"
            },
            "position": {
                "latitude": -27.511719,
                "longitude": 153.053356
            },
            "brand": {
                "name": "Coles Supermarkets",
                "storeFinderId": 2,
                "id": "COL"
            }
        },
        {
            "id": "COL:4467",
            "name": "Coles Local Coorparoo",
            "phone": "(07) 3110 6100",
            "isTrading": true,
            "address": {
                "state": "QLD",
                "suburb": "Coorparoo",
                "addressLine": "252 Old Cleveland Rd",
                "postcode": "4151"
            },
            "position": {
                "latitude": -27.495581,
                "longitude": 153.056292
            },
            "brand": {
                "name": "Coles Supermarkets",
                "storeFinderId": 2,
                "id": "COL"
            }
        },
        {
            "id": "COL:4537",
            "name": "Coles New Farm",
            "phone": "(07) 3183 5100",
            "isTrading": true,
            "address": {
                "state": "QLD",
                "suburb": "New Farm",
                "addressLine": "85 Merthyr Rd",
                "postcode": "4005"
            },
            "position": {
                "latitude": -27.466959,
                "longitude": 153.047131
            },
            "brand": {
                "name": "Coles Supermarkets",
                "storeFinderId": 2,
                "id": "COL"
            }
        },
        {
            "id": "COL:4471",
            "name": "Coles Ashgrove",
            "phone": "(07) 2114 0100",
            "isTrading": true,
            "address": {
                "state": "QLD",
                "suburb": "Ashgrove",
                "addressLine": "17 Stewart Rd",
                "postcode": "4060"
            },
            "position": {
                "latitude": -27.444299,
                "longitude": 152.991819
            },
            "brand": {
                "name": "Coles Supermarkets",
                "storeFinderId": 2,
                "id": "COL"
            }
        },
        {
            "id": "COL:4528",
            "name": "Coles Newmarket",
            "phone": "(07) 2114 0000",
            "isTrading": true,
            "address": {
                "state": "QLD",
                "suburb": "Newmarket",
                "addressLine": "Enoggera Rd & Edmonstone St",
                "postcode": "4051"
            },
            "position": {
                "latitude": -27.437245,
                "longitude": 153.008206
            },
            "brand": {
                "name": "Coles Supermarkets",
                "storeFinderId": 2,
                "id": "COL"
            }
        },
        {
            "id": "COL:4540",
            "name": "Coles Cleveland",
            "phone": "(07) 3401 0400",
            "isTrading": true,
            "address": {
                "state": "QLD",
                "suburb": "Cleveland",
                "addressLine": "91 Middle St",
                "postcode": "4163"
            },
            "position": {
                "latitude": -27.526593,
                "longitude": 153.267779
            },
            "brand": {
                "name": "Coles Supermarkets",
                "storeFinderId": 2,
                "id": "COL"
            }
        },
        {
            "id": "COL:8729",
            "name": "Coles Victoria Point",
            "phone": "(07) 3825 9100",
            "isTrading": true,
            "address": {
                "state": "QLD",
                "suburb": "Victoria Point",
                "addressLine": "Cnr Bunker Rd & Redland Bay Rd",
                "postcode": "4165"
            },
            "position": {
                "latitude": -27.586967,
                "longitude": 153.280343
            },
            "brand": {
                "name": "Coles Supermarkets",
                "storeFinderId": 2,
                "id": "COL"
            }
        },
        {
            "id": "COL:7681",
            "name": "Coles Thornlands",
            "phone": "(07) 3164 3100",
            "isTrading": true,
            "address": {
                "state": "QLD",
                "suburb": "Thornlands",
                "addressLine": "128 -144 Boundary Rd",
                "postcode": "4164"
            },
            "position": {
                "latitude": -27.566594,
                "longitude": 153.249299
            },
            "brand": {
                "name": "Coles Supermarkets",
                "storeFinderId": 2,
                "id": "COL"
            }
        },
        {
            "id": "COL:4509",
            "name": "Coles Capalaba",
            "phone": "(07) 3900 7500",
            "isTrading": true,
            "address": {
                "state": "QLD",
                "suburb": "Capalaba",
                "addressLine": "Redland Bay Rd & Mt Cotton Rd",
                "postcode": "4157"
            },
            "position": {
                "latitude": -27.525295,
                "longitude": 153.191805
            },
            "brand": {
                "name": "Coles Supermarkets",
                "storeFinderId": 2,
                "id": "COL"
            }
        },
        {
            "id": "COL:4451",
            "name": "Coles Wynnum",
            "phone": "(07) 3906 7500",
            "isTrading": true,
            "address": {
                "state": "QLD",
                "suburb": "Wynnum",
                "addressLine": "132-140 Florence St",
                "postcode": "4178"
            },
            "position": {
                "latitude": -27.445259,
                "longitude": 153.171546
            },
            "brand": {
                "name": "Coles Supermarkets",
                "storeFinderId": 2,
                "id": "COL"
            }
        },
        {
            "id": "COL:4539",
            "name": "Coles Wynnum West",
            "phone": "(07) 2114 0200",
            "isTrading": true,
            "address": {
                "state": "QLD",
                "suburb": "Wynnum West",
                "addressLine": "Wynnum Rd",
                "postcode": "4178"
            },
            "position": {
                "latitude": -27.456476,
                "longitude": 153.154731
            },
            "brand": {
                "name": "Coles Supermarkets",
                "storeFinderId": 2,
                "id": "COL"
            }
        },
        {
            "id": "COL:4407",
            "name": "Coles Loganholme",
            "phone": "(07) 3801 7200",
            "isTrading": true,
            "address": {
                "state": "QLD",
                "suburb": "Loganholme",
                "addressLine": "Pacific Hwy & Bryants Rd",
                "postcode": "4128"
            },
            "position": {
                "latitude": -27.660973,
                "longitude": 153.171841
            },
            "brand": {
                "name": "Coles Supermarkets",
                "storeFinderId": 2,
                "id": "COL"
            }
        },
        {
            "id": "COL:4574",
            "name": "Coles Carindale (westfield)",
            "phone": "(07) 3308 6100",
            "isTrading": true,
            "address": {
                "state": "QLD",
                "suburb": "Carindale",
                "addressLine": "Creek Rd",
                "postcode": "4152"
            },
            "position": {
                "latitude": -27.502383,
                "longitude": 153.102989
            },
            "brand": {
                "name": "Coles Supermarkets",
                "storeFinderId": 2,
                "id": "COL"
            }
        },
        {
            "id": "COL:4386",
            "name": "Coles Rochedale",
            "phone": "(07) 3182 9400",
            "isTrading": true,
            "address": {
                "state": "QLD",
                "suburb": "Rochedale",
                "addressLine": "329-335 Gardner Rd",
                "postcode": "4123"
            },
            "position": {
                "latitude": -27.57746,
                "longitude": 153.113921
            },
            "brand": {
                "name": "Coles Supermarkets",
                "storeFinderId": 2,
                "id": "COL"
            }
        },
        {
            "id": "COL:4472",
            "name": "Coles Springwood",
            "phone": "(07) 2889 6300",
            "isTrading": true,
            "address": {
                "state": "QLD",
                "suburb": "Springwood",
                "addressLine": "Cinderella Drv",
                "postcode": "4127"
            },
            "position": {
                "latitude": -27.611943,
                "longitude": 153.123968
            },
            "brand": {
                "name": "Coles Supermarkets",
                "storeFinderId": 2,
                "id": "COL"
            }
        },
        {
            "id": "COL:4464",
            "name": "Coles Cannon Hill",
            "phone": "(07) 3183 5500",
            "isTrading": true,
            "address": {
                "state": "QLD",
                "suburb": "Cannon Hill",
                "addressLine": "Creek Rd & Wynnum Rd",
                "postcode": "4170"
            },
            "position": {
                "latitude": -27.471571,
                "longitude": 153.097686
            },
            "brand": {
                "name": "Coles Supermarkets",
                "storeFinderId": 2,
                "id": "COL"
            }
        },
        {
            "id": "COL:4449",
            "name": "Coles Beenleigh",
            "phone": "(07) 3287 4277",
            "isTrading": true,
            "address": {
                "state": "QLD",
                "suburb": "Beenleigh",
                "addressLine": "Main St & Bellew St",
                "postcode": "4207"
            },
            "position": {
                "latitude": -27.718445,
                "longitude": 153.202353
            },
            "brand": {
                "name": "Coles Supermarkets",
                "storeFinderId": 2,
                "id": "COL"
            }
        },
        {
            "id": "COL:4392",
            "name": "Coles Mount Gravatt Plaza",
            "phone": "(07) 3452 6400",
            "isTrading": true,
            "address": {
                "state": "QLD",
                "suburb": "Mount Gravatt",
                "addressLine": "Logan Road",
                "postcode": "4122"
            },
            "position": {
                "latitude": -27.539206,
                "longitude": 153.082318
            },
            "brand": {
                "name": "Coles Supermarkets",
                "storeFinderId": 2,
                "id": "COL"
            }
        },
        {
            "id": "COL:4578",
            "name": "Coles Morningside",
            "phone": "(07) 3337 9400",
            "isTrading": true,
            "address": {
                "state": "QLD",
                "suburb": "Morningside",
                "addressLine": "Wynnum Rd & Junction Rd",
                "postcode": "4170"
            },
            "position": {
                "latitude": -27.465241,
                "longitude": 153.079213
            },
            "brand": {
                "name": "Coles Supermarkets",
                "storeFinderId": 2,
                "id": "COL"
            }
        },
        {
            "id": "COL:4570",
            "name": "Coles Mount Gravatt",
            "phone": "(07) 3170 2900",
            "isTrading": true,
            "address": {
                "state": "QLD",
                "suburb": "Upper Mount Gravatt",
                "addressLine": "Cnr Kessels & Logan Rds",
                "postcode": "4122"
            },
            "position": {
                "latitude": -27.564236,
                "longitude": 153.082858
            },
            "brand": {
                "name": "Coles Supermarkets",
                "storeFinderId": 2,
                "id": "COL"
            }
        },
        {
            "id": "COL:4595",
            "name": "Coles Upper Mount Gravatt",
            "phone": "(07) 3216 8436",
            "isTrading": true,
            "address": {
                "state": "QLD",
                "suburb": "Upper Mount Gravatt",
                "addressLine": "1932 Logan Rd",
                "postcode": "4122"
            },
            "position": {
                "latitude": -27.557864,
                "longitude": 153.081051
            },
            "brand": {
                "name": "Coles Supermarkets",
                "storeFinderId": 2,
                "id": "COL"
            }
        },
        {
            "id": "COL:8731",
            "name": "Coles Yeppoon",
            "phone": "(07) 4939 1266",
            "isTrading": true,
            "address": {
                "state": "QLD",
                "suburb": "Yeppoon",
                "addressLine": "64-79 James St",
                "postcode": "4703"
            },
            "position": {
                "latitude": -23.128988,
                "longitude": 150.741236
            },
            "brand": {
                "name": "Coles Supermarkets",
                "storeFinderId": 2,
                "id": "COL"
            }
        },
        {
            "id": "COL:4406",
            "name": "Coles Gladstone",
            "phone": "(07) 4838 8900",
            "isTrading": true,
            "address": {
                "state": "QLD",
                "suburb": "Gladstone",
                "addressLine": "Dawson Hwy & Phillip St",
                "postcode": "4680"
            },
            "position": {
                "latitude": -23.869878,
                "longitude": 151.240165
            },
            "brand": {
                "name": "Coles Supermarkets",
                "storeFinderId": 2,
                "id": "COL"
            }
        },
        {
            "id": "COL:4580",
            "name": "Coles Tannum Sands",
            "phone": "(07) 4973 3788",
            "isTrading": true,
            "address": {
                "state": "QLD",
                "suburb": "Tannum Sands",
                "addressLine": "Hampton Drv & Booth Ave",
                "postcode": "4680"
            },
            "position": {
                "latitude": -23.951388,
                "longitude": 151.369877
            },
            "brand": {
                "name": "Coles Supermarkets",
                "storeFinderId": 2,
                "id": "COL"
            }
        },
        {
            "id": "COL:4810",
            "name": "Coles Kensington",
            "phone": "(07) 4326 1200",
            "isTrading": true,
            "address": {
                "state": "QLD",
                "suburb": "Kensington",
                "addressLine": "130a Takalvan St",
                "postcode": "4670"
            },
            "position": {
                "latitude": -24.890661,
                "longitude": 152.32032
            },
            "brand": {
                "name": "Coles Supermarkets",
                "storeFinderId": 2,
                "id": "COL"
            }
        },
        {
            "id": "COL:4404",
            "name": "Coles Caboolture",
            "phone": "(07) 5316 2100",
            "isTrading": true,
            "address": {
                "state": "QLD",
                "suburb": "Caboolture",
                "addressLine": "60 King St",
                "postcode": "4510"
            },
            "position": {
                "latitude": -27.085146,
                "longitude": 152.948887
            },
            "brand": {
                "name": "Coles Supermarkets",
                "storeFinderId": 2,
                "id": "COL"
            }
        },
        {
            "id": "COL:8721",
            "name": "Coles Morayfield",
            "phone": "(07) 5232 1100",
            "isTrading": true,
            "address": {
                "state": "QLD",
                "suburb": "Morayfield",
                "addressLine": "197 Morayfield Rd",
                "postcode": "4506"
            },
            "position": {
                "latitude": -27.104283,
                "longitude": 152.949758
            },
            "brand": {
                "name": "Coles Supermarkets",
                "storeFinderId": 2,
                "id": "COL"
            }
        },
        {
            "id": "COL:4091",
            "name": "Coles Caboolture North  - Big Fish",
            "phone": "(07) 5316 4100",
            "isTrading": true,
            "address": {
                "state": "QLD",
                "suburb": "Caboolture",
                "addressLine": "459 Pumicestone Rd",
                "postcode": "4510"
            },
            "position": {
                "latitude": -27.041874,
                "longitude": 152.973797
            },
            "brand": {
                "name": "Coles Supermarkets",
                "storeFinderId": 2,
                "id": "COL"
            }
        },
        {
            "id": "COL:4582",
            "name": "Coles Burpengary",
            "phone": "(07) 2005 2200",
            "isTrading": true,
            "address": {
                "state": "QLD",
                "suburb": "Burpengary",
                "addressLine": "164 - 168 Station Rd",
                "postcode": "4505"
            },
            "position": {
                "latitude": -27.153473,
                "longitude": 152.973745
            },
            "brand": {
                "name": "Coles Supermarkets",
                "storeFinderId": 2,
                "id": "COL"
            }
        },
        {
            "id": "COL:4438",
            "name": "Coles Nambour",
            "phone": "(07) 5430 4900",
            "isTrading": true,
            "address": {
                "state": "QLD",
                "suburb": "Nambour",
                "addressLine": "9-13 Mill Street",
                "postcode": "4560"
            },
            "position": {
                "latitude": -26.624974,
                "longitude": 152.959499
            },
            "brand": {
                "name": "Coles Supermarkets",
                "storeFinderId": 2,
                "id": "COL"
            }
        },
        {
            "id": "COL:4480",
            "name": "Coles Bray Park",
            "phone": "(07) 3093 5600",
            "isTrading": true,
            "address": {
                "state": "QLD",
                "suburb": "Strathpine",
                "addressLine": "Kensington Ave & Soverign Way",
                "postcode": "4500"
            },
            "position": {
                "latitude": -27.297695,
                "longitude": 152.975929
            },
            "brand": {
                "name": "Coles Supermarkets",
                "storeFinderId": 2,
                "id": "COL"
            }
        },
        {
            "id": "COL:4516",
            "name": "Coles Albany Creek",
            "phone": "(07) 3516 8200",
            "isTrading": true,
            "address": {
                "state": "QLD",
                "suburb": "Albany Creek",
                "addressLine": "Albany Creek Rd & Wruck Cres",
                "postcode": "4035"
            },
            "position": {
                "latitude": -27.346681,
                "longitude": 152.96859
            },
            "brand": {
                "name": "Coles Supermarkets",
                "storeFinderId": 2,
                "id": "COL"
            }
        },
        {
            "id": "COL:8715",
            "name": "Coles Kallangur",
            "phone": "(07) 3093 6700",
            "isTrading": true,
            "address": {
                "state": "QLD",
                "suburb": "Kallangur",
                "addressLine": "2 Nellies Lane",
                "postcode": "4503"
            },
            "position": {
                "latitude": -27.241087,
                "longitude": 152.993884
            },
            "brand": {
                "name": "Coles Supermarkets",
                "storeFinderId": 2,
                "id": "COL"
            }
        },
        {
            "id": "COL:4411",
            "name": "Coles Strathpine",
            "phone": "(07) 3490 4200",
            "isTrading": true,
            "address": {
                "state": "QLD",
                "suburb": "Strathpine",
                "addressLine": "Gympie Rd",
                "postcode": "4500"
            },
            "position": {
                "latitude": -27.306415,
                "longitude": 152.991553
            },
            "brand": {
                "name": "Coles Supermarkets",
                "storeFinderId": 2,
                "id": "COL"
            }
        },
        {
            "id": "COL:7559",
            "name": "Coles Deception Bay",
            "phone": "(07) 2005 2000",
            "isTrading": true,
            "address": {
                "state": "QLD",
                "suburb": "Deception Bay",
                "addressLine": "Cnr Deceptionbay Rd & Bay Ave",
                "postcode": "4508"
            },
            "position": {
                "latitude": -27.193589,
                "longitude": 153.0288
            },
            "brand": {
                "name": "Coles Supermarkets",
                "storeFinderId": 2,
                "id": "COL"
            }
        },
        {
            "id": "COL:4545",
            "name": "Coles North Lakes",
            "phone": "(07) 3491 5700",
            "isTrading": true,
            "address": {
                "state": "QLD",
                "suburb": "North Lakes",
                "addressLine": "North Lakes Dr & Anzac Ave",
                "postcode": "4509"
            },
            "position": {
                "latitude": -27.243093,
                "longitude": 153.018885
            },
            "brand": {
                "name": "Coles Supermarkets",
                "storeFinderId": 2,
                "id": "COL"
            }
        },
        {
            "id": "COL:4436",
            "name": "Coles Mango Hill",
            "phone": "(07) 3490 3600",
            "isTrading": true,
            "address": {
                "state": "QLD",
                "suburb": "Mango Hill",
                "addressLine": "Cnr Of Anzac Rd And Halpine Drive",
                "postcode": "4509"
            },
            "position": {
                "latitude": -27.24221,
                "longitude": 153.026038
            },
            "brand": {
                "name": "Coles Supermarkets",
                "storeFinderId": 2,
                "id": "COL"
            }
        },
        {
            "id": "COL:4561",
            "name": "Coles Murrumba Downs",
            "phone": "(07) 3482 0600",
            "isTrading": true,
            "address": {
                "state": "QLD",
                "suburb": "Murrumba Downs",
                "addressLine": "Dohles Rocks Rd & Goodrich Rd",
                "postcode": "4503"
            },
            "position": {
                "latitude": -27.272699,
                "longitude": 153.016319
            },
            "brand": {
                "name": "Coles Supermarkets",
                "storeFinderId": 2,
                "id": "COL"
            }
        },
        {
            "id": "COL:4559",
            "name": "Coles Pelican Waters",
            "phone": "(07) 5492 4644",
            "isTrading": true,
            "address": {
                "state": "QLD",
                "suburb": "Pelican Waters",
                "addressLine": "Pelican Waters Blvd",
                "postcode": "4551"
            },
            "position": {
                "latitude": -26.833911,
                "longitude": 153.108239
            },
            "brand": {
                "name": "Coles Supermarkets",
                "storeFinderId": 2,
                "id": "COL"
            }
        },
        {
            "id": "COL:4519",
            "name": "Coles Kippa Ring",
            "phone": "(07) 3093 5400",
            "isTrading": true,
            "address": {
                "state": "QLD",
                "suburb": "Kippa Ring",
                "addressLine": "Anzac Ave & Boardman Rd",
                "postcode": "4021"
            },
            "position": {
                "latitude": -27.226242,
                "longitude": 153.08766
            },
            "brand": {
                "name": "Coles Supermarkets",
                "storeFinderId": 2,
                "id": "COL"
            }
        },
        {
            "id": "COL:4422",
            "name": "Coles Redcliffe",
            "phone": "(07) 3480 3100",
            "isTrading": true,
            "address": {
                "state": "QLD",
                "suburb": "Redcliffe",
                "addressLine": "Cnr Ashmole Rd & Klingner Rd",
                "postcode": "4021"
            },
            "position": {
                "latitude": -27.220211,
                "longitude": 153.098335
            },
            "brand": {
                "name": "Coles Supermarkets",
                "storeFinderId": 2,
                "id": "COL"
            }
        },
        {
            "id": "COL:4647",
            "name": "Coles Sippy Downs",
            "phone": "(07) 5458 1200",
            "isTrading": true,
            "address": {
                "state": "QLD",
                "suburb": "Sippy Downs",
                "addressLine": "107 Sippy Downs Drive",
                "postcode": "4556"
            },
            "position": {
                "latitude": -26.714108,
                "longitude": 153.060819
            },
            "brand": {
                "name": "Coles Supermarkets",
                "storeFinderId": 2,
                "id": "COL"
            }
        },
        {
            "id": "COL:4478",
            "name": "Coles Caloundra",
            "phone": "(07) 5374 6200",
            "isTrading": true,
            "address": {
                "state": "QLD",
                "suburb": "Caloundra",
                "addressLine": "47 Bowman Rd",
                "postcode": "4551"
            },
            "position": {
                "latitude": -26.802623,
                "longitude": 153.124466
            },
            "brand": {
                "name": "Coles Supermarkets",
                "storeFinderId": 2,
                "id": "COL"
            }
        },
        {
            "id": "COL:4524",
            "name": "Coles Bracken Ridge",
            "phone": "(07) 3612 8500",
            "isTrading": true,
            "address": {
                "state": "QLD",
                "suburb": "Bracken Ridge",
                "addressLine": "Telegraph Rd & Norris Rd",
                "postcode": "4017"
            },
            "position": {
                "latitude": -27.330653,
                "longitude": 153.026258
            },
            "brand": {
                "name": "Coles Supermarkets",
                "storeFinderId": 2,
                "id": "COL"
            }
        },
        {
            "id": "COL:7836",
            "name": "Coles Birtinya",
            "phone": "(07) 3074 1700",
            "isTrading": true,
            "address": {
                "state": "QLD",
                "suburb": "Birtinya",
                "addressLine": "8 The Avenue",
                "postcode": "4575"
            },
            "position": {
                "latitude": -26.740222,
                "longitude": 153.11627
            },
            "brand": {
                "name": "Coles Supermarkets",
                "storeFinderId": 2,
                "id": "COL"
            }
        },
        {
            "id": "COL:4435",
            "name": "Coles Kawana Waters",
            "phone": "(07) 5457 6900",
            "isTrading": true,
            "address": {
                "state": "QLD",
                "suburb": "Buddina",
                "addressLine": "Point Cartwright Drv & Nicklin Way",
                "postcode": "4575"
            },
            "position": {
                "latitude": -26.703259,
                "longitude": 153.130467
            },
            "brand": {
                "name": "Coles Supermarkets",
                "storeFinderId": 2,
                "id": "COL"
            }
        },
        {
            "id": "COL:4550",
            "name": "Coles Mooloolaba",
            "phone": "(07) 4541 1600",
            "isTrading": true,
            "address": {
                "state": "QLD",
                "suburb": "Mooloolaba",
                "addressLine": "Venning St & Walan St",
                "postcode": "4557"
            },
            "position": {
                "latitude": -26.679441,
                "longitude": 153.116187
            },
            "brand": {
                "name": "Coles Supermarkets",
                "storeFinderId": 2,
                "id": "COL"
            }
        },
        {
            "id": "COL:4523",
            "name": "Coles Maroochydore",
            "phone": "(07) 5409 4200",
            "isTrading": true,
            "address": {
                "state": "QLD",
                "suburb": "Maroochydore",
                "addressLine": "Horton Pde & Maroochydore Rd",
                "postcode": "4558"
            },
            "position": {
                "latitude": -26.655895,
                "longitude": 153.088999
            },
            "brand": {
                "name": "Coles Supermarkets",
                "storeFinderId": 2,
                "id": "COL"
            }
        },
        {
            "id": "COL:4425",
            "name": "Coles Mackay (parkside)",
            "phone": "(07) 4847 1500",
            "isTrading": true,
            "address": {
                "state": "QLD",
                "suburb": "West Mackay",
                "addressLine": "245 Bridge Rd (cnr Paradise St)",
                "postcode": "4740"
            },
            "position": {
                "latitude": -21.157713,
                "longitude": 149.170531
            },
            "brand": {
                "name": "Coles Supermarkets",
                "storeFinderId": 2,
                "id": "COL"
            }
        },
        {
            "id": "COL:4558",
            "name": "Coles Mackay (caneland)",
            "phone": "(07) 4898 5700",
            "isTrading": true,
            "address": {
                "state": "QLD",
                "suburb": "Mackay",
                "addressLine": "Mangrove Road & Victoria Street",
                "postcode": "4740"
            },
            "position": {
                "latitude": -21.137884,
                "longitude": 149.177562
            },
            "brand": {
                "name": "Coles Supermarkets",
                "storeFinderId": 2,
                "id": "COL"
            }
        },
        {
            "id": "COL:4481",
            "name": "Coles Mount Pleasant",
            "phone": "(07) 4942 1011",
            "isTrading": true,
            "address": {
                "state": "QLD",
                "suburb": "Mackay",
                "addressLine": "Malcomson St & Mackay Bucasia Rd",
                "postcode": "4740"
            },
            "position": {
                "latitude": -21.119253,
                "longitude": 149.157414
            },
            "brand": {
                "name": "Coles Supermarkets",
                "storeFinderId": 2,
                "id": "COL"
            }
        },
        {
            "id": "COL:4587",
            "name": "Coles Sydney Street",
            "phone": "(07) 4940 0200",
            "isTrading": true,
            "address": {
                "state": "QLD",
                "suburb": "Mackay",
                "addressLine": "78 Sydney St",
                "postcode": "4740"
            },
            "position": {
                "latitude": -21.143659,
                "longitude": 149.187481
            },
            "brand": {
                "name": "Coles Supermarkets",
                "storeFinderId": 2,
                "id": "COL"
            }
        },
        {
            "id": "COL:4389",
            "name": "Coles Andergrove",
            "phone": "(07) 4852 0300",
            "isTrading": true,
            "address": {
                "state": "QLD",
                "suburb": "Andergrove",
                "addressLine": "23 Oak Street",
                "postcode": "4740"
            },
            "position": {
                "latitude": -21.098204,
                "longitude": 149.185801
            },
            "brand": {
                "name": "Coles Supermarkets",
                "storeFinderId": 2,
                "id": "COL"
            }
        },
        {
            "id": "COL:4497",
            "name": "Coles Bundaberg",
            "phone": "(07) 4155 8200",
            "isTrading": true,
            "address": {
                "state": "QLD",
                "suburb": "Bundaberg Central",
                "addressLine": "16 Maryborough St",
                "postcode": "4670"
            },
            "position": {
                "latitude": -24.871731,
                "longitude": 152.349257
            },
            "brand": {
                "name": "Coles Supermarkets",
                "storeFinderId": 2,
                "id": "COL"
            }
        },
        {
            "id": "COL:4659",
            "name": "Coles Maryborough",
            "phone": "(07) 4121 0337",
            "isTrading": true,
            "address": {
                "state": "QLD",
                "suburb": "Maryborough",
                "addressLine": "Alice St & Lennox St",
                "postcode": "4650"
            },
            "position": {
                "latitude": -25.539169,
                "longitude": 152.698812
            },
            "brand": {
                "name": "Coles Supermarkets",
                "storeFinderId": 2,
                "id": "COL"
            }
        },
        {
            "id": "COL:7835",
            "name": "Coles Buderim",
            "phone": "(07) 2105 0900",
            "isTrading": true,
            "address": {
                "state": "QLD",
                "suburb": "Buderim",
                "addressLine": "141 Jones Rd",
                "postcode": "4556"
            },
            "position": {
                "latitude": -26.662861,
                "longitude": 153.050319
            },
            "brand": {
                "name": "Coles Supermarkets",
                "storeFinderId": 2,
                "id": "COL"
            }
        },
        {
            "id": "COL:8758",
            "name": "Coles Peregian Springs",
            "phone": "(07) 5471 4100",
            "isTrading": true,
            "address": {
                "state": "QLD",
                "suburb": "Peregian Springs",
                "addressLine": "1 Ridgeview Dr",
                "postcode": "4573"
            },
            "position": {
                "latitude": -26.499826,
                "longitude": 153.079193
            },
            "brand": {
                "name": "Coles Supermarkets",
                "storeFinderId": 2,
                "id": "COL"
            }
        },
        {
            "id": "COL:4674",
            "name": "Coles North Shore",
            "phone": "(07) 5448 8488",
            "isTrading": true,
            "address": {
                "state": "QLD",
                "suburb": "Pacific Paradise",
                "addressLine": "722 - 728 David Low Way",
                "postcode": "4564"
            },
            "position": {
                "latitude": -26.614095,
                "longitude": 153.082109
            },
            "brand": {
                "name": "Coles Supermarkets",
                "storeFinderId": 2,
                "id": "COL"
            }
        },
        {
            "id": "COL:4420",
            "name": "Coles Coolum",
            "phone": "(07) 5343 0000",
            "isTrading": true,
            "address": {
                "state": "QLD",
                "suburb": "Coolum Beach",
                "addressLine": "19 Birtwill St & Margaret St",
                "postcode": "4573"
            },
            "position": {
                "latitude": -26.526713,
                "longitude": 153.088883
            },
            "brand": {
                "name": "Coles Supermarkets",
                "storeFinderId": 2,
                "id": "COL"
            }
        },
        {
            "id": "COL:4447",
            "name": "Coles Noosa",
            "phone": "(07) 5343 1200",
            "isTrading": true,
            "address": {
                "state": "QLD",
                "suburb": "Noosa Heads",
                "addressLine": "Lanyana Way",
                "postcode": "4567"
            },
            "position": {
                "latitude": -26.398552,
                "longitude": 153.089076
            },
            "brand": {
                "name": "Coles Supermarkets",
                "storeFinderId": 2,
                "id": "COL"
            }
        },
        {
            "id": "COL:4527",
            "name": "Coles The Willows",
            "phone": "(07) 4755 9600",
            "isTrading": true,
            "address": {
                "state": "QLD",
                "suburb": "Kirwan",
                "addressLine": "Thuringowa Drv & Hervey Range Rd",
                "postcode": "4817"
            },
            "position": {
                "latitude": -19.31581,
                "longitude": 146.727472
            },
            "brand": {
                "name": "Coles Supermarkets",
                "storeFinderId": 2,
                "id": "COL"
            }
        },
        {
            "id": "COL:4655",
            "name": "Coles Thuringowa",
            "phone": "(07) 4755 9300",
            "isTrading": true,
            "address": {
                "state": "QLD",
                "suburb": "Thuringowa",
                "addressLine": "Cnr Dalrymple And Thuringowa Drive",
                "postcode": "4817"
            },
            "position": {
                "latitude": -19.287777,
                "longitude": 146.73885
            },
            "brand": {
                "name": "Coles Supermarkets",
                "storeFinderId": 2,
                "id": "COL"
            }
        },
        {
            "id": "COL:4569",
            "name": "Coles Deeragun",
            "phone": "(07) 4751 7400",
            "isTrading": true,
            "address": {
                "state": "QLD",
                "suburb": "Deeragun",
                "addressLine": "Bruce Hwy",
                "postcode": "4818"
            },
            "position": {
                "latitude": -19.247407,
                "longitude": 146.6777
            },
            "brand": {
                "name": "Coles Supermarkets",
                "storeFinderId": 2,
                "id": "COL"
            }
        },
        {
            "id": "COL:4494",
            "name": "Coles Aitkenvale",
            "phone": "(07) 4779 0655",
            "isTrading": true,
            "address": {
                "state": "QLD",
                "suburb": "Aitkenvale",
                "addressLine": "Ross River Rd & Nathan St",
                "postcode": "4814"
            },
            "position": {
                "latitude": -19.297744,
                "longitude": 146.76051
            },
            "brand": {
                "name": "Coles Supermarkets",
                "storeFinderId": 2,
                "id": "COL"
            }
        },
        {
            "id": "COL:4563",
            "name": "Coles Annandale",
            "phone": "(07) 4775 7889",
            "isTrading": true,
            "address": {
                "state": "QLD",
                "suburb": "Annandale",
                "addressLine": "University Rd & Macarthur Drv",
                "postcode": "4814"
            },
            "position": {
                "latitude": -19.317464,
                "longitude": 146.791614
            },
            "brand": {
                "name": "Coles Supermarkets",
                "storeFinderId": 2,
                "id": "COL"
            }
        },
        {
            "id": "COL:7824",
            "name": "Coles Fairfield Central - Townsville",
            "phone": "(07) 4409 1300",
            "isTrading": true,
            "address": {
                "state": "QLD",
                "suburb": "Idalia",
                "addressLine": "80 Darcy Dr",
                "postcode": "4811"
            },
            "position": {
                "latitude": -19.31489,
                "longitude": 146.816118
            },
            "brand": {
                "name": "Coles Supermarkets",
                "storeFinderId": 2,
                "id": "COL"
            }
        },
        {
            "id": "COL:4689",
            "name": "Coles Castletown",
            "phone": "(07) 2106 4200",
            "isTrading": true,
            "address": {
                "state": "QLD",
                "suburb": "Pimlico",
                "addressLine": "35 Kings Rd",
                "postcode": "4812"
            },
            "position": {
                "latitude": -19.272064,
                "longitude": 146.789588
            },
            "brand": {
                "name": "Coles Supermarkets",
                "storeFinderId": 2,
                "id": "COL"
            }
        },
        {
            "id": "COL:5803",
            "name": "Coles Bushland Beach",
            "phone": "(07) 4401 6700",
            "isTrading": true,
            "address": {
                "state": "QLD",
                "suburb": "Bushland Beach",
                "addressLine": "Cnr Mt Low Parkway & Lionel Turner Drive",
                "postcode": "4818"
            },
            "position": {
                "latitude": -19.198085,
                "longitude": 146.67257
            },
            "brand": {
                "name": "Coles Supermarkets",
                "storeFinderId": 2,
                "id": "COL"
            }
        },
        {
            "id": "COL:4649",
            "name": "Coles North Ward",
            "phone": "(07) 4758 5100",
            "isTrading": true,
            "address": {
                "state": "QLD",
                "suburb": "North Ward",
                "addressLine": "26 - 28 Mitchell Street",
                "postcode": "4810"
            },
            "position": {
                "latitude": -19.251879,
                "longitude": 146.814598
            },
            "brand": {
                "name": "Coles Supermarkets",
                "storeFinderId": 2,
                "id": "COL"
            }
        },
        {
            "id": "COL:4419",
            "name": "Coles Northern Beaches",
            "phone": "(07) 4969 7300",
            "isTrading": true,
            "address": {
                "state": "QLD",
                "suburb": "North Mackay",
                "addressLine": "Mackay Bucasia Rd & Sologinkins Rd",
                "postcode": "4740"
            },
            "position": {
                "latitude": -21.065121,
                "longitude": 149.157944
            },
            "brand": {
                "name": "Coles Supermarkets",
                "storeFinderId": 2,
                "id": "COL"
            }
        },
        {
            "id": "COL:4598",
            "name": "Coles Cannonvale",
            "phone": "(07) 4946 4869",
            "isTrading": true,
            "address": {
                "state": "QLD",
                "suburb": "Cannonvale",
                "addressLine": "Shute Harbour Rd & Island Dr",
                "postcode": "4802"
            },
            "position": {
                "latitude": -20.277551,
                "longitude": 148.699182
            },
            "brand": {
                "name": "Coles Supermarkets",
                "storeFinderId": 2,
                "id": "COL"
            }
        },
        {
            "id": "COL:4529",
            "name": "Coles Bay Central",
            "phone": "(07) 4196 9500",
            "isTrading": true,
            "address": {
                "state": "QLD",
                "suburb": "Hervey Bay",
                "addressLine": "6 Central Ave",
                "postcode": "4655"
            },
            "position": {
                "latitude": -25.290253,
                "longitude": 152.834247
            },
            "brand": {
                "name": "Coles Supermarkets",
                "storeFinderId": 2,
                "id": "COL"
            }
        },
        {
            "id": "COL:4513",
            "name": "Coles Hervey Bay",
            "phone": "(07) 4124 1066",
            "isTrading": true,
            "address": {
                "state": "QLD",
                "suburb": "Pialba",
                "addressLine": "Main St",
                "postcode": "4655"
            },
            "position": {
                "latitude": -25.282842,
                "longitude": 152.839038
            },
            "brand": {
                "name": "Coles Supermarkets",
                "storeFinderId": 2,
                "id": "COL"
            }
        },
        {
            "id": "COL:4442",
            "name": "Coles Ingham",
            "phone": "(07) 4776 2201",
            "isTrading": true,
            "address": {
                "state": "QLD",
                "suburb": "Ingham",
                "addressLine": "Lannercost St & Mcilwraith St",
                "postcode": "4850"
            },
            "position": {
                "latitude": -18.651031,
                "longitude": 146.152864
            },
            "brand": {
                "name": "Coles Supermarkets",
                "storeFinderId": 2,
                "id": "COL"
            }
        },
        {
            "id": "COL:4510",
            "name": "Coles Ayr",
            "phone": "(07) 4783 3666",
            "isTrading": true,
            "address": {
                "state": "QLD",
                "suburb": "Ayr",
                "addressLine": "118 Edward St",
                "postcode": "4807"
            },
            "position": {
                "latitude": -19.572496,
                "longitude": 147.403846
            },
            "brand": {
                "name": "Coles Supermarkets",
                "storeFinderId": 2,
                "id": "COL"
            }
        },
        {
            "id": "COL:4441",
            "name": "Coles Innisfail",
            "phone": "(07) 4061 3200",
            "isTrading": true,
            "address": {
                "state": "QLD",
                "suburb": "Innisfail",
                "addressLine": "Edith St & Ernest St",
                "postcode": "4860"
            },
            "position": {
                "latitude": -17.523482,
                "longitude": 146.02856
            },
            "brand": {
                "name": "Coles Supermarkets",
                "storeFinderId": 2,
                "id": "COL"
            }
        },
        {
            "id": "COL:4482",
            "name": "Coles Mareeba",
            "phone": "(07) 4017 0800",
            "isTrading": true,
            "address": {
                "state": "QLD",
                "suburb": "Mareeba",
                "addressLine": "Byrnes St",
                "postcode": "4880"
            },
            "position": {
                "latitude": -16.998261,
                "longitude": 145.423382
            },
            "brand": {
                "name": "Coles Supermarkets",
                "storeFinderId": 2,
                "id": "COL"
            }
        },
        {
            "id": "COL:4410",
            "name": "Coles Edmonton",
            "phone": "(07) 4045 8100",
            "isTrading": true,
            "address": {
                "state": "QLD",
                "suburb": "Edmonton",
                "addressLine": "Walker Rd",
                "postcode": "4869"
            },
            "position": {
                "latitude": -17.019431,
                "longitude": 145.728233
            },
            "brand": {
                "name": "Coles Supermarkets",
                "storeFinderId": 2,
                "id": "COL"
            }
        },
        {
            "id": "COL:4567",
            "name": "Coles Mount Sheridan",
            "phone": "(07) 4241 8900",
            "isTrading": true,
            "address": {
                "state": "QLD",
                "suburb": "Mount Sheridan",
                "addressLine": "Bruce Hwy & Foster Rd",
                "postcode": "4868"
            },
            "position": {
                "latitude": -16.988232,
                "longitude": 145.740236
            },
            "brand": {
                "name": "Coles Supermarkets",
                "storeFinderId": 2,
                "id": "COL"
            }
        },
        {
            "id": "COL:4409",
            "name": "Coles Earlville",
            "phone": "(07) 4047 8400",
            "isTrading": true,
            "address": {
                "state": "QLD",
                "suburb": "Earlville",
                "addressLine": "537 Mulgrave Rd",
                "postcode": "4870"
            },
            "position": {
                "latitude": -16.943436,
                "longitude": 145.739837
            },
            "brand": {
                "name": "Coles Supermarkets",
                "storeFinderId": 2,
                "id": "COL"
            }
        },
        {
            "id": "COL:4381",
            "name": "Coles Redlynch",
            "phone": "(07) 4039 5400",
            "isTrading": true,
            "address": {
                "state": "QLD",
                "suburb": "Redlynch",
                "addressLine": "Connection Road",
                "postcode": "4870"
            },
            "position": {
                "latitude": -16.897136,
                "longitude": 145.698909
            },
            "brand": {
                "name": "Coles Supermarkets",
                "storeFinderId": 2,
                "id": "COL"
            }
        },
        {
            "id": "COL:4443",
            "name": "Coles Westcourt",
            "phone": "(07) 4051 8766",
            "isTrading": true,
            "address": {
                "state": "QLD",
                "suburb": "Cairns",
                "addressLine": "274 Mulgrave Rd",
                "postcode": "4870"
            },
            "position": {
                "latitude": -16.934725,
                "longitude": 145.753055
            },
            "brand": {
                "name": "Coles Supermarkets",
                "storeFinderId": 2,
                "id": "COL"
            }
        },
        {
            "id": "COL:4536",
            "name": "Coles Cairns Central",
            "phone": "(07) 4040 7400",
            "isTrading": true,
            "address": {
                "state": "QLD",
                "suburb": "Cairns",
                "addressLine": "Mcleod St & Aplin St",
                "postcode": "4870"
            },
            "position": {
                "latitude": -16.924186,
                "longitude": 145.77053
            },
            "brand": {
                "name": "Coles Supermarkets",
                "storeFinderId": 2,
                "id": "COL"
            }
        },
        {
            "id": "COL:4532",
            "name": "Coles Cairns Smithfield",
            "phone": "(07) 4241 9000",
            "isTrading": true,
            "address": {
                "state": "QLD",
                "suburb": "Smithfield",
                "addressLine": "Captain Cook Hwy & Kennedy Hwy",
                "postcode": "4878"
            },
            "position": {
                "latitude": -16.835082,
                "longitude": 145.691791
            },
            "brand": {
                "name": "Coles Supermarkets",
                "storeFinderId": 2,
                "id": "COL"
            }
        },
        {
            "id": "COL:4546",
            "name": "Coles Port Douglas",
            "phone": "(07) 4099 5366",
            "isTrading": true,
            "address": {
                "state": "QLD",
                "suburb": "Port Douglas",
                "addressLine": "11 - 17 Macrossan St",
                "postcode": "4877"
            },
            "position": {
                "latitude": -16.481956,
                "longitude": 145.463034
            },
            "brand": {
                "name": "Coles Supermarkets",
                "storeFinderId": 2,
                "id": "COL"
            }
        },
        {
            "id": "COL:4581",
            "name": "Coles Clifton Beach",
            "phone": "(07) 4222 4700",
            "isTrading": true,
            "address": {
                "state": "QLD",
                "suburb": "Clifton Beach",
                "addressLine": "Endeavour St & Captain Cook Hwy",
                "postcode": "4879"
            },
            "position": {
                "latitude": -16.765079,
                "longitude": 145.66876
            },
            "brand": {
                "name": "Coles Supermarkets",
                "storeFinderId": 2,
                "id": "COL"
            }
        }
    ]
}