{
    "metadata": {
        "number_of_stores": 54,
        "company": "coles",
        "state": "SA",
        "date_scraped": "2025-08-07"
    },
    "stores": [
        {
            "id": "COL:440",
            "name": "Coles Port Lincoln",
            "phone": "(08) 8682 0300",
            "isTrading": true,
            "address": {
                "state": "SA",
                "suburb": "Port Lincoln",
                "addressLine": "Liverpool St",
                "postcode": "5606"
            },
            "position": {
                "latitude": -34.722761,
                "longitude": 135.861055
            },
            "brand": {
                "name": "Coles Supermarkets",
                "storeFinderId": 2,
                "id": "COL"
            }
        },
        {
            "id": "COL:7832",
            "name": "Coles Victor Harbor",
            "phone": "(08) 7505 5500",
            "isTrading": true,
            "address": {
                "state": "SA",
                "suburb": "Victor Harbor",
                "addressLine": "5 Adelaide Rd",
                "postcode": "5211"
            },
            "position": {
                "latitude": -35.535192,
                "longitude": 138.637657
            },
            "brand": {
                "name": "Coles Supermarkets",
                "storeFinderId": 2,
                "id": "COL"
            }
        },
        {
            "id": "COL:7707",
            "name": "Coles Mount Gambier",
            "phone": "(08) 8763 7000",
            "isTrading": true,
            "address": {
                "state": "SA",
                "suburb": "Mount Gambier",
                "addressLine": "11 Ferrers St",
                "postcode": "5290"
            },
            "position": {
                "latitude": -37.8301,
                "longitude": 140.782876
            },
            "brand": {
                "name": "Coles Supermarkets",
                "storeFinderId": 2,
                "id": "COL"
            }
        },
        {
            "id": "COL:4961",
            "name": "Coles Mclaren Vale",
            "phone": "(08) 8324 4100",
            "isTrading": true,
            "address": {
                "state": "SA",
                "suburb": "Mclaren Vale",
                "addressLine": "130 Main Rd",
                "postcode": "5171"
            },
            "position": {
                "latitude": -35.21774,
                "longitude": 138.542479
            },
            "brand": {
                "name": "Coles Supermarkets",
                "storeFinderId": 2,
                "id": "COL"
            }
        },
        {
            "id": "COL:4933",
            "name": "Coles Christies Beach",
            "phone": "(08) 8488 2400",
            "isTrading": true,
            "address": {
                "state": "SA",
                "suburb": "Christies Beach",
                "addressLine": "101 Beach Rd",
                "postcode": "5165"
            },
            "position": {
                "latitude": -35.138757,
                "longitude": 138.480757
            },
            "brand": {
                "name": "Coles Supermarkets",
                "storeFinderId": 2,
                "id": "COL"
            }
        },
        {
            "id": "COL:437",
            "name": "Coles Noarlunga",
            "phone": "(08) 8488 7500",
            "isTrading": true,
            "address": {
                "state": "SA",
                "suburb": "Noarlunga Centre",
                "addressLine": "Beach Rd",
                "postcode": "5168"
            },
            "position": {
                "latitude": -35.141739,
                "longitude": 138.495386
            },
            "brand": {
                "name": "Coles Supermarkets",
                "storeFinderId": 2,
                "id": "COL"
            }
        },
        {
            "id": "COL:436",
            "name": "Coles Reynella",
            "phone": "(08) 8488 0300",
            "isTrading": true,
            "address": {
                "state": "SA",
                "suburb": "Morphett Vale",
                "addressLine": "Cnr Sherriffs & Hillier Rds",
                "postcode": "5162"
            },
            "position": {
                "latitude": -35.106063,
                "longitude": 138.520577
            },
            "brand": {
                "name": "Coles Supermarkets",
                "storeFinderId": 2,
                "id": "COL"
            }
        },
        {
            "id": "COL:4942",
            "name": "Coles Aberfoyle Park",
            "phone": "(08) 8370 5277",
            "isTrading": true,
            "address": {
                "state": "SA",
                "suburb": "Aberfoyle Park",
                "addressLine": "Hub Drive",
                "postcode": "5159"
            },
            "position": {
                "latitude": -35.075024,
                "longitude": 138.59291
            },
            "brand": {
                "name": "Coles Supermarkets",
                "storeFinderId": 2,
                "id": "COL"
            }
        },
        {
            "id": "COL:458",
            "name": "Coles Marion",
            "phone": "(08) 8426 2000",
            "isTrading": true,
            "address": {
                "state": "SA",
                "suburb": "Oaklands Park",
                "addressLine": "297 Diagonal Rd",
                "postcode": "5046"
            },
            "position": {
                "latitude": -35.017457,
                "longitude": 138.543432
            },
            "brand": {
                "name": "Coles Supermarkets",
                "storeFinderId": 2,
                "id": "COL"
            }
        },
        {
            "id": "COL:4982",
            "name": "Coles Warradale",
            "phone": "(08) 8198 0600",
            "isTrading": true,
            "address": {
                "state": "SA",
                "suburb": "Warradale",
                "addressLine": "238 Diagonal Rd",
                "postcode": "5046"
            },
            "position": {
                "latitude": -35.008336,
                "longitude": 138.538207
            },
            "brand": {
                "name": "Coles Supermarkets",
                "storeFinderId": 2,
                "id": "COL"
            }
        },
        {
            "id": "COL:420",
            "name": "Coles Glenelg",
            "phone": "(08) 7101 5000",
            "isTrading": true,
            "address": {
                "state": "SA",
                "suburb": "Glenelg",
                "addressLine": "4 Nile St",
                "postcode": "5045"
            },
            "position": {
                "latitude": -34.979578,
                "longitude": 138.514803
            },
            "brand": {
                "name": "Coles Supermarkets",
                "storeFinderId": 2,
                "id": "COL"
            }
        },
        {
            "id": "COL:419",
            "name": "Coles Park Holme",
            "phone": "(08) 8275 0800",
            "isTrading": true,
            "address": {
                "state": "SA",
                "suburb": "Park Holme",
                "addressLine": "319 Oaklands Rd",
                "postcode": "5043"
            },
            "position": {
                "latitude": -34.994356,
                "longitude": 138.55591
            },
            "brand": {
                "name": "Coles Supermarkets",
                "storeFinderId": 2,
                "id": "COL"
            }
        },
        {
            "id": "COL:447",
            "name": "Coles Blackwood",
            "phone": "(08) 7085 2300",
            "isTrading": true,
            "address": {
                "state": "SA",
                "suburb": "Blackwood",
                "addressLine": "Cnr Main Rd & Young St",
                "postcode": "5051"
            },
            "position": {
                "latitude": -35.019059,
                "longitude": 138.615762
            },
            "brand": {
                "name": "Coles Supermarkets",
                "storeFinderId": 2,
                "id": "COL"
            }
        },
        {
            "id": "COL:452",
            "name": "Coles Edwardstown",
            "phone": "(08) 7427 4500",
            "isTrading": true,
            "address": {
                "state": "SA",
                "suburb": "Edwardstown",
                "addressLine": "992 South Rd",
                "postcode": "5039"
            },
            "position": {
                "latitude": -34.981802,
                "longitude": 138.572847
            },
            "brand": {
                "name": "Coles Supermarkets",
                "storeFinderId": 2,
                "id": "COL"
            }
        },
        {
            "id": "COL:4945",
            "name": "Coles Anzac Highway",
            "phone": "(08) 7333 5100",
            "isTrading": true,
            "address": {
                "state": "SA",
                "suburb": "Plympton",
                "addressLine": "Cnr Marion Rd & Anzac Hwy",
                "postcode": "5038"
            },
            "position": {
                "latitude": -34.963728,
                "longitude": 138.554493
            },
            "brand": {
                "name": "Coles Supermarkets",
                "storeFinderId": 2,
                "id": "COL"
            }
        },
        {
            "id": "COL:406",
            "name": "Coles Kurralta Park",
            "phone": "(08) 7424 9600",
            "isTrading": true,
            "address": {
                "state": "SA",
                "suburb": "Kurralta Park",
                "addressLine": "153-164 Anzac Hwy",
                "postcode": "5037"
            },
            "position": {
                "latitude": -34.956463,
                "longitude": 138.565066
            },
            "brand": {
                "name": "Coles Supermarkets",
                "storeFinderId": 2,
                "id": "COL"
            }
        },
        {
            "id": "COL:455",
            "name": "Coles West Lakes",
            "phone": "(08) 7322 9500",
            "isTrading": true,
            "address": {
                "state": "SA",
                "suburb": "West Lakes",
                "addressLine": "West Lakes Blv",
                "postcode": "5021"
            },
            "position": {
                "latitude": -34.881207,
                "longitude": 138.49149
            },
            "brand": {
                "name": "Coles Supermarkets",
                "storeFinderId": 2,
                "id": "COL"
            }
        },
        {
            "id": "COL:403",
            "name": "Coles Findon",
            "phone": "(08) 7326 2300",
            "isTrading": true,
            "address": {
                "state": "SA",
                "suburb": "Findon",
                "addressLine": "303 Grange Rd",
                "postcode": "5023"
            },
            "position": {
                "latitude": -34.905313,
                "longitude": 138.530681
            },
            "brand": {
                "name": "Coles Supermarkets",
                "storeFinderId": 2,
                "id": "COL"
            }
        },
        {
            "id": "COL:430",
            "name": "Coles Unley",
            "phone": "(08) 7085 2000",
            "isTrading": true,
            "address": {
                "state": "SA",
                "suburb": "Unley",
                "addressLine": "204 Unley Rd",
                "postcode": "5061"
            },
            "position": {
                "latitude": -34.950938,
                "longitude": 138.606088
            },
            "brand": {
                "name": "Coles Supermarkets",
                "storeFinderId": 2,
                "id": "COL"
            }
        },
        {
            "id": "COL:429",
            "name": "Coles Welland",
            "phone": "(08) 7326 9600",
            "isTrading": true,
            "address": {
                "state": "SA",
                "suburb": "Welland",
                "addressLine": "508-514 Port Rd",
                "postcode": "5007"
            },
            "position": {
                "latitude": -34.896768,
                "longitude": 138.556868
            },
            "brand": {
                "name": "Coles Supermarkets",
                "storeFinderId": 2,
                "id": "COL"
            }
        },
        {
            "id": "COL:4971",
            "name": "Coles St Clair",
            "phone": "(08) 8413 5200",
            "isTrading": true,
            "address": {
                "state": "SA",
                "suburb": "St Clair",
                "addressLine": "Cheltenham Pde",
                "postcode": "5011"
            },
            "position": {
                "latitude": -34.869156,
                "longitude": 138.530443
            },
            "brand": {
                "name": "Coles Supermarkets",
                "storeFinderId": 2,
                "id": "COL"
            }
        },
        {
            "id": "COL:4964",
            "name": "Coles Rundle Place",
            "phone": "(08) 8203 4100",
            "isTrading": true,
            "address": {
                "state": "SA",
                "suburb": "Adelaide",
                "addressLine": "Rundle Mall",
                "postcode": "5000"
            },
            "position": {
                "latitude": -34.923037,
                "longitude": 138.602634
            },
            "brand": {
                "name": "Coles Supermarkets",
                "storeFinderId": 2,
                "id": "COL"
            }
        },
        {
            "id": "COL:453",
            "name": "Coles Burnside",
            "phone": "(08) 7326 9100",
            "isTrading": true,
            "address": {
                "state": "SA",
                "suburb": "Glenside",
                "addressLine": "439 Portrush Rd",
                "postcode": "5065"
            },
            "position": {
                "latitude": -34.942051,
                "longitude": 138.6409
            },
            "brand": {
                "name": "Coles Supermarkets",
                "storeFinderId": 2,
                "id": "COL"
            }
        },
        {
            "id": "COL:445",
            "name": "Coles Bridgewater",
            "phone": "(08) 7321 1800",
            "isTrading": true,
            "address": {
                "state": "SA",
                "suburb": "Bridgewater",
                "addressLine": "Carey Gulley Rd",
                "postcode": "5155"
            },
            "position": {
                "latitude": -35.009239,
                "longitude": 138.75968
            },
            "brand": {
                "name": "Coles Supermarkets",
                "storeFinderId": 2,
                "id": "COL"
            }
        },
        {
            "id": "COL:7720",
            "name": "Coles Norwood",
            "phone": "(08) 7133 0000",
            "isTrading": true,
            "address": {
                "state": "SA",
                "suburb": "Norwood",
                "addressLine": "166 The Parade",
                "postcode": "5067"
            },
            "position": {
                "latitude": -34.921647,
                "longitude": 138.634717
            },
            "brand": {
                "name": "Coles Supermarkets",
                "storeFinderId": 2,
                "id": "COL"
            }
        },
        {
            "id": "COL:4940",
            "name": "Coles Mount Barker",
            "phone": "(08) 8399 2000",
            "isTrading": true,
            "address": {
                "state": "SA",
                "suburb": "Mount Barker",
                "addressLine": "Cameron St",
                "postcode": "5251"
            },
            "position": {
                "latitude": -35.063851,
                "longitude": 138.859714
            },
            "brand": {
                "name": "Coles Supermarkets",
                "storeFinderId": 2,
                "id": "COL"
            }
        },
        {
            "id": "COL:448",
            "name": "Coles The Avenues",
            "phone": "(08) 7085 2900",
            "isTrading": true,
            "address": {
                "state": "SA",
                "suburb": "Stepney",
                "addressLine": "Cnr Payneham Rd & Nelson St",
                "postcode": "5069"
            },
            "position": {
                "latitude": -34.909428,
                "longitude": 138.628539
            },
            "brand": {
                "name": "Coles Supermarkets",
                "storeFinderId": 2,
                "id": "COL"
            }
        },
        {
            "id": "COL:461",
            "name": "Coles Prospect",
            "phone": "(08) 8342 8400",
            "isTrading": true,
            "address": {
                "state": "SA",
                "suburb": "Prospect",
                "addressLine": "Prospect Rd & Staples Ct",
                "postcode": "5082"
            },
            "position": {
                "latitude": -34.88511,
                "longitude": 138.592936
            },
            "brand": {
                "name": "Coles Supermarkets",
                "storeFinderId": 2,
                "id": "COL"
            }
        },
        {
            "id": "COL:4970",
            "name": "Coles Murray Bridge",
            "phone": "(08) 8532 8300",
            "isTrading": true,
            "address": {
                "state": "SA",
                "suburb": "Murray Bridge",
                "addressLine": "Swanport Road & Riverview Road",
                "postcode": "5253"
            },
            "position": {
                "latitude": -35.12211,
                "longitude": 139.27457
            },
            "brand": {
                "name": "Coles Supermarkets",
                "storeFinderId": 2,
                "id": "COL"
            }
        },
        {
            "id": "COL:7609",
            "name": "Coles Churchill",
            "phone": null,
            "isTrading": false,
            "address": {
                "state": "SA",
                "suburb": "Kilburn",
                "addressLine": "390 Churchill Rd",
                "postcode": "5082"
            },
            "position": {
                "latitude": -34.862891,
                "longitude": 138.581287
            },
            "brand": {
                "name": "Coles Supermarkets",
                "storeFinderId": 2,
                "id": "COL"
            }
        },
        {
            "id": "COL:1111",
            "name": "Coles Test-Store Name",
            "phone": null,
            "isTrading": false,
            "address": {
                "state": "SA",
                "suburb": "Kilburn",
                "addressLine": "390 Churchill Rd",
                "postcode": "5082"
            },
            "position": {
                "latitude": -34.862891,
                "longitude": 138.581287
            },
            "brand": {
                "name": "Coles Supermarkets",
                "storeFinderId": 2,
                "id": "COL"
            }
        },
        {
            "id": "COL:4972",
            "name": "Coles Churchill",
            "phone": "(08) 8360 3800",
            "isTrading": true,
            "address": {
                "state": "SA",
                "suburb": "Kilburn",
                "addressLine": "390 Churchill Rd",
                "postcode": "5084"
            },
            "position": {
                "latitude": -34.862891,
                "longitude": 138.581287
            },
            "brand": {
                "name": "Coles Supermarkets",
                "storeFinderId": 2,
                "id": "COL"
            }
        },
        {
            "id": "COL:471",
            "name": "Coles Northpark",
            "phone": "(08) 7326 4900",
            "isTrading": true,
            "address": {
                "state": "SA",
                "suburb": "Prospect",
                "addressLine": "264 Main North Rd",
                "postcode": "5082"
            },
            "position": {
                "latitude": -34.875431,
                "longitude": 138.601084
            },
            "brand": {
                "name": "Coles Supermarkets",
                "storeFinderId": 2,
                "id": "COL"
            }
        },
        {
            "id": "COL:401",
            "name": "Coles Firle",
            "phone": "(08) 8130 7300",
            "isTrading": true,
            "address": {
                "state": "SA",
                "suburb": "Firle",
                "addressLine": "Cnr Glynburn Rd & Shelley St",
                "postcode": "5070"
            },
            "position": {
                "latitude": -34.905107,
                "longitude": 138.655247
            },
            "brand": {
                "name": "Coles Supermarkets",
                "storeFinderId": 2,
                "id": "COL"
            }
        },
        {
            "id": "COL:5808",
            "name": "Coles Stocktake Service SA",
            "phone": "(03) 8754 6500",
            "isTrading": false,
            "address": {
                "state": "SA",
                "suburb": "St Clair",
                "addressLine": "20b/40 Cheltenham Para",
                "postcode": "5011"
            },
            "position": {
                "latitude": -37.88219,
                "longitude": 144.70045
            },
            "brand": {
                "name": "Coles Supermarkets",
                "storeFinderId": 2,
                "id": "COL"
            }
        },
        {
            "id": "COL:4966",
            "name": "Coles Whyalla",
            "phone": "(08) 8647 8300",
            "isTrading": true,
            "address": {
                "state": "SA",
                "suburb": "Whyalla Norrie",
                "addressLine": "Mcdouall Stuart & Nicholson Ave",
                "postcode": "5608"
            },
            "position": {
                "latitude": -33.027315,
                "longitude": 137.531875
            },
            "brand": {
                "name": "Coles Supermarkets",
                "storeFinderId": 2,
                "id": "COL"
            }
        },
        {
            "id": "COL:446",
            "name": "Coles Newton",
            "phone": "(08) 7333 5300",
            "isTrading": true,
            "address": {
                "state": "SA",
                "suburb": "Newton",
                "addressLine": "Montacute Rd & Stradbroke Rd",
                "postcode": "5074"
            },
            "position": {
                "latitude": -34.886167,
                "longitude": 138.689966
            },
            "brand": {
                "name": "Coles Supermarkets",
                "storeFinderId": 2,
                "id": "COL"
            }
        },
        {
            "id": "COL:408",
            "name": "Coles Dernancourt",
            "phone": "(08) 8168 7300",
            "isTrading": true,
            "address": {
                "state": "SA",
                "suburb": "Dernancourt",
                "addressLine": "Lower North East Rd",
                "postcode": "5075"
            },
            "position": {
                "latitude": -34.862261,
                "longitude": 138.682428
            },
            "brand": {
                "name": "Coles Supermarkets",
                "storeFinderId": 2,
                "id": "COL"
            }
        },
        {
            "id": "COL:451",
            "name": "Coles Berri",
            "phone": "(08) 8582 2185",
            "isTrading": true,
            "address": {
                "state": "SA",
                "suburb": "Berri",
                "addressLine": "Kay Ave",
                "postcode": "5343"
            },
            "position": {
                "latitude": -34.280269,
                "longitude": 140.607884
            },
            "brand": {
                "name": "Coles Supermarkets",
                "storeFinderId": 2,
                "id": "COL"
            }
        },
        {
            "id": "COL:442",
            "name": "Coles Port Pirie",
            "phone": "(08) 7624 8900",
            "isTrading": true,
            "address": {
                "state": "SA",
                "suburb": "Port Pirie",
                "addressLine": "Grey Terrace",
                "postcode": "5540"
            },
            "position": {
                "latitude": -33.191796,
                "longitude": 138.006312
            },
            "brand": {
                "name": "Coles Supermarkets",
                "storeFinderId": 2,
                "id": "COL"
            }
        },
        {
            "id": "COL:4948",
            "name": "Coles Greenacres",
            "phone": "(08) 8368 6100",
            "isTrading": true,
            "address": {
                "state": "SA",
                "suburb": "Greenacres",
                "addressLine": "Cnr Muller & Floridale Rds",
                "postcode": "5086"
            },
            "position": {
                "latitude": -34.870801,
                "longitude": 138.634228
            },
            "brand": {
                "name": "Coles Supermarkets",
                "storeFinderId": 2,
                "id": "COL"
            }
        },
        {
            "id": "COL:414",
            "name": "Coles St Agnes",
            "phone": "(08) 7326 9000",
            "isTrading": true,
            "address": {
                "state": "SA",
                "suburb": "St Agnes",
                "addressLine": "1244 North East Rd",
                "postcode": "5097"
            },
            "position": {
                "latitude": -34.821648,
                "longitude": 138.717464
            },
            "brand": {
                "name": "Coles Supermarkets",
                "storeFinderId": 2,
                "id": "COL"
            }
        },
        {
            "id": "COL:459",
            "name": "Coles Tea Tree Plaza",
            "phone": "(08) 7333 5200",
            "isTrading": true,
            "address": {
                "state": "SA",
                "suburb": "Modbury",
                "addressLine": "976 North East Rd",
                "postcode": "5092"
            },
            "position": {
                "latitude": -34.83067,
                "longitude": 138.693553
            },
            "brand": {
                "name": "Coles Supermarkets",
                "storeFinderId": 2,
                "id": "COL"
            }
        },
        {
            "id": "COL:456",
            "name": "Coles Port Augusta",
            "phone": "(08) 8641 1700",
            "isTrading": true,
            "address": {
                "state": "SA",
                "suburb": "Port Augusta",
                "addressLine": "Cnr Jervois & Marryatt Streets",
                "postcode": "5700"
            },
            "position": {
                "latitude": -32.492107,
                "longitude": 137.76443
            },
            "brand": {
                "name": "Coles Supermarkets",
                "storeFinderId": 2,
                "id": "COL"
            }
        },
        {
            "id": "COL:4929",
            "name": "Coles Paralowie",
            "phone": "(08) 7326 2000",
            "isTrading": true,
            "address": {
                "state": "SA",
                "suburb": "Paralowie",
                "addressLine": "Boliver Rd & Liberator Dr",
                "postcode": "5108"
            },
            "position": {
                "latitude": -34.759035,
                "longitude": 138.595205
            },
            "brand": {
                "name": "Coles Supermarkets",
                "storeFinderId": 2,
                "id": "COL"
            }
        },
        {
            "id": "COL:439",
            "name": "Coles Salisbury Downs",
            "phone": "(08) 8286 0500",
            "isTrading": true,
            "address": {
                "state": "SA",
                "suburb": "Salisbury Downs",
                "addressLine": "Winzor St",
                "postcode": "5108"
            },
            "position": {
                "latitude": -34.768467,
                "longitude": 138.623485
            },
            "brand": {
                "name": "Coles Supermarkets",
                "storeFinderId": 2,
                "id": "COL"
            }
        },
        {
            "id": "COL:4981",
            "name": "Coles Parabanks",
            "phone": "(08) 8487 2000",
            "isTrading": true,
            "address": {
                "state": "SA",
                "suburb": "Salisbury",
                "addressLine": "John Street",
                "postcode": "5108"
            },
            "position": {
                "latitude": -34.761923,
                "longitude": 138.646431
            },
            "brand": {
                "name": "Coles Supermarkets",
                "storeFinderId": 2,
                "id": "COL"
            }
        },
        {
            "id": "COL:462",
            "name": "Coles Elizabeth",
            "phone": "(08) 8252 8655",
            "isTrading": true,
            "address": {
                "state": "SA",
                "suburb": "Elizabeth",
                "addressLine": "Philip Hwy",
                "postcode": "5112"
            },
            "position": {
                "latitude": -34.717588,
                "longitude": 138.667608
            },
            "brand": {
                "name": "Coles Supermarkets",
                "storeFinderId": 2,
                "id": "COL"
            }
        },
        {
            "id": "COL:4924",
            "name": "Coles Munno Para",
            "phone": "(08) 8286 3700",
            "isTrading": true,
            "address": {
                "state": "SA",
                "suburb": "Munno Para",
                "addressLine": "Main North Rd",
                "postcode": "5114"
            },
            "position": {
                "latitude": -34.686658,
                "longitude": 138.688823
            },
            "brand": {
                "name": "Coles Supermarkets",
                "storeFinderId": 2,
                "id": "COL"
            }
        },
        {
            "id": "COL:4949",
            "name": "Coles Ingle Farm Walkleys Rd",
            "phone": "(08) 8263 4533",
            "isTrading": true,
            "address": {
                "state": "SA",
                "suburb": "Ingle Farm",
                "addressLine": "219 - 247 Montague Rd",
                "postcode": "5098"
            },
            "position": {
                "latitude": -34.830589,
                "longitude": 138.646605
            },
            "brand": {
                "name": "Coles Supermarkets",
                "storeFinderId": 2,
                "id": "COL"
            }
        },
        {
            "id": "COL:444",
            "name": "Coles Gawler",
            "phone": "(08) 7506 7000",
            "isTrading": true,
            "address": {
                "state": "SA",
                "suburb": "Gawler",
                "addressLine": "Cnr Murray & Cowan Sts",
                "postcode": "5118"
            },
            "position": {
                "latitude": -34.595712,
                "longitude": 138.7479
            },
            "brand": {
                "name": "Coles Supermarkets",
                "storeFinderId": 2,
                "id": "COL"
            }
        },
        {
            "id": "COL:4978",
            "name": "Coles Gawler Green",
            "phone": "(08) 8522 8200",
            "isTrading": true,
            "address": {
                "state": "SA",
                "suburb": "Evanston Gardens",
                "addressLine": "4 Tulloch St",
                "postcode": "5116"
            },
            "position": {
                "latitude": -34.620492,
                "longitude": 138.739584
            },
            "brand": {
                "name": "Coles Supermarkets",
                "storeFinderId": 2,
                "id": "COL"
            }
        },
        {
            "id": "COL:4921",
            "name": "Coles Craigmore",
            "phone": "(08) 8252 1233",
            "isTrading": true,
            "address": {
                "state": "SA",
                "suburb": "Craigmore",
                "addressLine": "Yorktown Road",
                "postcode": "5114"
            },
            "position": {
                "latitude": -34.70865,
                "longitude": 138.704976
            },
            "brand": {
                "name": "Coles Supermarkets",
                "storeFinderId": 2,
                "id": "COL"
            }
        },
        {
            "id": "COL:423",
            "name": "Coles Ingle Farm",
            "phone": "(08) 7326 2200",
            "isTrading": true,
            "address": {
                "state": "SA",
                "suburb": "Ingle Farm",
                "addressLine": "Montague & Walkleys Rds",
                "postcode": "5098"
            },
            "position": {
                "latitude": -34.829894,
                "longitude": 138.648369
            },
            "brand": {
                "name": "Coles Supermarkets",
                "storeFinderId": 2,
                "id": "COL"
            }
        }
    ]
}