{
    "metadata": {
        "number_of_stores": 185,
        "company": "coles",
        "state": "VIC",
        "date_scraped": "2025-08-07"
    },
    "stores": [
        {
            "id": "COL:7730",
            "name": "Coles Warrnambool (lava St)",
            "phone": "(03) 5564 4900",
            "isTrading": true,
            "address": {
                "state": "VIC",
                "suburb": "Warrnambool",
                "addressLine": "130 Lava St",
                "postcode": "3280"
            },
            "position": {
                "latitude": -38.381353,
                "longitude": 142.483576
            },
            "brand": {
                "name": "Coles Supermarkets",
                "storeFinderId": 2,
                "id": "COL"
            }
        },
        {
            "id": "COL:596",
            "name": "Coles Northpoint",
            "phone": "(03) 5559 0700",
            "isTrading": true,
            "address": {
                "state": "VIC",
                "suburb": "Warrnambool North",
                "addressLine": "72 - 80 Hopkins Hwy",
                "postcode": "3280"
            },
            "position": {
                "latitude": -38.368649,
                "longitude": 142.49452
            },
            "brand": {
                "name": "Coles Supermarkets",
                "storeFinderId": 2,
                "id": "COL"
            }
        },
        {
            "id": "COL:563",
            "name": "Coles Warrnambool",
            "phone": "(03) 4504 6000",
            "isTrading": true,
            "address": {
                "state": "VIC",
                "suburb": "Warrnambool",
                "addressLine": "150 Raglan Parade",
                "postcode": "3280"
            },
            "position": {
                "latitude": -38.380958,
                "longitude": 142.520394
            },
            "brand": {
                "name": "Coles Supermarkets",
                "storeFinderId": 2,
                "id": "COL"
            }
        },
        {
            "id": "COL:7600",
            "name": "Coles Hamilton",
            "phone": "(03) 5551 0200",
            "isTrading": true,
            "address": {
                "state": "VIC",
                "suburb": "Hamilton",
                "addressLine": "179-193 Gray St",
                "postcode": "3300"
            },
            "position": {
                "latitude": -37.742446,
                "longitude": 142.02529
            },
            "brand": {
                "name": "Coles Supermarkets",
                "storeFinderId": 2,
                "id": "COL"
            }
        },
        {
            "id": "COL:7775",
            "name": "Coles Colac",
            "phone": "(03) 5216 3700",
            "isTrading": true,
            "address": {
                "state": "VIC",
                "suburb": "Colac",
                "addressLine": "Corner Of Bromfield Street And Queen Street Colac",
                "postcode": "3250"
            },
            "position": {
                "latitude": -38.341267,
                "longitude": 143.592556
            },
            "brand": {
                "name": "Coles Supermarkets",
                "storeFinderId": 2,
                "id": "COL"
            }
        },
        {
            "id": "COL:615",
            "name": "Coles Horsham",
            "phone": "(03) 5379 3200",
            "isTrading": true,
            "address": {
                "state": "VIC",
                "suburb": "Horsham",
                "addressLine": "Darlot St & Roberts Ave",
                "postcode": "3400"
            },
            "position": {
                "latitude": -36.714548,
                "longitude": 142.196634
            },
            "brand": {
                "name": "Coles Supermarkets",
                "storeFinderId": 2,
                "id": "COL"
            }
        },
        {
            "id": "COL:7593",
            "name": "Coles Online Hub Store Ocado - Melbourne - Team Shop",
            "phone": "(03) 9056 1100",
            "isTrading": false,
            "address": {
                "state": "VIC",
                "suburb": "Truganina",
                "addressLine": "442-540 Dohertys Rd",
                "postcode": "3029"
            },
            "position": {
                "latitude": -38.823872,
                "longitude": 144.75367
            },
            "brand": {
                "name": "Coles Supermarkets",
                "storeFinderId": 2,
                "id": "COL"
            }
        },
        {
            "id": "COL:7693",
            "name": "Coles Torquay",
            "phone": "(03) 5264 3100",
            "isTrading": true,
            "address": {
                "state": "VIC",
                "suburb": "Torquay",
                "addressLine": "41 Bristol Road",
                "postcode": "3228"
            },
            "position": {
                "latitude": -38.331819,
                "longitude": 144.32044
            },
            "brand": {
                "name": "Coles Supermarkets",
                "storeFinderId": 2,
                "id": "COL"
            }
        },
        {
            "id": "COL:7501",
            "name": "Coles Armstrong Creek",
            "phone": "(03) 7033 1300",
            "isTrading": true,
            "address": {
                "state": "VIC",
                "suburb": "Armstrong Creek",
                "addressLine": "Surf Coast Hwy",
                "postcode": "3217"
            },
            "position": {
                "latitude": -38.227766,
                "longitude": 144.339934
            },
            "brand": {
                "name": "Coles Supermarkets",
                "storeFinderId": 2,
                "id": "COL"
            }
        },
        {
            "id": "COL:7810",
            "name": "Coles Waurn Ponds",
            "phone": "(03) 5247 3000",
            "isTrading": true,
            "address": {
                "state": "VIC",
                "suburb": "Waurn Ponds",
                "addressLine": "Pioneer Rd & Princes Hwy",
                "postcode": "3216"
            },
            "position": {
                "latitude": -38.199304,
                "longitude": 144.318893
            },
            "brand": {
                "name": "Coles Supermarkets",
                "storeFinderId": 2,
                "id": "COL"
            }
        },
        {
            "id": "COL:7796",
            "name": "Coles Belmont (high Street)",
            "phone": "(03) 5243 1922",
            "isTrading": true,
            "address": {
                "state": "VIC",
                "suburb": "Belmont",
                "addressLine": "158 - 162a High St",
                "postcode": "3216"
            },
            "position": {
                "latitude": -38.174162,
                "longitude": 144.342868
            },
            "brand": {
                "name": "Coles Supermarkets",
                "storeFinderId": 2,
                "id": "COL"
            }
        },
        {
            "id": "COL:501",
            "name": "Coles Belmont",
            "phone": "(03) 4249 1700",
            "isTrading": true,
            "address": {
                "state": "VIC",
                "suburb": "Belmont",
                "addressLine": "65 High St",
                "postcode": "3216"
            },
            "position": {
                "latitude": -38.170312,
                "longitude": 144.348988
            },
            "brand": {
                "name": "Coles Supermarkets",
                "storeFinderId": 2,
                "id": "COL"
            }
        },
        {
            "id": "COL:7917",
            "name": "Coles Geelong West",
            "phone": "(03) 5223 8100",
            "isTrading": true,
            "address": {
                "state": "VIC",
                "suburb": "Geelong West",
                "addressLine": "166 - 188 Shannon Ave",
                "postcode": "3218"
            },
            "position": {
                "latitude": -38.139142,
                "longitude": 144.336909
            },
            "brand": {
                "name": "Coles Supermarkets",
                "storeFinderId": 2,
                "id": "COL"
            }
        },
        {
            "id": "COL:7781",
            "name": "Coles Geelong",
            "phone": "(03) 5223 5900",
            "isTrading": true,
            "address": {
                "state": "VIC",
                "suburb": "Geelong",
                "addressLine": "Moorabool St & Brougham St",
                "postcode": "3220"
            },
            "position": {
                "latitude": -38.146526,
                "longitude": 144.363411
            },
            "brand": {
                "name": "Coles Supermarkets",
                "storeFinderId": 2,
                "id": "COL"
            }
        },
        {
            "id": "COL:665",
            "name": "Coles Ocean Grove",
            "phone": "(03) 5216 3600",
            "isTrading": true,
            "address": {
                "state": "VIC",
                "suburb": "Ocean Grove",
                "addressLine": "77 The Terrace",
                "postcode": "3226"
            },
            "position": {
                "latitude": -38.267773,
                "longitude": 144.523312
            },
            "brand": {
                "name": "Coles Supermarkets",
                "storeFinderId": 2,
                "id": "COL"
            }
        },
        {
            "id": "COL:538",
            "name": "Coles Leopold",
            "phone": "(03) 5250 2183",
            "isTrading": true,
            "address": {
                "state": "VIC",
                "suburb": "Leopold",
                "addressLine": "621 - 659 Bellarine Hwy",
                "postcode": "3224"
            },
            "position": {
                "latitude": -38.185718,
                "longitude": 144.453556
            },
            "brand": {
                "name": "Coles Supermarkets",
                "storeFinderId": 2,
                "id": "COL"
            }
        },
        {
            "id": "COL:511",
            "name": "Coles Corio",
            "phone": "(03) 5272 9100",
            "isTrading": true,
            "address": {
                "state": "VIC",
                "suburb": "Corio",
                "addressLine": "Bacchus Marsh Rd & Purnell Rd",
                "postcode": "3214"
            },
            "position": {
                "latitude": -38.075488,
                "longitude": 144.355075
            },
            "brand": {
                "name": "Coles Supermarkets",
                "storeFinderId": 2,
                "id": "COL"
            }
        },
        {
            "id": "COL:8787",
            "name": "Coles Wonthaggi",
            "phone": "(03) 5672 0100",
            "isTrading": true,
            "address": {
                "state": "VIC",
                "suburb": "Wonthaggi",
                "addressLine": "2 Biggs Dr",
                "postcode": "3995"
            },
            "position": {
                "latitude": -38.60354,
                "longitude": 145.587692
            },
            "brand": {
                "name": "Coles Supermarkets",
                "storeFinderId": 2,
                "id": "COL"
            }
        },
        {
            "id": "COL:7868",
            "name": "Coles Cowes",
            "phone": "(03) 5951 2400",
            "isTrading": true,
            "address": {
                "state": "VIC",
                "suburb": "Cowes",
                "addressLine": "Cnr Church St & Thompson St",
                "postcode": "3922"
            },
            "position": {
                "latitude": -38.452627,
                "longitude": 145.238475
            },
            "brand": {
                "name": "Coles Supermarkets",
                "storeFinderId": 2,
                "id": "COL"
            }
        },
        {
            "id": "COL:696",
            "name": "Coles Rosebud",
            "phone": "(03) 5999 8800",
            "isTrading": true,
            "address": {
                "state": "VIC",
                "suburb": "Rosebud",
                "addressLine": "Boneo Rd & Mccombe St",
                "postcode": "3939"
            },
            "position": {
                "latitude": -38.361353,
                "longitude": 144.890575
            },
            "brand": {
                "name": "Coles Supermarkets",
                "storeFinderId": 2,
                "id": "COL"
            }
        },
        {
            "id": "COL:541",
            "name": "Coles Mccrae",
            "phone": "(03) 5986 2833",
            "isTrading": true,
            "address": {
                "state": "VIC",
                "suburb": "Mccrae",
                "addressLine": "Nepean Hwy & Lonsdale St",
                "postcode": "3938"
            },
            "position": {
                "latitude": -38.351485,
                "longitude": 144.922578
            },
            "brand": {
                "name": "Coles Supermarkets",
                "storeFinderId": 2,
                "id": "COL"
            }
        },
        {
            "id": "COL:640",
            "name": "Coles Hastings",
            "phone": "(03) 5979 1700",
            "isTrading": true,
            "address": {
                "state": "VIC",
                "suburb": "Hastings",
                "addressLine": "Church St & Victoria St",
                "postcode": "3915"
            },
            "position": {
                "latitude": -38.306233,
                "longitude": 145.191385
            },
            "brand": {
                "name": "Coles Supermarkets",
                "storeFinderId": 2,
                "id": "COL"
            }
        },
        {
            "id": "COL:561",
            "name": "Coles Morwell",
            "phone": "(03) 5116 5400",
            "isTrading": true,
            "address": {
                "state": "VIC",
                "suburb": "Morwell",
                "addressLine": "82 George St",
                "postcode": "3840"
            },
            "position": {
                "latitude": -38.239109,
                "longitude": 146.398043
            },
            "brand": {
                "name": "Coles Supermarkets",
                "storeFinderId": 2,
                "id": "COL"
            }
        },
        {
            "id": "COL:694",
            "name": "Coles Traralgon",
            "phone": "(03) 5184 2700",
            "isTrading": true,
            "address": {
                "state": "VIC",
                "suburb": "Traralgon",
                "addressLine": "Franklin St & Grey St",
                "postcode": "3844"
            },
            "position": {
                "latitude": -38.19426,
                "longitude": 146.539981
            },
            "brand": {
                "name": "Coles Supermarkets",
                "storeFinderId": 2,
                "id": "COL"
            }
        },
        {
            "id": "COL:4184",
            "name": "Coles Traralgon Village",
            "phone": "(03) 4114 1100",
            "isTrading": true,
            "address": {
                "state": "VIC",
                "suburb": "Traralgon",
                "addressLine": "2 Marshalls Road",
                "postcode": "3844"
            },
            "position": {
                "latitude": -38.179732,
                "longitude": 146.561915
            },
            "brand": {
                "name": "Coles Supermarkets",
                "storeFinderId": 2,
                "id": "COL"
            }
        },
        {
            "id": "COL:679",
            "name": "Coles Sale",
            "phone": "(03) 4113 8300",
            "isTrading": true,
            "address": {
                "state": "VIC",
                "suburb": "Sale",
                "addressLine": "Cunninghame St & Reeves St",
                "postcode": "3850"
            },
            "position": {
                "latitude": -38.10663,
                "longitude": 147.06439
            },
            "brand": {
                "name": "Coles Supermarkets",
                "storeFinderId": 2,
                "id": "COL"
            }
        },
        {
            "id": "COL:548",
            "name": "Coles Bairnsdale",
            "phone": "(03) 5198 8800",
            "isTrading": true,
            "address": {
                "state": "VIC",
                "suburb": "Bairnsdale",
                "addressLine": "96-118 Main St",
                "postcode": "3875"
            },
            "position": {
                "latitude": -37.82475,
                "longitude": 147.63247
            },
            "brand": {
                "name": "Coles Supermarkets",
                "storeFinderId": 2,
                "id": "COL"
            }
        },
        {
            "id": "COL:7714",
            "name": "Coles Sebastopol",
            "phone": "(03) 4334 7500",
            "isTrading": true,
            "address": {
                "state": "VIC",
                "suburb": "Sebastopol",
                "addressLine": "212 Albert St",
                "postcode": "3356"
            },
            "position": {
                "latitude": -37.599787,
                "longitude": 143.840322
            },
            "brand": {
                "name": "Coles Supermarkets",
                "storeFinderId": 2,
                "id": "COL"
            }
        },
        {
            "id": "COL:7620",
            "name": "Coles Drysdale",
            "phone": "(03) 5216 3500",
            "isTrading": true,
            "address": {
                "state": "VIC",
                "suburb": "Drysdale",
                "addressLine": "Murradoc Rd",
                "postcode": "3222"
            },
            "position": {
                "latitude": -38.173703,
                "longitude": 144.571581
            },
            "brand": {
                "name": "Coles Supermarkets",
                "storeFinderId": 2,
                "id": "COL"
            }
        },
        {
            "id": "COL:7776",
            "name": "Coles Lara",
            "phone": "(03) 5283 8400",
            "isTrading": true,
            "address": {
                "state": "VIC",
                "suburb": "Lara",
                "addressLine": "Waverley Rd",
                "postcode": "3212"
            },
            "position": {
                "latitude": -38.023081,
                "longitude": 144.409426
            },
            "brand": {
                "name": "Coles Supermarkets",
                "storeFinderId": 2,
                "id": "COL"
            }
        },
        {
            "id": "COL:626",
            "name": "Coles Moe",
            "phone": "(03) 5127 4395",
            "isTrading": true,
            "address": {
                "state": "VIC",
                "suburb": "Moe",
                "addressLine": "92 Albert St",
                "postcode": "3825"
            },
            "position": {
                "latitude": -38.174301,
                "longitude": 146.25912
            },
            "brand": {
                "name": "Coles Supermarkets",
                "storeFinderId": 2,
                "id": "COL"
            }
        },
        {
            "id": "COL:616",
            "name": "Coles Wendouree",
            "phone": "(03) 4334 8900",
            "isTrading": true,
            "address": {
                "state": "VIC",
                "suburb": "Wendouree",
                "addressLine": "Gillies St & Norman St",
                "postcode": "3355"
            },
            "position": {
                "latitude": -37.534122,
                "longitude": 143.82423
            },
            "brand": {
                "name": "Coles Supermarkets",
                "storeFinderId": 2,
                "id": "COL"
            }
        },
        {
            "id": "COL:628",
            "name": "Coles Ballarat (peel St)",
            "phone": "(03) 4334 5700",
            "isTrading": true,
            "address": {
                "state": "VIC",
                "suburb": "Ballarat",
                "addressLine": "6-20 Peel St",
                "postcode": "3350"
            },
            "position": {
                "latitude": -37.564081,
                "longitude": 143.862705
            },
            "brand": {
                "name": "Coles Supermarkets",
                "storeFinderId": 2,
                "id": "COL"
            }
        },
        {
            "id": "COL:7798",
            "name": "Coles Ballarat (victoria St)",
            "phone": "(03) 5338 8811",
            "isTrading": true,
            "address": {
                "state": "VIC",
                "suburb": "Ballarat",
                "addressLine": "73 Victoria St",
                "postcode": "3350"
            },
            "position": {
                "latitude": -37.561905,
                "longitude": 143.868402
            },
            "brand": {
                "name": "Coles Supermarkets",
                "storeFinderId": 2,
                "id": "COL"
            }
        },
        {
            "id": "COL:7266",
            "name": "Coles Mornington Tyabb Road",
            "phone": "(03) 5972 3200",
            "isTrading": true,
            "address": {
                "state": "VIC",
                "suburb": "Mornington",
                "addressLine": "61 Mornington Tyabb Road",
                "postcode": "3931"
            },
            "position": {
                "latitude": -38.23339,
                "longitude": 145.051068
            },
            "brand": {
                "name": "Coles Supermarkets",
                "storeFinderId": 2,
                "id": "COL"
            }
        },
        {
            "id": "COL:673",
            "name": "Coles Mornington",
            "phone": "(03) 5958 9200",
            "isTrading": true,
            "address": {
                "state": "VIC",
                "suburb": "Mornington",
                "addressLine": "Franklin St & Gordon St",
                "postcode": "3931"
            },
            "position": {
                "latitude": -38.219111,
                "longitude": 145.039236
            },
            "brand": {
                "name": "Coles Supermarkets",
                "storeFinderId": 2,
                "id": "COL"
            }
        },
        {
            "id": "COL:591",
            "name": "Coles Somerville",
            "phone": "(03) 5973 1500",
            "isTrading": true,
            "address": {
                "state": "VIC",
                "suburb": "Somerville",
                "addressLine": "49 Eramosa Rd",
                "postcode": "3912"
            },
            "position": {
                "latitude": -38.223547,
                "longitude": 145.170204
            },
            "brand": {
                "name": "Coles Supermarkets",
                "storeFinderId": 2,
                "id": "COL"
            }
        },
        {
            "id": "COL:7690",
            "name": "Coles Karingal Hub",
            "phone": "(03) 9056 1300",
            "isTrading": true,
            "address": {
                "state": "VIC",
                "suburb": "Frankston",
                "addressLine": "Cranbourne Rd & Karingal Drv",
                "postcode": "3199"
            },
            "position": {
                "latitude": -38.151765,
                "longitude": 145.16674
            },
            "brand": {
                "name": "Coles Supermarkets",
                "storeFinderId": 2,
                "id": "COL"
            }
        },
        {
            "id": "COL:670",
            "name": "Coles Langwarrin",
            "phone": "(03) 9785 9521",
            "isTrading": true,
            "address": {
                "state": "VIC",
                "suburb": "Langwarrin",
                "addressLine": "Cranbourne Rd & South Gateway",
                "postcode": "3910"
            },
            "position": {
                "latitude": -38.15036,
                "longitude": 145.196352
            },
            "brand": {
                "name": "Coles Supermarkets",
                "storeFinderId": 2,
                "id": "COL"
            }
        },
        {
            "id": "COL:7733",
            "name": "Coles Botanic Ridge",
            "phone": "(03) 9056 0100",
            "isTrading": true,
            "address": {
                "state": "VIC",
                "suburb": "Botanic Ridge",
                "addressLine": "Craig Road",
                "postcode": "3977"
            },
            "position": {
                "latitude": -38.148154,
                "longitude": 145.285791
            },
            "brand": {
                "name": "Coles Supermarkets",
                "storeFinderId": 2,
                "id": "COL"
            }
        },
        {
            "id": "COL:547",
            "name": "Coles Warragul",
            "phone": "(03) 5630 1600",
            "isTrading": true,
            "address": {
                "state": "VIC",
                "suburb": "Warragul",
                "addressLine": "30 Palmerston St",
                "postcode": "3820"
            },
            "position": {
                "latitude": -38.1621,
                "longitude": 145.932049
            },
            "brand": {
                "name": "Coles Supermarkets",
                "storeFinderId": 2,
                "id": "COL"
            }
        },
        {
            "id": "COL:652",
            "name": "Coles Frankston",
            "phone": "(03) 8750 5600",
            "isTrading": true,
            "address": {
                "state": "VIC",
                "suburb": "Frankston",
                "addressLine": "Keys St & Ross Smith Ave",
                "postcode": "3199"
            },
            "position": {
                "latitude": -38.142198,
                "longitude": 145.123418
            },
            "brand": {
                "name": "Coles Supermarkets",
                "storeFinderId": 2,
                "id": "COL"
            }
        },
        {
            "id": "COL:629",
            "name": "Coles Drouin",
            "phone": "(03) 7041 3900",
            "isTrading": true,
            "address": {
                "state": "VIC",
                "suburb": "Drouin",
                "addressLine": "Young St & Hope St",
                "postcode": "3818"
            },
            "position": {
                "latitude": -38.134454,
                "longitude": 145.856336
            },
            "brand": {
                "name": "Coles Supermarkets",
                "storeFinderId": 2,
                "id": "COL"
            }
        },
        {
            "id": "COL:7679",
            "name": "Coles Harpley",
            "phone": "(03) 8744 9800",
            "isTrading": true,
            "address": {
                "state": "VIC",
                "suburb": "Harpley",
                "addressLine": "Harpley Town Centre, 2 Bradfield Street",
                "postcode": "3030"
            },
            "position": {
                "latitude": -37.911603,
                "longitude": 144.614953
            },
            "brand": {
                "name": "Coles Supermarkets",
                "storeFinderId": 2,
                "id": "COL"
            }
        },
        {
            "id": "COL:7935",
            "name": "Coles Carrum Downs",
            "phone": "(03) 8770 5400",
            "isTrading": true,
            "address": {
                "state": "VIC",
                "suburb": "Carrum Downs",
                "addressLine": "335 Ballarto Rd",
                "postcode": "3201"
            },
            "position": {
                "latitude": -38.115447,
                "longitude": 145.193114
            },
            "brand": {
                "name": "Coles Supermarkets",
                "storeFinderId": 2,
                "id": "COL"
            }
        },
        {
            "id": "COL:7758",
            "name": "Coles Clyde North",
            "phone": "(03) 5991 6300",
            "isTrading": true,
            "address": {
                "state": "VIC",
                "suburb": "Clyde North",
                "addressLine": "Berwick Cranbourne Rd",
                "postcode": "3978"
            },
            "position": {
                "latitude": -38.119066,
                "longitude": 145.321605
            },
            "brand": {
                "name": "Coles Supermarkets",
                "storeFinderId": 2,
                "id": "COL"
            }
        },
        {
            "id": "COL:7918",
            "name": "Coles Cranbourne",
            "phone": "(03) 5991 1100",
            "isTrading": true,
            "address": {
                "state": "VIC",
                "suburb": "Cranbourne",
                "addressLine": "High Street",
                "postcode": "3977"
            },
            "position": {
                "latitude": -38.107157,
                "longitude": 145.28184
            },
            "brand": {
                "name": "Coles Supermarkets",
                "storeFinderId": 2,
                "id": "COL"
            }
        },
        {
            "id": "COL:621",
            "name": "Coles Cranbourne West",
            "phone": "(03) 8468 4300",
            "isTrading": true,
            "address": {
                "state": "VIC",
                "suburb": "Cranbourne West",
                "addressLine": "Duff St & Monahans Rd",
                "postcode": "3977"
            },
            "position": {
                "latitude": -38.102828,
                "longitude": 145.265069
            },
            "brand": {
                "name": "Coles Supermarkets",
                "storeFinderId": 2,
                "id": "COL"
            }
        },
        {
            "id": "COL:7748",
            "name": "Coles St Germain",
            "phone": "(03) 8750 6100",
            "isTrading": true,
            "address": {
                "state": "VIC",
                "suburb": "Clyde North",
                "addressLine": "1/21 St Germain Boulevard",
                "postcode": "3978"
            },
            "position": {
                "latitude": -38.093258,
                "longitude": 145.361514
            },
            "brand": {
                "name": "Coles Supermarkets",
                "storeFinderId": 2,
                "id": "COL"
            }
        },
        {
            "id": "COL:603",
            "name": "Coles Heritage Springs",
            "phone": "(03) 5945 7000",
            "isTrading": true,
            "address": {
                "state": "VIC",
                "suburb": "Pakenham",
                "addressLine": "Henry Rd & Mcgregor Rd",
                "postcode": "3810"
            },
            "position": {
                "latitude": -38.085666,
                "longitude": 145.470788
            },
            "brand": {
                "name": "Coles Supermarkets",
                "storeFinderId": 2,
                "id": "COL"
            }
        },
        {
            "id": "COL:674",
            "name": "Coles Pakenham",
            "phone": "(03) 5941 3041",
            "isTrading": true,
            "address": {
                "state": "VIC",
                "suburb": "Pakenham",
                "addressLine": "67 - 69 Main Street",
                "postcode": "3810"
            },
            "position": {
                "latitude": -38.077578,
                "longitude": 145.47839
            },
            "brand": {
                "name": "Coles Supermarkets",
                "storeFinderId": 2,
                "id": "COL"
            }
        },
        {
            "id": "COL:7601",
            "name": "Coles Springhill",
            "phone": "(03) 5991 8100",
            "isTrading": true,
            "address": {
                "state": "VIC",
                "suburb": "Cranbourne",
                "addressLine": "Springhill Dr",
                "postcode": "3977"
            },
            "position": {
                "latitude": -38.084233,
                "longitude": 145.291246
            },
            "brand": {
                "name": "Coles Supermarkets",
                "storeFinderId": 2,
                "id": "COL"
            }
        },
        {
            "id": "COL:7623",
            "name": "Coles Cardinia Lakes",
            "phone": "(03) 5945 2900",
            "isTrading": true,
            "address": {
                "state": "VIC",
                "suburb": "Pakenham",
                "addressLine": "Winderemere Boulevard",
                "postcode": "3810"
            },
            "position": {
                "latitude": -38.063137,
                "longitude": 145.506755
            },
            "brand": {
                "name": "Coles Supermarkets",
                "storeFinderId": 2,
                "id": "COL"
            }
        },
        {
            "id": "COL:520",
            "name": "Coles Village Lakeside",
            "phone": "(03) 5940 1258",
            "isTrading": true,
            "address": {
                "state": "VIC",
                "suburb": "Pakenham",
                "addressLine": "Princes Hwy & Lakeside Blv",
                "postcode": "3810"
            },
            "position": {
                "latitude": -38.063411,
                "longitude": 145.454958
            },
            "brand": {
                "name": "Coles Supermarkets",
                "storeFinderId": 2,
                "id": "COL"
            }
        },
        {
            "id": "COL:544",
            "name": "Coles Eden Rise",
            "phone": "(03) 9703 9300",
            "isTrading": true,
            "address": {
                "state": "VIC",
                "suburb": "Berwick South",
                "addressLine": "Corner Of O'shea Rd And Clyde Rd",
                "postcode": "3806"
            },
            "position": {
                "latitude": -38.061105,
                "longitude": 145.339593
            },
            "brand": {
                "name": "Coles Supermarkets",
                "storeFinderId": 2,
                "id": "COL"
            }
        },
        {
            "id": "COL:7992",
            "name": "Coles Maryborough",
            "phone": "(03) 5460 3000",
            "isTrading": true,
            "address": {
                "state": "VIC",
                "suburb": "Maryborough",
                "addressLine": "Tuaggra St & Burke St",
                "postcode": "3465"
            },
            "position": {
                "latitude": -37.048304,
                "longitude": 143.741885
            },
            "brand": {
                "name": "Coles Supermarkets",
                "storeFinderId": 2,
                "id": "COL"
            }
        },
        {
            "id": "COL:7777",
            "name": "Coles Werribee",
            "phone": "(03) 9741 2111",
            "isTrading": true,
            "address": {
                "state": "VIC",
                "suburb": "Werribee",
                "addressLine": "143 Watton St",
                "postcode": "3030"
            },
            "position": {
                "latitude": -37.903212,
                "longitude": 144.659629
            },
            "brand": {
                "name": "Coles Supermarkets",
                "storeFinderId": 2,
                "id": "COL"
            }
        },
        {
            "id": "COL:556",
            "name": "Coles Manor Lakes",
            "phone": "(03) 7031 4600",
            "isTrading": true,
            "address": {
                "state": "VIC",
                "suburb": "Wyndham Vale",
                "addressLine": "8 Manor Lakes Blvd",
                "postcode": "3024"
            },
            "position": {
                "latitude": -37.875759,
                "longitude": 144.614127
            },
            "brand": {
                "name": "Coles Supermarkets",
                "storeFinderId": 2,
                "id": "COL"
            }
        },
        {
            "id": "COL:531",
            "name": "Coles Patterson Lakes",
            "phone": "(03) 9782 7500",
            "isTrading": true,
            "address": {
                "state": "VIC",
                "suburb": "Patterson Lakes",
                "addressLine": "Gladesville Blvd & Mcleod Rd",
                "postcode": "3197"
            },
            "position": {
                "latitude": -38.068686,
                "longitude": 145.144263
            },
            "brand": {
                "name": "Coles Supermarkets",
                "storeFinderId": 2,
                "id": "COL"
            }
        },
        {
            "id": "COL:7697",
            "name": "Coles Casey Central",
            "phone": "(03) 9705 4300",
            "isTrading": true,
            "address": {
                "state": "VIC",
                "suburb": "Narre Warren",
                "addressLine": "Narre Warren - Cranbourne Rd",
                "postcode": "3805"
            },
            "position": {
                "latitude": -38.068601,
                "longitude": 145.30058
            },
            "brand": {
                "name": "Coles Supermarkets",
                "storeFinderId": 2,
                "id": "COL"
            }
        },
        {
            "id": "COL:7695",
            "name": "Coles Berwick Central",
            "phone": "(03) 8768 5400",
            "isTrading": true,
            "address": {
                "state": "VIC",
                "suburb": "Berwick",
                "addressLine": "2 Richardson Grove",
                "postcode": "3806"
            },
            "position": {
                "latitude": -38.031978,
                "longitude": 145.344894
            },
            "brand": {
                "name": "Coles Supermarkets",
                "storeFinderId": 2,
                "id": "COL"
            }
        },
        {
            "id": "COL:7731",
            "name": "Coles Parkhill Junction",
            "phone": "(03) 8794 5100",
            "isTrading": true,
            "address": {
                "state": "VIC",
                "suburb": "Berwick",
                "addressLine": "215 - 225 Parkhill Drive",
                "postcode": "3806"
            },
            "position": {
                "latitude": -38.014203,
                "longitude": 145.322069
            },
            "brand": {
                "name": "Coles Supermarkets",
                "storeFinderId": 2,
                "id": "COL"
            }
        },
        {
            "id": "COL:8786",
            "name": "Coles Fountain Gate",
            "phone": "(03) 8794 0400",
            "isTrading": true,
            "address": {
                "state": "VIC",
                "suburb": "Narre Warren",
                "addressLine": "Princes Hwy & Magid Dr",
                "postcode": "3805"
            },
            "position": {
                "latitude": -38.018566,
                "longitude": 145.306741
            },
            "brand": {
                "name": "Coles Supermarkets",
                "storeFinderId": 2,
                "id": "COL"
            }
        },
        {
            "id": "COL:7894",
            "name": "Coles Myrtleford",
            "phone": "(03) 5752 1111",
            "isTrading": true,
            "address": {
                "state": "VIC",
                "suburb": "Myrtleford",
                "addressLine": "37 Clyde St",
                "postcode": "3737"
            },
            "position": {
                "latitude": -36.561353,
                "longitude": 146.726168
            },
            "brand": {
                "name": "Coles Supermarkets",
                "storeFinderId": 2,
                "id": "COL"
            }
        },
        {
            "id": "COL:562",
            "name": "Coles Daylesford",
            "phone": "(03) 5325 7200",
            "isTrading": true,
            "address": {
                "state": "VIC",
                "suburb": "Daylesford",
                "addressLine": "Albert St & Bridport St",
                "postcode": "3460"
            },
            "position": {
                "latitude": -37.342047,
                "longitude": 144.141943
            },
            "brand": {
                "name": "Coles Supermarkets",
                "storeFinderId": 2,
                "id": "COL"
            }
        },
        {
            "id": "COL:672",
            "name": "Coles Bacchus Marsh",
            "phone": "(03) 5366 0500",
            "isTrading": true,
            "address": {
                "state": "VIC",
                "suburb": "Bacchus Marsh",
                "addressLine": "Main St & Young St",
                "postcode": "3340"
            },
            "position": {
                "latitude": -37.675055,
                "longitude": 144.439702
            },
            "brand": {
                "name": "Coles Supermarkets",
                "storeFinderId": 2,
                "id": "COL"
            }
        },
        {
            "id": "COL:691",
            "name": "Coles Werribee Plaza",
            "phone": "(03) 9974 7300",
            "isTrading": true,
            "address": {
                "state": "VIC",
                "suburb": "Hoppers Crossing",
                "addressLine": "Derrimut Rd & Heaths Rd",
                "postcode": "3029"
            },
            "position": {
                "latitude": -37.874789,
                "longitude": 144.679428
            },
            "brand": {
                "name": "Coles Supermarkets",
                "storeFinderId": 2,
                "id": "COL"
            }
        },
        {
            "id": "COL:5810",
            "name": "Coles Cs Stctk Serv VIC M1",
            "phone": "(03) 8754 6500",
            "isTrading": false,
            "address": {
                "state": "VIC",
                "suburb": "Hawthorn East",
                "addressLine": "800 Toorak Road",
                "postcode": "3123"
            },
            "position": {
                "latitude": -37.88219,
                "longitude": 144.70045
            },
            "brand": {
                "name": "Coles Supermarkets",
                "storeFinderId": 2,
                "id": "COL"
            }
        },
        {
            "id": "COL:5811",
            "name": "Coles Cs Stctk Serv VIC  M2",
            "phone": "(03) 8754 6500",
            "isTrading": false,
            "address": {
                "state": "VIC",
                "suburb": "Hawthorn East",
                "addressLine": "800 Toorak Road",
                "postcode": "3123"
            },
            "position": {
                "latitude": -37.88219,
                "longitude": 144.70045
            },
            "brand": {
                "name": "Coles Supermarkets",
                "storeFinderId": 2,
                "id": "COL"
            }
        },
        {
            "id": "COL:5812",
            "name": "Coles Cs Stctk Serv VIC  M3",
            "phone": "(03) 8754 6500",
            "isTrading": false,
            "address": {
                "state": "VIC",
                "suburb": "Hawthorn East",
                "addressLine": "800 Toorak Road",
                "postcode": "3123"
            },
            "position": {
                "latitude": -37.88219,
                "longitude": 144.70045
            },
            "brand": {
                "name": "Coles Supermarkets",
                "storeFinderId": 2,
                "id": "COL"
            }
        },
        {
            "id": "COL:699",
            "name": "Coles Lynbrook",
            "phone": "(03) 8787 5755",
            "isTrading": true,
            "address": {
                "state": "VIC",
                "suburb": "Lynbrook",
                "addressLine": "75 Lynbrook Blvd",
                "postcode": "3975"
            },
            "position": {
                "latitude": -38.051892,
                "longitude": 145.256712
            },
            "brand": {
                "name": "Coles Supermarkets",
                "storeFinderId": 2,
                "id": "COL"
            }
        },
        {
            "id": "COL:7655",
            "name": "Coles Online Hub Store Ocado Spoke - Dandenong",
            "phone": "(03) 9056 1100",
            "isTrading": false,
            "address": {
                "state": "VIC",
                "suburb": "Dandenong South",
                "addressLine": "59 Colemans Road",
                "postcode": "3175"
            },
            "position": {
                "latitude": -38.039753,
                "longitude": 145.217968
            },
            "brand": {
                "name": "Coles Supermarkets",
                "storeFinderId": 2,
                "id": "COL"
            }
        },
        {
            "id": "COL:680",
            "name": "Coles Healesville",
            "phone": "(03) 5999 9100",
            "isTrading": true,
            "address": {
                "state": "VIC",
                "suburb": "Healesville",
                "addressLine": "251 Maroondah Highway",
                "postcode": "3777"
            },
            "position": {
                "latitude": -37.652555,
                "longitude": 145.518626
            },
            "brand": {
                "name": "Coles Supermarkets",
                "storeFinderId": 2,
                "id": "COL"
            }
        },
        {
            "id": "COL:7698",
            "name": "Coles Wodonga",
            "phone": "(02) 6048 6700",
            "isTrading": true,
            "address": {
                "state": "VIC",
                "suburb": "Wodonga",
                "addressLine": "Elgin Boulevard Wodonga",
                "postcode": "3690"
            },
            "position": {
                "latitude": -36.119816,
                "longitude": 146.889546
            },
            "brand": {
                "name": "Coles Supermarkets",
                "storeFinderId": 2,
                "id": "COL"
            }
        },
        {
            "id": "COL:636",
            "name": "Coles Wodonga Plaza",
            "phone": "(02) 6024 5588",
            "isTrading": true,
            "address": {
                "state": "VIC",
                "suburb": "Wodonga",
                "addressLine": "Elgin St & Watson St",
                "postcode": "3690"
            },
            "position": {
                "latitude": -36.120295,
                "longitude": 146.88184
            },
            "brand": {
                "name": "Coles Supermarkets",
                "storeFinderId": 2,
                "id": "COL"
            }
        },
        {
            "id": "COL:658",
            "name": "Coles Birallee Park",
            "phone": "(02) 6059 4900",
            "isTrading": true,
            "address": {
                "state": "VIC",
                "suburb": "Wodonga",
                "addressLine": "99 Melrose Drv",
                "postcode": "3690"
            },
            "position": {
                "latitude": -36.128426,
                "longitude": 146.864416
            },
            "brand": {
                "name": "Coles Supermarkets",
                "storeFinderId": 2,
                "id": "COL"
            }
        },
        {
            "id": "COL:5804",
            "name": "Coles Tarneit Davis Road",
            "phone": "(03) 9084 7500",
            "isTrading": true,
            "address": {
                "state": "VIC",
                "suburb": "Tarneit",
                "addressLine": "200 Hummingbird Boulevard",
                "postcode": "3029"
            },
            "position": {
                "latitude": -37.833759,
                "longitude": 144.650923
            },
            "brand": {
                "name": "Coles Supermarkets",
                "storeFinderId": 2,
                "id": "COL"
            }
        },
        {
            "id": "COL:7717",
            "name": "Coles Tarneit West",
            "phone": "(03) 8754 2700",
            "isTrading": true,
            "address": {
                "state": "VIC",
                "suburb": "Tarneit West",
                "addressLine": "Tarneit Rd & Hogans Rd",
                "postcode": "3029"
            },
            "position": {
                "latitude": -37.860557,
                "longitude": 144.666648
            },
            "brand": {
                "name": "Coles Supermarkets",
                "storeFinderId": 2,
                "id": "COL"
            }
        },
        {
            "id": "COL:7619",
            "name": "Coles Melton South (station Square)",
            "phone": "(03) 8871 0700",
            "isTrading": true,
            "address": {
                "state": "VIC",
                "suburb": "Melton South",
                "addressLine": "11 - 25 Station Rd",
                "postcode": "3338"
            },
            "position": {
                "latitude": -37.70193,
                "longitude": 144.573223
            },
            "brand": {
                "name": "Coles Supermarkets",
                "storeFinderId": 2,
                "id": "COL"
            }
        },
        {
            "id": "COL:7718",
            "name": "Coles Hoppers Crossing",
            "phone": "(03) 8754 6500",
            "isTrading": true,
            "address": {
                "state": "VIC",
                "suburb": "Hoppers Crossing",
                "addressLine": "50 Old Geelong Road",
                "postcode": "3029"
            },
            "position": {
                "latitude": -37.881655,
                "longitude": 144.70061
            },
            "brand": {
                "name": "Coles Supermarkets",
                "storeFinderId": 2,
                "id": "COL"
            }
        },
        {
            "id": "COL:537",
            "name": "Coles Point Cook",
            "phone": "(03) 9394 2300",
            "isTrading": true,
            "address": {
                "state": "VIC",
                "suburb": "Point Cook",
                "addressLine": "5 Main St",
                "postcode": "3030"
            },
            "position": {
                "latitude": -37.88437,
                "longitude": 144.734392
            },
            "brand": {
                "name": "Coles Supermarkets",
                "storeFinderId": 2,
                "id": "COL"
            }
        },
        {
            "id": "COL:527",
            "name": "Coles Wyndham Village",
            "phone": "(03) 8744 4500",
            "isTrading": true,
            "address": {
                "state": "VIC",
                "suburb": "Tarneit",
                "addressLine": "Sayers Rd & Morris Rd",
                "postcode": "3029"
            },
            "position": {
                "latitude": -37.849327,
                "longitude": 144.703915
            },
            "brand": {
                "name": "Coles Supermarkets",
                "storeFinderId": 2,
                "id": "COL"
            }
        },
        {
            "id": "COL:516",
            "name": "Coles Sanctuary Lakes",
            "phone": "(03) 8366 7900",
            "isTrading": true,
            "address": {
                "state": "VIC",
                "suburb": "Point Cook",
                "addressLine": "Cnr Point Cook Rd & Jamieson Wy",
                "postcode": "3030"
            },
            "position": {
                "latitude": -37.895387,
                "longitude": 144.752635
            },
            "brand": {
                "name": "Coles Supermarkets",
                "storeFinderId": 2,
                "id": "COL"
            }
        },
        {
            "id": "COL:5802",
            "name": "Coles Tarneit Central",
            "phone": "(03) 8065 6800",
            "isTrading": true,
            "address": {
                "state": "VIC",
                "suburb": "Tarneit",
                "addressLine": "Corner Leakes Rd & Derrimut Rd",
                "postcode": "3029"
            },
            "position": {
                "latitude": -37.835108,
                "longitude": 144.691704
            },
            "brand": {
                "name": "Coles Supermarkets",
                "storeFinderId": 2,
                "id": "COL"
            }
        },
        {
            "id": "COL:641",
            "name": "Coles Sandringham",
            "phone": "(03) 9136 6900",
            "isTrading": true,
            "address": {
                "state": "VIC",
                "suburb": "Sandringham",
                "addressLine": "Cnr Waltham & Abbott Sts",
                "postcode": "3191"
            },
            "position": {
                "latitude": -37.948962,
                "longitude": 145.002129
            },
            "brand": {
                "name": "Coles Supermarkets",
                "storeFinderId": 2,
                "id": "COL"
            }
        },
        {
            "id": "COL:546",
            "name": "Coles Mentone",
            "phone": "(03) 7505 7800",
            "isTrading": true,
            "address": {
                "state": "VIC",
                "suburb": "Mentone",
                "addressLine": "Mentone Pde & Brindisi St",
                "postcode": "3194"
            },
            "position": {
                "latitude": -37.984277,
                "longitude": 145.063872
            },
            "brand": {
                "name": "Coles Supermarkets",
                "storeFinderId": 2,
                "id": "COL"
            }
        },
        {
            "id": "COL:669",
            "name": "Coles Southland",
            "phone": "(03) 9239 6100",
            "isTrading": true,
            "address": {
                "state": "VIC",
                "suburb": "Cheltenham",
                "addressLine": "1239 Nepean Hwy",
                "postcode": "3192"
            },
            "position": {
                "latitude": -37.958863,
                "longitude": 145.050855
            },
            "brand": {
                "name": "Coles Supermarkets",
                "storeFinderId": 2,
                "id": "COL"
            }
        },
        {
            "id": "COL:7787",
            "name": "Coles Hampton (bluff Road)",
            "phone": "(03) 9598 8744",
            "isTrading": true,
            "address": {
                "state": "VIC",
                "suburb": "Hampton",
                "addressLine": "361 Bluff Road",
                "postcode": "3188"
            },
            "position": {
                "latitude": -37.945539,
                "longitude": 145.021933
            },
            "brand": {
                "name": "Coles Supermarkets",
                "storeFinderId": 2,
                "id": "COL"
            }
        },
        {
            "id": "COL:656",
            "name": "Coles Local Brighton",
            "phone": "(03) 7032 0100",
            "isTrading": true,
            "address": {
                "state": "VIC",
                "suburb": "Brighton",
                "addressLine": "26 - 34 Church St",
                "postcode": "3186"
            },
            "position": {
                "latitude": -37.913171,
                "longitude": 144.992445
            },
            "brand": {
                "name": "Coles Supermarkets",
                "storeFinderId": 2,
                "id": "COL"
            }
        },
        {
            "id": "COL:595",
            "name": "Coles Bentleigh",
            "phone": "(03) 9084 2700",
            "isTrading": true,
            "address": {
                "state": "VIC",
                "suburb": "Bentleigh",
                "addressLine": "5-7 Vickery St",
                "postcode": "3204"
            },
            "position": {
                "latitude": -37.91744,
                "longitude": 145.038299
            },
            "brand": {
                "name": "Coles Supermarkets",
                "storeFinderId": 2,
                "id": "COL"
            }
        },
        {
            "id": "COL:7819",
            "name": "Coles Brighton - Bay Street",
            "phone": "(03) 9591 6700",
            "isTrading": true,
            "address": {
                "state": "VIC",
                "suburb": "Brighton",
                "addressLine": "380 Bay St",
                "postcode": "3186"
            },
            "position": {
                "latitude": -37.906173,
                "longitude": 145.005011
            },
            "brand": {
                "name": "Coles Supermarkets",
                "storeFinderId": 2,
                "id": "COL"
            }
        },
        {
            "id": "COL:7757",
            "name": "Coles Elsternwick",
            "phone": "(03) 9084 7600",
            "isTrading": true,
            "address": {
                "state": "VIC",
                "suburb": "Elsternwick",
                "addressLine": "445-457 Glen Huntly Rd",
                "postcode": "3185"
            },
            "position": {
                "latitude": -37.884799,
                "longitude": 145.006871
            },
            "brand": {
                "name": "Coles Supermarkets",
                "storeFinderId": 2,
                "id": "COL"
            }
        },
        {
            "id": "COL:536",
            "name": "Coles Clayton (centre Rd)",
            "phone": "(03) 7505 8100",
            "isTrading": true,
            "address": {
                "state": "VIC",
                "suburb": "Clayton",
                "addressLine": "Centre Rd & Cooke St",
                "postcode": "3168"
            },
            "position": {
                "latitude": -37.928042,
                "longitude": 145.118153
            },
            "brand": {
                "name": "Coles Supermarkets",
                "storeFinderId": 2,
                "id": "COL"
            }
        },
        {
            "id": "COL:581",
            "name": "Coles Clayton",
            "phone": "(03) 9543 5393",
            "isTrading": true,
            "address": {
                "state": "VIC",
                "suburb": "Clayton",
                "addressLine": "2-4 Cooke St",
                "postcode": "3168"
            },
            "position": {
                "latitude": -37.925811,
                "longitude": 145.118628
            },
            "brand": {
                "name": "Coles Supermarkets",
                "storeFinderId": 2,
                "id": "COL"
            }
        },
        {
            "id": "COL:645",
            "name": "Coles Oakleigh",
            "phone": "(03) 7039 8200",
            "isTrading": true,
            "address": {
                "state": "VIC",
                "suburb": "Oakleigh",
                "addressLine": "Hanover St & Portman St",
                "postcode": "3166"
            },
            "position": {
                "latitude": -37.901049,
                "longitude": 145.090527
            },
            "brand": {
                "name": "Coles Supermarkets",
                "storeFinderId": 2,
                "id": "COL"
            }
        },
        {
            "id": "COL:7724",
            "name": "Coles Caulfield Village",
            "phone": "(03) 9056 0000",
            "isTrading": true,
            "address": {
                "state": "VIC",
                "suburb": "Caulfield",
                "addressLine": "5-17 Normanby Rd",
                "postcode": "3161"
            },
            "position": {
                "latitude": -37.876268,
                "longitude": 145.038607
            },
            "brand": {
                "name": "Coles Supermarkets",
                "storeFinderId": 2,
                "id": "COL"
            }
        },
        {
            "id": "COL:643",
            "name": "Coles Chadstone",
            "phone": "(03) 8580 8800",
            "isTrading": true,
            "address": {
                "state": "VIC",
                "suburb": "Chadstone",
                "addressLine": "1341 Dandenong Road",
                "postcode": "3145"
            },
            "position": {
                "latitude": -37.885607,
                "longitude": 145.084553
            },
            "brand": {
                "name": "Coles Supermarkets",
                "storeFinderId": 2,
                "id": "COL"
            }
        },
        {
            "id": "COL:625",
            "name": "Coles Parkmore",
            "phone": "(03) 8769 1700",
            "isTrading": true,
            "address": {
                "state": "VIC",
                "suburb": "Keysborough",
                "addressLine": "Cheltenham Rd & Kingsclere Ave",
                "postcode": "3173"
            },
            "position": {
                "latitude": -37.992299,
                "longitude": 145.171965
            },
            "brand": {
                "name": "Coles Supermarkets",
                "storeFinderId": 2,
                "id": "COL"
            }
        },
        {
            "id": "COL:571",
            "name": "Coles Balaclava",
            "phone": "(03) 7031 4900",
            "isTrading": true,
            "address": {
                "state": "VIC",
                "suburb": "Balaclava",
                "addressLine": "Camden St & Alfred St",
                "postcode": "3183"
            },
            "position": {
                "latitude": -37.867836,
                "longitude": 144.991887
            },
            "brand": {
                "name": "Coles Supermarkets",
                "storeFinderId": 2,
                "id": "COL"
            }
        },
        {
            "id": "COL:668",
            "name": "Coles Local St Kilda",
            "phone": "(03) 8863 2500",
            "isTrading": true,
            "address": {
                "state": "VIC",
                "suburb": "St Kilda",
                "addressLine": "183 - 187 Barkly St",
                "postcode": "3182"
            },
            "position": {
                "latitude": -37.868378,
                "longitude": 144.980839
            },
            "brand": {
                "name": "Coles Supermarkets",
                "storeFinderId": 2,
                "id": "COL"
            }
        },
        {
            "id": "COL:681",
            "name": "Coles Springvale",
            "phone": "(03) 7501 8200",
            "isTrading": true,
            "address": {
                "state": "VIC",
                "suburb": "Springvale",
                "addressLine": "825 Dandenong Rd",
                "postcode": "3171"
            },
            "position": {
                "latitude": -37.934984,
                "longitude": 145.156436
            },
            "brand": {
                "name": "Coles Supermarkets",
                "storeFinderId": 2,
                "id": "COL"
            }
        },
        {
            "id": "COL:549",
            "name": "Coles Noble Park",
            "phone": "(03) 7501 2500",
            "isTrading": true,
            "address": {
                "state": "VIC",
                "suburb": "Noble Park",
                "addressLine": "1 Douglas St",
                "postcode": "3174"
            },
            "position": {
                "latitude": -37.965549,
                "longitude": 145.17273
            },
            "brand": {
                "name": "Coles Supermarkets",
                "storeFinderId": 2,
                "id": "COL"
            }
        },
        {
            "id": "COL:7574",
            "name": "Coles Chadstone Village",
            "phone": "(03) 7005 6900",
            "isTrading": true,
            "address": {
                "state": "VIC",
                "suburb": "Ashwood",
                "addressLine": "Warrigal Rd",
                "postcode": "3148"
            },
            "position": {
                "latitude": -37.879799,
                "longitude": 145.091457
            },
            "brand": {
                "name": "Coles Supermarkets",
                "storeFinderId": 2,
                "id": "COL"
            }
        },
        {
            "id": "COL:575",
            "name": "Coles Malvern",
            "phone": "(03) 9508 0200",
            "isTrading": true,
            "address": {
                "state": "VIC",
                "suburb": "Malvern",
                "addressLine": "164-178 Glenferrie Rd",
                "postcode": "3144"
            },
            "position": {
                "latitude": -37.860157,
                "longitude": 145.029131
            },
            "brand": {
                "name": "Coles Supermarkets",
                "storeFinderId": 2,
                "id": "COL"
            }
        },
        {
            "id": "COL:573",
            "name": "Coles Prahran",
            "phone": "(03) 9055 7600",
            "isTrading": true,
            "address": {
                "state": "VIC",
                "suburb": "Prahran",
                "addressLine": "303 Chapel St",
                "postcode": "3181"
            },
            "position": {
                "latitude": -37.848054,
                "longitude": 144.993
            },
            "brand": {
                "name": "Coles Supermarkets",
                "storeFinderId": 2,
                "id": "COL"
            }
        },
        {
            "id": "COL:504",
            "name": "Coles Pinewood",
            "phone": "(03) 8863 5800",
            "isTrading": true,
            "address": {
                "state": "VIC",
                "suburb": "Mount Waverley",
                "addressLine": "433 Blackburn Rd",
                "postcode": "3149"
            },
            "position": {
                "latitude": -37.891544,
                "longitude": 145.143489
            },
            "brand": {
                "name": "Coles Supermarkets",
                "storeFinderId": 2,
                "id": "COL"
            }
        },
        {
            "id": "COL:540",
            "name": "Coles Brandon Park",
            "phone": "(03) 8565 8300",
            "isTrading": true,
            "address": {
                "state": "VIC",
                "suburb": "Mulgrave",
                "addressLine": "Ferntree Gully & Springvale Rds",
                "postcode": "3150"
            },
            "position": {
                "latitude": -37.90486,
                "longitude": 145.161892
            },
            "brand": {
                "name": "Coles Supermarkets",
                "storeFinderId": 2,
                "id": "COL"
            }
        },
        {
            "id": "COL:507",
            "name": "Coles Tooronga",
            "phone": "(03) 8823 6300",
            "isTrading": true,
            "address": {
                "state": "VIC",
                "suburb": "Glen Iris",
                "addressLine": "Cnr Tooronga Rd & Toorak Rd",
                "postcode": "3146"
            },
            "position": {
                "latitude": -37.846191,
                "longitude": 145.045472
            },
            "brand": {
                "name": "Coles Supermarkets",
                "storeFinderId": 2,
                "id": "COL"
            }
        },
        {
            "id": "COL:7723",
            "name": "Unknown Supermarket Coles Ssc",
            "phone": "(03) 8823 6300",
            "isTrading": false,
            "address": {
                "state": "VIC",
                "suburb": "Hawthorn East",
                "addressLine": "800 Tooronga Rd",
                "postcode": "3123"
            },
            "position": {
                "latitude": -37.845629,
                "longitude": 145.048292
            },
            "brand": {
                "name": "Coles Supermarkets",
                "storeFinderId": 2,
                "id": "COL"
            }
        },
        {
            "id": "COL:7670",
            "name": "Coles Local Toorak Village",
            "phone": "(03) 7039 0700",
            "isTrading": true,
            "address": {
                "state": "VIC",
                "suburb": "Toorak",
                "addressLine": "507 Toorak Road",
                "postcode": "3142"
            },
            "position": {
                "latitude": -37.84098,
                "longitude": 145.0095
            },
            "brand": {
                "name": "Coles Supermarkets",
                "storeFinderId": 2,
                "id": "COL"
            }
        },
        {
            "id": "COL:7716",
            "name": "Coles Hallam",
            "phone": "(03) 8795 1400",
            "isTrading": true,
            "address": {
                "state": "VIC",
                "suburb": "Hallam",
                "addressLine": "2 Princes Domain Dr",
                "postcode": "3803"
            },
            "position": {
                "latitude": -38.004963,
                "longitude": 145.266652
            },
            "brand": {
                "name": "Coles Supermarkets",
                "storeFinderId": 2,
                "id": "COL"
            }
        },
        {
            "id": "COL:651",
            "name": "Coles Endeavour Hills",
            "phone": "(03) 8906 4200",
            "isTrading": true,
            "address": {
                "state": "VIC",
                "suburb": "Endeavour Hills",
                "addressLine": "Matthew Flinders Av & Heatherton Rd",
                "postcode": "3802"
            },
            "position": {
                "latitude": -37.977609,
                "longitude": 145.258351
            },
            "brand": {
                "name": "Coles Supermarkets",
                "storeFinderId": 2,
                "id": "COL"
            }
        },
        {
            "id": "COL:4164",
            "name": "Coles Mambourin",
            "phone": null,
            "isTrading": false,
            "address": {
                "state": "VIC",
                "suburb": "Mambourin",
                "addressLine": "M 1/72 Koodya Street",
                "postcode": "3024"
            },
            "position": {
                "latitude": -37.979156,
                "longitude": 145.241913
            },
            "brand": {
                "name": "Coles Supermarkets",
                "storeFinderId": 2,
                "id": "COL"
            }
        },
        {
            "id": "COL:528",
            "name": "Coles Ferntree Gully",
            "phone": "(03) 8706 1300",
            "isTrading": true,
            "address": {
                "state": "VIC",
                "suburb": "Ferntree Gully",
                "addressLine": "Ferntree Gully Rd & Burwood Hwy",
                "postcode": "3156"
            },
            "position": {
                "latitude": -37.883397,
                "longitude": 145.275039
            },
            "brand": {
                "name": "Coles Supermarkets",
                "storeFinderId": 2,
                "id": "COL"
            }
        },
        {
            "id": "COL:601",
            "name": "Coles Boronia",
            "phone": "(03) 9139 9700",
            "isTrading": true,
            "address": {
                "state": "VIC",
                "suburb": "Boronia",
                "addressLine": "Floriston Rd & Chandler Rd",
                "postcode": "3155"
            },
            "position": {
                "latitude": -37.861271,
                "longitude": 145.28723
            },
            "brand": {
                "name": "Coles Supermarkets",
                "storeFinderId": 2,
                "id": "COL"
            }
        },
        {
            "id": "COL:697",
            "name": "Coles Stud Park",
            "phone": "(03) 7024 3200",
            "isTrading": true,
            "address": {
                "state": "VIC",
                "suburb": "Rowville",
                "addressLine": "Stud Rd & Fulham Rd",
                "postcode": "3178"
            },
            "position": {
                "latitude": -37.920143,
                "longitude": 145.236723
            },
            "brand": {
                "name": "Coles Supermarkets",
                "storeFinderId": 2,
                "id": "COL"
            }
        },
        {
            "id": "COL:660",
            "name": "Coles Dandenong Plaza",
            "phone": "(03) 9791 9700",
            "isTrading": true,
            "address": {
                "state": "VIC",
                "suburb": "Dandenong",
                "addressLine": "Walker St",
                "postcode": "3175"
            },
            "position": {
                "latitude": -37.985974,
                "longitude": 145.216738
            },
            "brand": {
                "name": "Coles Supermarkets",
                "storeFinderId": 2,
                "id": "COL"
            }
        },
        {
            "id": "COL:684",
            "name": "Coles Dandenong",
            "phone": "(03) 9706 8899",
            "isTrading": true,
            "address": {
                "state": "VIC",
                "suburb": "Dandenong",
                "addressLine": "23-26 Princes Hwy",
                "postcode": "3175"
            },
            "position": {
                "latitude": -37.98311,
                "longitude": 145.213043
            },
            "brand": {
                "name": "Coles Supermarkets",
                "storeFinderId": 2,
                "id": "COL"
            }
        },
        {
            "id": "COL:650",
            "name": "Coles Knox",
            "phone": "(03) 8863 2400",
            "isTrading": true,
            "address": {
                "state": "VIC",
                "suburb": "Wantirna South",
                "addressLine": "425 Burwood Hwy",
                "postcode": "3152"
            },
            "position": {
                "latitude": -37.868302,
                "longitude": 145.240403
            },
            "brand": {
                "name": "Coles Supermarkets",
                "storeFinderId": 2,
                "id": "COL"
            }
        },
        {
            "id": "COL:7804",
            "name": "Coles Bayswater",
            "phone": "(03) 8720 7100",
            "isTrading": true,
            "address": {
                "state": "VIC",
                "suburb": "Bayswater",
                "addressLine": "7 - 13 High Street",
                "postcode": "3153"
            },
            "position": {
                "latitude": -37.842278,
                "longitude": 145.266263
            },
            "brand": {
                "name": "Coles Supermarkets",
                "storeFinderId": 2,
                "id": "COL"
            }
        },
        {
            "id": "COL:662",
            "name": "Coles Lilydale Village",
            "phone": "(03) 9237 1400",
            "isTrading": true,
            "address": {
                "state": "VIC",
                "suburb": "Lilydale",
                "addressLine": "Castella St & Maroondah Hwy",
                "postcode": "3140"
            },
            "position": {
                "latitude": -37.7563,
                "longitude": 145.354398
            },
            "brand": {
                "name": "Coles Supermarkets",
                "storeFinderId": 2,
                "id": "COL"
            }
        },
        {
            "id": "COL:570",
            "name": "Coles Mooroolbark",
            "phone": "(03) 9727 7600",
            "isTrading": true,
            "address": {
                "state": "VIC",
                "suburb": "Mooroolbark",
                "addressLine": "15 Brice Ave",
                "postcode": "3138"
            },
            "position": {
                "latitude": -37.785015,
                "longitude": 145.315022
            },
            "brand": {
                "name": "Coles Supermarkets",
                "storeFinderId": 2,
                "id": "COL"
            }
        },
        {
            "id": "COL:622",
            "name": "Coles Chirnside Park",
            "phone": "(03) 8709 1500",
            "isTrading": true,
            "address": {
                "state": "VIC",
                "suburb": "Chirnside Park",
                "addressLine": "Maroondah Hwy",
                "postcode": "3116"
            },
            "position": {
                "latitude": -37.757005,
                "longitude": 145.313296
            },
            "brand": {
                "name": "Coles Supermarkets",
                "storeFinderId": 2,
                "id": "COL"
            }
        },
        {
            "id": "COL:688",
            "name": "Coles Wangaratta",
            "phone": "(03) 4700 1000",
            "isTrading": true,
            "address": {
                "state": "VIC",
                "suburb": "Wangaratta",
                "addressLine": "Ryley St & Greta Rd",
                "postcode": "3677"
            },
            "position": {
                "latitude": -36.35954,
                "longitude": 146.316597
            },
            "brand": {
                "name": "Coles Supermarkets",
                "storeFinderId": 2,
                "id": "COL"
            }
        },
        {
            "id": "COL:7831",
            "name": "Coles Benalla",
            "phone": "(03) 5771 4300",
            "isTrading": true,
            "address": {
                "state": "VIC",
                "suburb": "Benalla",
                "addressLine": "45 - 49 Carrier St",
                "postcode": "3672"
            },
            "position": {
                "latitude": -36.549906,
                "longitude": 145.985658
            },
            "brand": {
                "name": "Coles Supermarkets",
                "storeFinderId": 2,
                "id": "COL"
            }
        },
        {
            "id": "COL:7618",
            "name": "Coles Kangaroo Flat",
            "phone": "(03) 5446 0300",
            "isTrading": true,
            "address": {
                "state": "VIC",
                "suburb": "Kangaroo Flat",
                "addressLine": "267 - 283 High Street",
                "postcode": "3555"
            },
            "position": {
                "latitude": -36.810106,
                "longitude": 144.240595
            },
            "brand": {
                "name": "Coles Supermarkets",
                "storeFinderId": 2,
                "id": "COL"
            }
        },
        {
            "id": "COL:638",
            "name": "Coles Bendigo",
            "phone": "(03) 4448 4000",
            "isTrading": true,
            "address": {
                "state": "VIC",
                "suburb": "Bendigo",
                "addressLine": "Williamson St & Myer St",
                "postcode": "3550"
            },
            "position": {
                "latitude": -36.761239,
                "longitude": 144.281999
            },
            "brand": {
                "name": "Coles Supermarkets",
                "storeFinderId": 2,
                "id": "COL"
            }
        },
        {
            "id": "COL:7838",
            "name": "Coles Mcivor Rd",
            "phone": "(03) 5443 0833",
            "isTrading": true,
            "address": {
                "state": "VIC",
                "suburb": "East Bendigo",
                "addressLine": "Mcivor Hwy & Michael St",
                "postcode": "3550"
            },
            "position": {
                "latitude": -36.757539,
                "longitude": 144.296101
            },
            "brand": {
                "name": "Coles Supermarkets",
                "storeFinderId": 2,
                "id": "COL"
            }
        },
        {
            "id": "COL:7616",
            "name": "Coles Woodend",
            "phone": "(03) 8539 0700",
            "isTrading": true,
            "address": {
                "state": "VIC",
                "suburb": "Woodend",
                "addressLine": "Main Street",
                "postcode": "3442"
            },
            "position": {
                "latitude": -37.358195,
                "longitude": 144.525689
            },
            "brand": {
                "name": "Coles Supermarkets",
                "storeFinderId": 2,
                "id": "COL"
            }
        },
        {
            "id": "COL:519",
            "name": "Coles Woodgrove",
            "phone": "(03) 7024 3100",
            "isTrading": true,
            "address": {
                "state": "VIC",
                "suburb": "Melton",
                "addressLine": "Western Fwy & Coburns Rd",
                "postcode": "3337"
            },
            "position": {
                "latitude": -37.685701,
                "longitude": 144.565754
            },
            "brand": {
                "name": "Coles Supermarkets",
                "storeFinderId": 2,
                "id": "COL"
            }
        },
        {
            "id": "COL:606",
            "name": "Coles Gisborne",
            "phone": "(03) 8393 7500",
            "isTrading": true,
            "address": {
                "state": "VIC",
                "suburb": "Gisborne",
                "addressLine": "Robertson St & Aitken St",
                "postcode": "3437"
            },
            "position": {
                "latitude": -37.485283,
                "longitude": 144.590268
            },
            "brand": {
                "name": "Coles Supermarkets",
                "storeFinderId": 2,
                "id": "COL"
            }
        },
        {
            "id": "COL:7761",
            "name": "Coles Cobblebank",
            "phone": "(03) 9732 1900",
            "isTrading": true,
            "address": {
                "state": "VIC",
                "suburb": "Toolern",
                "addressLine": "201-243 Ferris Road",
                "postcode": "3338"
            },
            "position": {
                "latitude": -37.714079,
                "longitude": 144.602023
            },
            "brand": {
                "name": "Coles Supermarkets",
                "storeFinderId": 2,
                "id": "COL"
            }
        },
        {
            "id": "COL:7844",
            "name": "Coles Woodlea",
            "phone": "(03) 7031 4800",
            "isTrading": true,
            "address": {
                "state": "VIC",
                "suburb": "Rockbank",
                "addressLine": "Woodlea Devlopment",
                "postcode": "3335"
            },
            "position": {
                "latitude": -37.723305,
                "longitude": 144.670106
            },
            "brand": {
                "name": "Coles Supermarkets",
                "storeFinderId": 2,
                "id": "COL"
            }
        },
        {
            "id": "COL:648",
            "name": "Coles Sunbury",
            "phone": "(03) 9218 3100",
            "isTrading": true,
            "address": {
                "state": "VIC",
                "suburb": "Sunbury",
                "addressLine": "Evans St & Riddell Rd",
                "postcode": "3429"
            },
            "position": {
                "latitude": -37.578197,
                "longitude": 144.729643
            },
            "brand": {
                "name": "Coles Supermarkets",
                "storeFinderId": 2,
                "id": "COL"
            }
        },
        {
            "id": "COL:4045",
            "name": "Coles Romsey",
            "phone": "(03) 8393 7400",
            "isTrading": true,
            "address": {
                "state": "VIC",
                "suburb": "Romsey",
                "addressLine": "51-53 Main St",
                "postcode": "3434"
            },
            "position": {
                "latitude": -37.353956,
                "longitude": 144.742795
            },
            "brand": {
                "name": "Coles Supermarkets",
                "storeFinderId": 2,
                "id": "COL"
            }
        },
        {
            "id": "COL:7841",
            "name": "Coles Taylors Hill",
            "phone": "(03) 8348 3100",
            "isTrading": true,
            "address": {
                "state": "VIC",
                "suburb": "Taylors Hill",
                "addressLine": "Gourlay Rd & Hume Dr",
                "postcode": "3037"
            },
            "position": {
                "latitude": -37.711435,
                "longitude": 144.741333
            },
            "brand": {
                "name": "Coles Supermarkets",
                "storeFinderId": 2,
                "id": "COL"
            }
        },
        {
            "id": "COL:554",
            "name": "Coles Caroline Springs",
            "phone": "(03) 8361 8955",
            "isTrading": true,
            "address": {
                "state": "VIC",
                "suburb": "Caroline Springs",
                "addressLine": "Caroline Springs Blvd & Lake St",
                "postcode": "3023"
            },
            "position": {
                "latitude": -37.732748,
                "longitude": 144.742274
            },
            "brand": {
                "name": "Coles Supermarkets",
                "storeFinderId": 2,
                "id": "COL"
            }
        },
        {
            "id": "COL:7793",
            "name": "Coles Burnside",
            "phone": "(03) 8361 8399",
            "isTrading": true,
            "address": {
                "state": "VIC",
                "suburb": "Burnside",
                "addressLine": "Western Hwy & Westwood Drive",
                "postcode": "3023"
            },
            "position": {
                "latitude": -37.759899,
                "longitude": 144.752938
            },
            "brand": {
                "name": "Coles Supermarkets",
                "storeFinderId": 2,
                "id": "COL"
            }
        },
        {
            "id": "COL:7685",
            "name": "Coles Truganina",
            "phone": "(03) 8366 3500",
            "isTrading": true,
            "address": {
                "state": "VIC",
                "suburb": "Truganina",
                "addressLine": "185 Woods Road",
                "postcode": "3029"
            },
            "position": {
                "latitude": -37.819683,
                "longitude": 144.719735
            },
            "brand": {
                "name": "Coles Supermarkets",
                "storeFinderId": 2,
                "id": "COL"
            }
        },
        {
            "id": "COL:7669",
            "name": "Coles Craigieburn Village",
            "phone": "(03) 7040 0000",
            "isTrading": true,
            "address": {
                "state": "VIC",
                "suburb": "Craigieburn North",
                "addressLine": "330 Brookfield Blvd",
                "postcode": "3064"
            },
            "position": {
                "latitude": -37.573384,
                "longitude": 144.899746
            },
            "brand": {
                "name": "Coles Supermarkets",
                "storeFinderId": 2,
                "id": "COL"
            }
        },
        {
            "id": "COL:7843",
            "name": "Coles Merrifield",
            "phone": "(03) 7031 4700",
            "isTrading": true,
            "address": {
                "state": "VIC",
                "suburb": "Mickleham",
                "addressLine": "200 Donnybrook Rd",
                "postcode": "3064"
            },
            "position": {
                "latitude": -37.536585,
                "longitude": 144.919602
            },
            "brand": {
                "name": "Coles Supermarkets",
                "storeFinderId": 2,
                "id": "COL"
            }
        },
        {
            "id": "COL:608",
            "name": "Coles Greenvale",
            "phone": "(03) 9333 9400",
            "isTrading": true,
            "address": {
                "state": "VIC",
                "suburb": "Greenvale",
                "addressLine": "1 - 11 Greenvale Drv",
                "postcode": "3059"
            },
            "position": {
                "latitude": -37.639278,
                "longitude": 144.881291
            },
            "brand": {
                "name": "Coles Supermarkets",
                "storeFinderId": 2,
                "id": "COL"
            }
        },
        {
            "id": "COL:649",
            "name": "Coles Keilor Downs",
            "phone": "(03) 7032 0200",
            "isTrading": true,
            "address": {
                "state": "VIC",
                "suburb": "Keilor Downs",
                "addressLine": "Taylors Rd",
                "postcode": "3038"
            },
            "position": {
                "latitude": -37.727571,
                "longitude": 144.806532
            },
            "brand": {
                "name": "Coles Supermarkets",
                "storeFinderId": 2,
                "id": "COL"
            }
        },
        {
            "id": "COL:7612",
            "name": "Coles Brimbank",
            "phone": "(03) 9363 9100",
            "isTrading": true,
            "address": {
                "state": "VIC",
                "suburb": "Deer Park",
                "addressLine": "Neale Rd & Station Rd",
                "postcode": "3023"
            },
            "position": {
                "latitude": -37.751877,
                "longitude": 144.775587
            },
            "brand": {
                "name": "Coles Supermarkets",
                "storeFinderId": 2,
                "id": "COL"
            }
        },
        {
            "id": "COL:7611",
            "name": "Coles Craigieburn",
            "phone": "(03) 8358 7200",
            "isTrading": true,
            "address": {
                "state": "VIC",
                "suburb": "Craigieburn",
                "addressLine": "Craigieburn Rd & Windrock Av",
                "postcode": "3064"
            },
            "position": {
                "latitude": -37.592388,
                "longitude": 144.914996
            },
            "brand": {
                "name": "Coles Supermarkets",
                "storeFinderId": 2,
                "id": "COL"
            }
        },
        {
            "id": "COL:558",
            "name": "Coles Cairnlea",
            "phone": "(03) 8357 6200",
            "isTrading": true,
            "address": {
                "state": "VIC",
                "suburb": "Cairnlea",
                "addressLine": "100 Furlong Rd",
                "postcode": "3023"
            },
            "position": {
                "latitude": -37.758278,
                "longitude": 144.790044
            },
            "brand": {
                "name": "Coles Supermarkets",
                "storeFinderId": 2,
                "id": "COL"
            }
        },
        {
            "id": "COL:613",
            "name": "Coles Derrimut Village",
            "phone": "(03) 8361 3400",
            "isTrading": true,
            "address": {
                "state": "VIC",
                "suburb": "Deer Park",
                "addressLine": "Mt Derrimut Rd & Foleys Rd",
                "postcode": "3030"
            },
            "position": {
                "latitude": -37.783701,
                "longitude": 144.771144
            },
            "brand": {
                "name": "Coles Supermarkets",
                "storeFinderId": 2,
                "id": "COL"
            }
        },
        {
            "id": "COL:7703",
            "name": "Coles Roxburgh Park",
            "phone": "(03) 9303 2600",
            "isTrading": true,
            "address": {
                "state": "VIC",
                "suburb": "Roxburgh Park",
                "addressLine": "Somerton Rd",
                "postcode": "3064"
            },
            "position": {
                "latitude": -37.638353,
                "longitude": 144.932392
            },
            "brand": {
                "name": "Coles Supermarkets",
                "storeFinderId": 2,
                "id": "COL"
            }
        },
        {
            "id": "COL:7808",
            "name": "Coles Airport West",
            "phone": "(03) 8318 4700",
            "isTrading": true,
            "address": {
                "state": "VIC",
                "suburb": "Airport West",
                "addressLine": "Louis St & Dromana Ave",
                "postcode": "3042"
            },
            "position": {
                "latitude": -37.714967,
                "longitude": 144.884739
            },
            "brand": {
                "name": "Coles Supermarkets",
                "storeFinderId": 2,
                "id": "COL"
            }
        },
        {
            "id": "COL:569",
            "name": "Coles Broadmeadows",
            "phone": "(03) 9058 6400",
            "isTrading": true,
            "address": {
                "state": "VIC",
                "suburb": "Broadmeadows",
                "addressLine": "1099 - 1169 Pascoe Vale Rd",
                "postcode": "3047"
            },
            "position": {
                "latitude": -37.679676,
                "longitude": 144.919475
            },
            "brand": {
                "name": "Coles Supermarkets",
                "storeFinderId": 2,
                "id": "COL"
            }
        },
        {
            "id": "COL:7778",
            "name": "Coles Wallan",
            "phone": "(03) 8863 7000",
            "isTrading": true,
            "address": {
                "state": "VIC",
                "suburb": "Wallan",
                "addressLine": "Queen St & Northern Hwy",
                "postcode": "3756"
            },
            "position": {
                "latitude": -37.411507,
                "longitude": 144.978235
            },
            "brand": {
                "name": "Coles Supermarkets",
                "storeFinderId": 2,
                "id": "COL"
            }
        },
        {
            "id": "COL:7771",
            "name": "Coles Aurora Village",
            "phone": "(03) 8535 4000",
            "isTrading": true,
            "address": {
                "state": "VIC",
                "suburb": "Epping North",
                "addressLine": "315a Harvest Home Road",
                "postcode": "3076"
            },
            "position": {
                "latitude": -37.621393,
                "longitude": 145.006511
            },
            "brand": {
                "name": "Coles Supermarkets",
                "storeFinderId": 2,
                "id": "COL"
            }
        },
        {
            "id": "COL:7762",
            "name": "Coles Mernda",
            "phone": "(03) 9085 7200",
            "isTrading": true,
            "address": {
                "state": "VIC",
                "suburb": "Mernda",
                "addressLine": "Corner Plenty Rd And Bridge Inn Road",
                "postcode": "3754"
            },
            "position": {
                "latitude": -37.599822,
                "longitude": 145.094945
            },
            "brand": {
                "name": "Coles Supermarkets",
                "storeFinderId": 2,
                "id": "COL"
            }
        },
        {
            "id": "COL:7705",
            "name": "Coles Mill Park Lakes",
            "phone": "(03) 9407 3600",
            "isTrading": true,
            "address": {
                "state": "VIC",
                "suburb": "South Morang",
                "addressLine": "The Lakes Blvd & Gordons Rd",
                "postcode": "3752"
            },
            "position": {
                "latitude": -37.629417,
                "longitude": 145.078603
            },
            "brand": {
                "name": "Coles Supermarkets",
                "storeFinderId": 2,
                "id": "COL"
            }
        },
        {
            "id": "COL:654",
            "name": "Coles Epping",
            "phone": "(03) 8468 3000",
            "isTrading": true,
            "address": {
                "state": "VIC",
                "suburb": "Epping",
                "addressLine": "High St & Cooper St",
                "postcode": "3076"
            },
            "position": {
                "latitude": -37.654365,
                "longitude": 145.018803
            },
            "brand": {
                "name": "Coles Supermarkets",
                "storeFinderId": 2,
                "id": "COL"
            }
        },
        {
            "id": "COL:685",
            "name": "Coles Plenty Valley",
            "phone": "(03) 8437 4100",
            "isTrading": true,
            "address": {
                "state": "VIC",
                "suburb": "Mill Park",
                "addressLine": "Mcdonalds Rd & Civic Drv",
                "postcode": "3082"
            },
            "position": {
                "latitude": -37.650857,
                "longitude": 145.068716
            },
            "brand": {
                "name": "Coles Supermarkets",
                "storeFinderId": 2,
                "id": "COL"
            }
        },
        {
            "id": "COL:604",
            "name": "Coles Lalor",
            "phone": "(03) 9465 5511",
            "isTrading": true,
            "address": {
                "state": "VIC",
                "suburb": "Lalor",
                "addressLine": "47-71 May Rd",
                "postcode": "3075"
            },
            "position": {
                "latitude": -37.672842,
                "longitude": 145.017063
            },
            "brand": {
                "name": "Coles Supermarkets",
                "storeFinderId": 2,
                "id": "COL"
            }
        },
        {
            "id": "COL:7786",
            "name": "Coles Lalor Plaza",
            "phone": "(03) 9466 1511",
            "isTrading": true,
            "address": {
                "state": "VIC",
                "suburb": "Lalor",
                "addressLine": "Mckimmies Rd & Darebin Dr",
                "postcode": "3075"
            },
            "position": {
                "latitude": -37.675146,
                "longitude": 145.035492
            },
            "brand": {
                "name": "Coles Supermarkets",
                "storeFinderId": 2,
                "id": "COL"
            }
        },
        {
            "id": "COL:585",
            "name": "Coles Uni Hill",
            "phone": "(03) 9466 5000",
            "isTrading": true,
            "address": {
                "state": "VIC",
                "suburb": "Bundoora",
                "addressLine": "224 Plenty Rd",
                "postcode": "3083"
            },
            "position": {
                "latitude": -37.682917,
                "longitude": 145.070304
            },
            "brand": {
                "name": "Coles Supermarkets",
                "storeFinderId": 2,
                "id": "COL"
            }
        },
        {
            "id": "COL:550",
            "name": "Coles Campbellfield",
            "phone": "(03) 7005 6800",
            "isTrading": true,
            "address": {
                "state": "VIC",
                "suburb": "Campbellfield",
                "addressLine": "Cnr Sydney & Mahoneys Rds",
                "postcode": "3061"
            },
            "position": {
                "latitude": -37.689083,
                "longitude": 144.959838
            },
            "brand": {
                "name": "Coles Supermarkets",
                "storeFinderId": 2,
                "id": "COL"
            }
        },
        {
            "id": "COL:682",
            "name": "Coles Bundoora",
            "phone": "(03) 7047 1900",
            "isTrading": true,
            "address": {
                "state": "VIC",
                "suburb": "Bundoora",
                "addressLine": "Settlement Rd & Plenty Rd",
                "postcode": "3083"
            },
            "position": {
                "latitude": -37.697275,
                "longitude": 145.057275
            },
            "brand": {
                "name": "Coles Supermarkets",
                "storeFinderId": 2,
                "id": "COL"
            }
        },
        {
            "id": "COL:506",
            "name": "Coles Diamond Creek",
            "phone": "(03) 8468 7100",
            "isTrading": true,
            "address": {
                "state": "VIC",
                "suburb": "Diamond Creek",
                "addressLine": "67 Main Hurstbridge Rd",
                "postcode": "3089"
            },
            "position": {
                "latitude": -37.67396,
                "longitude": 145.158782
            },
            "brand": {
                "name": "Coles Supermarkets",
                "storeFinderId": 2,
                "id": "COL"
            }
        },
        {
            "id": "COL:599",
            "name": "Coles Reservoir",
            "phone": "(03) 9460 1522",
            "isTrading": true,
            "address": {
                "state": "VIC",
                "suburb": "Reservoir",
                "addressLine": "323-325 Spring St",
                "postcode": "3073"
            },
            "position": {
                "latitude": -37.71465,
                "longitude": 145.006537
            },
            "brand": {
                "name": "Coles Supermarkets",
                "storeFinderId": 2,
                "id": "COL"
            }
        },
        {
            "id": "COL:639",
            "name": "Coles Glenroy",
            "phone": "(03) 7040 9700",
            "isTrading": true,
            "address": {
                "state": "VIC",
                "suburb": "Glenroy",
                "addressLine": "Glenroy Rd & Morgan Crt",
                "postcode": "3046"
            },
            "position": {
                "latitude": -37.705958,
                "longitude": 144.916244
            },
            "brand": {
                "name": "Coles Supermarkets",
                "storeFinderId": 2,
                "id": "COL"
            }
        },
        {
            "id": "COL:552",
            "name": "Coles Kilmore",
            "phone": "(03) 5742 8200",
            "isTrading": true,
            "address": {
                "state": "VIC",
                "suburb": "Kilmore",
                "addressLine": "Sydney St & Clarke Street",
                "postcode": "3764"
            },
            "position": {
                "latitude": -37.287368,
                "longitude": 144.947717
            },
            "brand": {
                "name": "Coles Supermarkets",
                "storeFinderId": 2,
                "id": "COL"
            }
        },
        {
            "id": "COL:657",
            "name": "Coles Greensborough Plaza",
            "phone": "(03) 9084 2600",
            "isTrading": true,
            "address": {
                "state": "VIC",
                "suburb": "Greensborough",
                "addressLine": "25 Main St",
                "postcode": "3088"
            },
            "position": {
                "latitude": -37.70244,
                "longitude": 145.102789
            },
            "brand": {
                "name": "Coles Supermarkets",
                "storeFinderId": 2,
                "id": "COL"
            }
        },
        {
            "id": "COL:7812",
            "name": "Coles Summerhill",
            "phone": "(03) 9466 0300",
            "isTrading": true,
            "address": {
                "state": "VIC",
                "suburb": "Reservoir",
                "addressLine": "852 Plenty Rd",
                "postcode": "3073"
            },
            "position": {
                "latitude": -37.72474,
                "longitude": 145.028546
            },
            "brand": {
                "name": "Coles Supermarkets",
                "storeFinderId": 2,
                "id": "COL"
            }
        },
        {
            "id": "COL:7919",
            "name": "Coles Coburg North",
            "phone": "(03) 8371 9300",
            "isTrading": true,
            "address": {
                "state": "VIC",
                "suburb": "Coburg North",
                "addressLine": "Gaffney Street",
                "postcode": "3058"
            },
            "position": {
                "latitude": -37.7316,
                "longitude": 144.9503
            },
            "brand": {
                "name": "Coles Supermarkets",
                "storeFinderId": 2,
                "id": "COL"
            }
        },
        {
            "id": "COL:510",
            "name": "Coles Croydon North",
            "phone": "(03) 8709 2700",
            "isTrading": true,
            "address": {
                "state": "VIC",
                "suburb": "Croydon North",
                "addressLine": "Maroondah Hwy & Exeter Rd",
                "postcode": "3136"
            },
            "position": {
                "latitude": -37.771123,
                "longitude": 145.293434
            },
            "brand": {
                "name": "Coles Supermarkets",
                "storeFinderId": 2,
                "id": "COL"
            }
        },
        {
            "id": "COL:630",
            "name": "Coles Croydon",
            "phone": "(03) 7004 7700",
            "isTrading": true,
            "address": {
                "state": "VIC",
                "suburb": "Croydon",
                "addressLine": "Kent Ave & Wicklow Ave",
                "postcode": "3136"
            },
            "position": {
                "latitude": -37.794181,
                "longitude": 145.27852
            },
            "brand": {
                "name": "Coles Supermarkets",
                "storeFinderId": 2,
                "id": "COL"
            }
        },
        {
            "id": "COL:678",
            "name": "Coles Eltham",
            "phone": "(03) 8468 3100",
            "isTrading": true,
            "address": {
                "state": "VIC",
                "suburb": "Eltham",
                "addressLine": "Main Rd & Arthur St",
                "postcode": "3095"
            },
            "position": {
                "latitude": -37.714752,
                "longitude": 145.148747
            },
            "brand": {
                "name": "Coles Supermarkets",
                "storeFinderId": 2,
                "id": "COL"
            }
        },
        {
            "id": "COL:7782",
            "name": "Coles Burntbridge",
            "phone": "(03) 8863 5900",
            "isTrading": true,
            "address": {
                "state": "VIC",
                "suburb": "Ringwood East",
                "addressLine": "434 Maroondah Hwy",
                "postcode": "3136"
            },
            "position": {
                "latitude": -37.796822,
                "longitude": 145.256686
            },
            "brand": {
                "name": "Coles Supermarkets",
                "storeFinderId": 2,
                "id": "COL"
            }
        },
        {
            "id": "COL:524",
            "name": "Coles The Pines",
            "phone": "(03) 8863 2100",
            "isTrading": true,
            "address": {
                "state": "VIC",
                "suburb": "Doncaster East",
                "addressLine": "Blackburn Rd & Reynolds Rd",
                "postcode": "3109"
            },
            "position": {
                "latitude": -37.762709,
                "longitude": 145.16767
            },
            "brand": {
                "name": "Coles Supermarkets",
                "storeFinderId": 2,
                "id": "COL"
            }
        },
        {
            "id": "COL:7881",
            "name": "Coles Eastland",
            "phone": "(03) 8864 4600",
            "isTrading": true,
            "address": {
                "state": "VIC",
                "suburb": "Ringwood",
                "addressLine": "Maroondah Hwy & Warrandyte Rd",
                "postcode": "3134"
            },
            "position": {
                "latitude": -37.81181,
                "longitude": 145.229972
            },
            "brand": {
                "name": "Coles Supermarkets",
                "storeFinderId": 2,
                "id": "COL"
            }
        },
        {
            "id": "COL:637",
            "name": "Coles Ringwood",
            "phone": "(03) 7004 3800",
            "isTrading": true,
            "address": {
                "state": "VIC",
                "suburb": "Ringwood",
                "addressLine": "Maroondah Hwy & New Street",
                "postcode": "3134"
            },
            "position": {
                "latitude": -37.815525,
                "longitude": 145.221674
            },
            "brand": {
                "name": "Coles Supermarkets",
                "storeFinderId": 2,
                "id": "COL"
            }
        },
        {
            "id": "COL:609",
            "name": "Coles Tunstall Square",
            "phone": "(03) 8841 1200",
            "isTrading": true,
            "address": {
                "state": "VIC",
                "suburb": "Donvale",
                "addressLine": "Doncaster Rd & Tunstall Rd",
                "postcode": "3111"
            },
            "position": {
                "latitude": -37.791386,
                "longitude": 145.171702
            },
            "brand": {
                "name": "Coles Supermarkets",
                "storeFinderId": 2,
                "id": "COL"
            }
        },
        {
            "id": "COL:7735",
            "name": "Coles Doncaster",
            "phone": "(03) 9856 1700",
            "isTrading": true,
            "address": {
                "state": "VIC",
                "suburb": "Doncaster",
                "addressLine": "Williamsons Rd & Doncaster Rd",
                "postcode": "3108"
            },
            "position": {
                "latitude": -37.786919,
                "longitude": 145.125737
            },
            "brand": {
                "name": "Coles Supermarkets",
                "storeFinderId": 2,
                "id": "COL"
            }
        },
        {
            "id": "COL:574",
            "name": "Coles Swan Hill",
            "phone": "(03) 5032 3500",
            "isTrading": true,
            "address": {
                "state": "VIC",
                "suburb": "Swan Hill",
                "addressLine": "Beveridge St & Mccrae St",
                "postcode": "3585"
            },
            "position": {
                "latitude": -35.340938,
                "longitude": 143.5582
            },
            "brand": {
                "name": "Coles Supermarkets",
                "storeFinderId": 2,
                "id": "COL"
            }
        },
        {
            "id": "COL:7780",
            "name": "Coles Seymour",
            "phone": "(03) 5785 3700",
            "isTrading": true,
            "address": {
                "state": "VIC",
                "suburb": "Seymour",
                "addressLine": "18 Tallarook St",
                "postcode": "3660"
            },
            "position": {
                "latitude": -37.02388,
                "longitude": 145.133274
            },
            "brand": {
                "name": "Coles Supermarkets",
                "storeFinderId": 2,
                "id": "COL"
            }
        },
        {
            "id": "COL:7749",
            "name": "Coles Riverside Plaza Kialla",
            "phone": "(03) 5823 9000",
            "isTrading": true,
            "address": {
                "state": "VIC",
                "suburb": "Kialla",
                "addressLine": "Goulburn Valley Hwy & Riverview Dr",
                "postcode": "3631"
            },
            "position": {
                "latitude": -36.408729,
                "longitude": 145.392704
            },
            "brand": {
                "name": "Coles Supermarkets",
                "storeFinderId": 2,
                "id": "COL"
            }
        },
        {
            "id": "COL:695",
            "name": "Coles Shepparton",
            "phone": "(03) 5858 8600",
            "isTrading": true,
            "address": {
                "state": "VIC",
                "suburb": "Shepparton",
                "addressLine": "Cnr Vaughan St & Maude St",
                "postcode": "3630"
            },
            "position": {
                "latitude": -36.383052,
                "longitude": 145.401728
            },
            "brand": {
                "name": "Coles Supermarkets",
                "storeFinderId": 2,
                "id": "COL"
            }
        },
        {
            "id": "COL:7684",
            "name": "Coles Cobram",
            "phone": "(03) 5837 6500",
            "isTrading": true,
            "address": {
                "state": "VIC",
                "suburb": "Cobram",
                "addressLine": "4 Cobram-Koonomoo Road",
                "postcode": "3644"
            },
            "position": {
                "latitude": -35.919752,
                "longitude": 145.642036
            },
            "brand": {
                "name": "Coles Supermarkets",
                "storeFinderId": 2,
                "id": "COL"
            }
        },
        {
            "id": "COL:7840",
            "name": "Coles Mildura (fifteenth St)",
            "phone": "(03) 5024 4300",
            "isTrading": true,
            "address": {
                "state": "VIC",
                "suburb": "Mildura",
                "addressLine": "Cnr Sanmateo Av & Fifteenth St",
                "postcode": "3500"
            },
            "position": {
                "latitude": -34.210715,
                "longitude": 142.140237
            },
            "brand": {
                "name": "Coles Supermarkets",
                "storeFinderId": 2,
                "id": "COL"
            }
        },
        {
            "id": "COL:594",
            "name": "Coles Mildura (eighth St)",
            "phone": "(03) 5023 3821",
            "isTrading": true,
            "address": {
                "state": "VIC",
                "suburb": "Mildura",
                "addressLine": "45-65 Lime Avenue",
                "postcode": "3500"
            },
            "position": {
                "latitude": -34.183387,
                "longitude": 142.160164
            },
            "brand": {
                "name": "Coles Supermarkets",
                "storeFinderId": 2,
                "id": "COL"
            }
        },
        {
            "id": "COL:620",
            "name": "Coles Echuca",
            "phone": "(03) 7505 3900",
            "isTrading": true,
            "address": {
                "state": "VIC",
                "suburb": "Echuca",
                "addressLine": "Darling St & Hare St",
                "postcode": "3564"
            },
            "position": {
                "latitude": -36.130605,
                "longitude": 144.749592
            },
            "brand": {
                "name": "Coles Supermarkets",
                "storeFinderId": 2,
                "id": "COL"
            }
        }
    ]
}