{
    "metadata": {
        "number_of_stores": 104,
        "company": "coles",
        "state": "WA",
        "date_scraped": "2025-08-07"
    },
    "stores": [
        {
            "id": "COL:364",
            "name": "Coles Albany",
            "phone": "(08) 9841 2544",
            "isTrading": true,
            "address": {
                "state": "WA",
                "suburb": "Albany",
                "addressLine": "38-56 Albany Hwy",
                "postcode": "6330"
            },
            "position": {
                "latitude": -35.019791,
                "longitude": 117.881678
            },
            "brand": {
                "name": "Coles Supermarkets",
                "storeFinderId": 2,
                "id": "COL"
            }
        },
        {
            "id": "COL:478",
            "name": "Coles Albany (orana)",
            "phone": "(08) 6819 7100",
            "isTrading": true,
            "address": {
                "state": "WA",
                "suburb": "Orana",
                "addressLine": "Albany Hwy",
                "postcode": "6330"
            },
            "position": {
                "latitude": -34.992323,
                "longitude": 117.856097
            },
            "brand": {
                "name": "Coles Supermarkets",
                "storeFinderId": 2,
                "id": "COL"
            }
        },
        {
            "id": "COL:388",
            "name": "Coles Manjimup",
            "phone": "(08) 9771 1744",
            "isTrading": true,
            "address": {
                "state": "WA",
                "suburb": "Manjimup",
                "addressLine": "Rose St & Ipsen St",
                "postcode": "6258"
            },
            "position": {
                "latitude": -34.242157,
                "longitude": 116.144215
            },
            "brand": {
                "name": "Coles Supermarkets",
                "storeFinderId": 2,
                "id": "COL"
            }
        },
        {
            "id": "COL:310",
            "name": "Coles Margaret River",
            "phone": "(08) 9757 9933",
            "isTrading": true,
            "address": {
                "state": "WA",
                "suburb": "Margaret River",
                "addressLine": "132 Bussell Highway",
                "postcode": "6285"
            },
            "position": {
                "latitude": -33.951776,
                "longitude": 115.073286
            },
            "brand": {
                "name": "Coles Supermarkets",
                "storeFinderId": 2,
                "id": "COL"
            }
        },
        {
            "id": "COL:268",
            "name": "Coles Vasse",
            "phone": "(08) 9730 1800",
            "isTrading": true,
            "address": {
                "state": "WA",
                "suburb": "Vasse",
                "addressLine": "Napoleon Promenade",
                "postcode": "6280"
            },
            "position": {
                "latitude": -33.674076,
                "longitude": 115.250141
            },
            "brand": {
                "name": "Coles Supermarkets",
                "storeFinderId": 2,
                "id": "COL"
            }
        },
        {
            "id": "COL:297",
            "name": "Coles Dunsborough",
            "phone": "(08) 9730 1400",
            "isTrading": true,
            "address": {
                "state": "WA",
                "suburb": "Dunsborough",
                "addressLine": "Dunn Bay Rd & Cape Naturaliste Rds",
                "postcode": "6281"
            },
            "position": {
                "latitude": -33.615835,
                "longitude": 115.105632
            },
            "brand": {
                "name": "Coles Supermarkets",
                "storeFinderId": 2,
                "id": "COL"
            }
        },
        {
            "id": "COL:4836",
            "name": "Coles Busselton",
            "phone": "(08) 6247 6400",
            "isTrading": true,
            "address": {
                "state": "WA",
                "suburb": "Busselton",
                "addressLine": "30 Kent St",
                "postcode": "6280"
            },
            "position": {
                "latitude": -33.651227,
                "longitude": 115.342005
            },
            "brand": {
                "name": "Coles Supermarkets",
                "storeFinderId": 2,
                "id": "COL"
            }
        },
        {
            "id": "COL:291",
            "name": "Coles Busselton",
            "phone": "(08) 9752 1833",
            "isTrading": true,
            "address": {
                "state": "WA",
                "suburb": "Busselton",
                "addressLine": "69 Prince St",
                "postcode": "6280"
            },
            "position": {
                "latitude": -33.650082,
                "longitude": 115.346231
            },
            "brand": {
                "name": "Coles Supermarkets",
                "storeFinderId": 2,
                "id": "COL"
            }
        },
        {
            "id": "COL:7610",
            "name": "Coles Dalyellup",
            "phone": null,
            "isTrading": false,
            "address": {
                "state": "WA",
                "suburb": "Dalyellup",
                "addressLine": "19 PORTOBELLO ROAD",
                "postcode": "6230"
            },
            "position": {
                "latitude": -33.398781,
                "longitude": 115.635582
            },
            "brand": {
                "name": "Coles Supermarkets",
                "storeFinderId": 2,
                "id": "COL"
            }
        },
        {
            "id": "COL:399",
            "name": "Coles South Bunbury",
            "phone": "(08) 9722 4000",
            "isTrading": true,
            "address": {
                "state": "WA",
                "suburb": "Bunbury South",
                "addressLine": "22 Hammersley Dr",
                "postcode": "6230"
            },
            "position": {
                "latitude": -33.359972,
                "longitude": 115.645426
            },
            "brand": {
                "name": "Coles Supermarkets",
                "storeFinderId": 2,
                "id": "COL"
            }
        },
        {
            "id": "COL:339",
            "name": "Coles Bunbury Centrepoint",
            "phone": "(08) 9721 1819",
            "isTrading": true,
            "address": {
                "state": "WA",
                "suburb": "Bunbury",
                "addressLine": "Blair St & Stephen St",
                "postcode": "6230"
            },
            "position": {
                "latitude": -33.325927,
                "longitude": 115.639856
            },
            "brand": {
                "name": "Coles Supermarkets",
                "storeFinderId": 2,
                "id": "COL"
            }
        },
        {
            "id": "COL:493",
            "name": "Coles Eaton Fair",
            "phone": "(08) 9724 3400",
            "isTrading": true,
            "address": {
                "state": "WA",
                "suburb": "Eaton",
                "addressLine": "Corner Eaton Drive & Recreation Drive",
                "postcode": "6232"
            },
            "position": {
                "latitude": -33.318635,
                "longitude": 115.716424
            },
            "brand": {
                "name": "Coles Supermarkets",
                "storeFinderId": 2,
                "id": "COL"
            }
        },
        {
            "id": "COL:327",
            "name": "Coles Australind",
            "phone": "(08) 9797 1204",
            "isTrading": true,
            "address": {
                "state": "WA",
                "suburb": "Australind",
                "addressLine": "Old Coast Rd & Paris Rd",
                "postcode": "6233"
            },
            "position": {
                "latitude": -33.279791,
                "longitude": 115.715067
            },
            "brand": {
                "name": "Coles Supermarkets",
                "storeFinderId": 2,
                "id": "COL"
            }
        },
        {
            "id": "COL:390",
            "name": "Coles Collie",
            "phone": "(08) 9734 1633",
            "isTrading": true,
            "address": {
                "state": "WA",
                "suburb": "Collie",
                "addressLine": "49 Johnston St",
                "postcode": "6225"
            },
            "position": {
                "latitude": -33.357948,
                "longitude": 116.152395
            },
            "brand": {
                "name": "Coles Supermarkets",
                "storeFinderId": 2,
                "id": "COL"
            }
        },
        {
            "id": "COL:7543",
            "name": "Coles Florida",
            "phone": "(08) 9587 5900",
            "isTrading": true,
            "address": {
                "state": "WA",
                "suburb": "Dawesville",
                "addressLine": "71 Dandaragin Drive",
                "postcode": "6211"
            },
            "position": {
                "latitude": -32.630123,
                "longitude": 115.630696
            },
            "brand": {
                "name": "Coles Supermarkets",
                "storeFinderId": 2,
                "id": "COL"
            }
        },
        {
            "id": "COL:293",
            "name": "Coles Pinjarra",
            "phone": "(08) 9531 7800",
            "isTrading": true,
            "address": {
                "state": "WA",
                "suburb": "Pinjarra",
                "addressLine": "George St & James St",
                "postcode": "6208"
            },
            "position": {
                "latitude": -32.628811,
                "longitude": 115.873633
            },
            "brand": {
                "name": "Coles Supermarkets",
                "storeFinderId": 2,
                "id": "COL"
            }
        },
        {
            "id": "COL:396",
            "name": "Coles Narrogin",
            "phone": "(08) 6115 6600",
            "isTrading": true,
            "address": {
                "state": "WA",
                "suburb": "Narrogin",
                "addressLine": "Earl St & Ensign St",
                "postcode": "6312"
            },
            "position": {
                "latitude": -32.932431,
                "longitude": 117.176687
            },
            "brand": {
                "name": "Coles Supermarkets",
                "storeFinderId": 2,
                "id": "COL"
            }
        },
        {
            "id": "COL:348",
            "name": "Coles Erskine",
            "phone": "(08) 9534 8656",
            "isTrading": true,
            "address": {
                "state": "WA",
                "suburb": "Erskine",
                "addressLine": "36 Wattleglen Ave",
                "postcode": "6210"
            },
            "position": {
                "latitude": -32.560682,
                "longitude": 115.688256
            },
            "brand": {
                "name": "Coles Supermarkets",
                "storeFinderId": 2,
                "id": "COL"
            }
        },
        {
            "id": "COL:257",
            "name": "Coles Halls Head",
            "phone": "(08) 9586 5100",
            "isTrading": true,
            "address": {
                "state": "WA",
                "suburb": "Halls Head",
                "addressLine": "14 Guava Way",
                "postcode": "6210"
            },
            "position": {
                "latitude": -32.548663,
                "longitude": 115.702756
            },
            "brand": {
                "name": "Coles Supermarkets",
                "storeFinderId": 2,
                "id": "COL"
            }
        },
        {
            "id": "COL:311",
            "name": "Coles Mandurah Forum",
            "phone": "(08) 9587 5400",
            "isTrading": true,
            "address": {
                "state": "WA",
                "suburb": "Mandurah",
                "addressLine": "Fremantle Rd & Pinjarra Rd",
                "postcode": "6210"
            },
            "position": {
                "latitude": -32.535352,
                "longitude": 115.744328
            },
            "brand": {
                "name": "Coles Supermarkets",
                "storeFinderId": 2,
                "id": "COL"
            }
        },
        {
            "id": "COL:362",
            "name": "Coles Meadow Springs",
            "phone": "(08) 9581 9122",
            "isTrading": true,
            "address": {
                "state": "WA",
                "suburb": "Meadow Springs",
                "addressLine": "Fremantle Rd & Meadow Springs Dr",
                "postcode": "6210"
            },
            "position": {
                "latitude": -32.493561,
                "longitude": 115.746963
            },
            "brand": {
                "name": "Coles Supermarkets",
                "storeFinderId": 2,
                "id": "COL"
            }
        },
        {
            "id": "COL:4796",
            "name": "Coles Lakelands",
            "phone": "(08) 9587 5500",
            "isTrading": true,
            "address": {
                "state": "WA",
                "suburb": "Lakelands",
                "addressLine": "49 Banksiadale Gate",
                "postcode": "6180"
            },
            "position": {
                "latitude": -32.470234,
                "longitude": 115.760763
            },
            "brand": {
                "name": "Coles Supermarkets",
                "storeFinderId": 2,
                "id": "COL"
            }
        },
        {
            "id": "COL:4790",
            "name": "Coles Secret Harbour",
            "phone": "(08) 9557 2500",
            "isTrading": true,
            "address": {
                "state": "WA",
                "suburb": "Secret Harbour",
                "addressLine": "Secret Harbour Boulevard",
                "postcode": "6173"
            },
            "position": {
                "latitude": -32.407243,
                "longitude": 115.757598
            },
            "brand": {
                "name": "Coles Supermarkets",
                "storeFinderId": 2,
                "id": "COL"
            }
        },
        {
            "id": "COL:329",
            "name": "Coles Warnbro",
            "phone": "(08) 9559 8100",
            "isTrading": true,
            "address": {
                "state": "WA",
                "suburb": "Warnbro",
                "addressLine": "Palm Springs Blvd & Warnbro Sound Av",
                "postcode": "6169"
            },
            "position": {
                "latitude": -32.346303,
                "longitude": 115.76277
            },
            "brand": {
                "name": "Coles Supermarkets",
                "storeFinderId": 2,
                "id": "COL"
            }
        },
        {
            "id": "COL:287",
            "name": "Coles Baldivis",
            "phone": "(08) 9523 3000",
            "isTrading": true,
            "address": {
                "state": "WA",
                "suburb": "Baldivis",
                "addressLine": "Safety Bay Rd",
                "postcode": "6171"
            },
            "position": {
                "latitude": -32.333382,
                "longitude": 115.814912
            },
            "brand": {
                "name": "Coles Supermarkets",
                "storeFinderId": 2,
                "id": "COL"
            }
        },
        {
            "id": "COL:370",
            "name": "Coles Rockingham Park",
            "phone": "(08) 9559 8000",
            "isTrading": true,
            "address": {
                "state": "WA",
                "suburb": "Rockingham",
                "addressLine": "Read St & Council Ave",
                "postcode": "6168"
            },
            "position": {
                "latitude": -32.290561,
                "longitude": 115.742287
            },
            "brand": {
                "name": "Coles Supermarkets",
                "storeFinderId": 2,
                "id": "COL"
            }
        },
        {
            "id": "COL:488",
            "name": "Coles Kwinana",
            "phone": "(08) 6399 8800",
            "isTrading": true,
            "address": {
                "state": "WA",
                "suburb": "Casuarina",
                "addressLine": "4 Chisham Avenue &, Cnr Gilmore Ave",
                "postcode": "6167"
            },
            "position": {
                "latitude": -32.245302,
                "longitude": 115.8138
            },
            "brand": {
                "name": "Coles Supermarkets",
                "storeFinderId": 2,
                "id": "COL"
            }
        },
        {
            "id": "COL:4837",
            "name": "Coles Kalgoorlie",
            "phone": "(08) 6016 5100",
            "isTrading": true,
            "address": {
                "state": "WA",
                "suburb": "Kalgoorlie",
                "addressLine": "169-173 Egan St",
                "postcode": "6430"
            },
            "position": {
                "latitude": -30.749945,
                "longitude": 121.472474
            },
            "brand": {
                "name": "Coles Supermarkets",
                "storeFinderId": 2,
                "id": "COL"
            }
        },
        {
            "id": "COL:263",
            "name": "Coles Byford",
            "phone": "(08) 9532 0900",
            "isTrading": true,
            "address": {
                "state": "WA",
                "suburb": "Byford",
                "addressLine": "20 Abernethy Rd",
                "postcode": "6122"
            },
            "position": {
                "latitude": -32.220426,
                "longitude": 116.006227
            },
            "brand": {
                "name": "Coles Supermarkets",
                "storeFinderId": 2,
                "id": "COL"
            }
        },
        {
            "id": "COL:492",
            "name": "Coles Northam",
            "phone": "(08) 9587 5700",
            "isTrading": true,
            "address": {
                "state": "WA",
                "suburb": "Northam",
                "addressLine": "10 Beamish Ave",
                "postcode": "6401"
            },
            "position": {
                "latitude": -31.657483,
                "longitude": 116.67049
            },
            "brand": {
                "name": "Coles Supermarkets",
                "storeFinderId": 2,
                "id": "COL"
            }
        },
        {
            "id": "COL:5809",
            "name": "Coles Stocktake Service WA",
            "phone": "(03) 8754 6500",
            "isTrading": false,
            "address": {
                "state": "WA",
                "suburb": "West Leederville",
                "addressLine": "115 Cambridge St",
                "postcode": "6007"
            },
            "position": {
                "latitude": -37.88219,
                "longitude": 144.70045
            },
            "brand": {
                "name": "Coles Supermarkets",
                "storeFinderId": 2,
                "id": "COL"
            }
        },
        {
            "id": "COL:343",
            "name": "Coles Armadale",
            "phone": "(08) 9399 6888",
            "isTrading": true,
            "address": {
                "state": "WA",
                "suburb": "Armadale",
                "addressLine": "Jull St",
                "postcode": "6112"
            },
            "position": {
                "latitude": -32.152545,
                "longitude": 116.01571
            },
            "brand": {
                "name": "Coles Supermarkets",
                "storeFinderId": 2,
                "id": "COL"
            }
        },
        {
            "id": "COL:345",
            "name": "Coles Kelmscott",
            "phone": "(08) 9396 3200",
            "isTrading": true,
            "address": {
                "state": "WA",
                "suburb": "Kelmscott",
                "addressLine": "Albany Hwy & Gilwell Ave",
                "postcode": "6111"
            },
            "position": {
                "latitude": -32.114027,
                "longitude": 116.014574
            },
            "brand": {
                "name": "Coles Supermarkets",
                "storeFinderId": 2,
                "id": "COL"
            }
        },
        {
            "id": "COL:381",
            "name": "Coles North Armadale",
            "phone": "(08) 9399 2978",
            "isTrading": true,
            "address": {
                "state": "WA",
                "suburb": "Armadale",
                "addressLine": "Champion Dr & Seville Dr",
                "postcode": "6112"
            },
            "position": {
                "latitude": -32.131166,
                "longitude": 116.000648
            },
            "brand": {
                "name": "Coles Supermarkets",
                "storeFinderId": 2,
                "id": "COL"
            }
        },
        {
            "id": "COL:282",
            "name": "Coles Haynes",
            "phone": "(08) 9393 1500",
            "isTrading": true,
            "address": {
                "state": "WA",
                "suburb": "Brookdale",
                "addressLine": "Armadale Rd And Eigth Avenue",
                "postcode": "6112"
            },
            "position": {
                "latitude": -32.147613,
                "longitude": 115.984856
            },
            "brand": {
                "name": "Coles Supermarkets",
                "storeFinderId": 2,
                "id": "COL"
            }
        },
        {
            "id": "COL:330",
            "name": "Coles Mundaring",
            "phone": "(08) 6298 6900",
            "isTrading": true,
            "address": {
                "state": "WA",
                "suburb": "Mundaring",
                "addressLine": "Great Eastern Hwy & Stoneville Rd",
                "postcode": "6073"
            },
            "position": {
                "latitude": -31.901797,
                "longitude": 116.167207
            },
            "brand": {
                "name": "Coles Supermarkets",
                "storeFinderId": 2,
                "id": "COL"
            }
        },
        {
            "id": "COL:384",
            "name": "Coles Gosnells",
            "phone": "(08) 9396 2600",
            "isTrading": true,
            "address": {
                "state": "WA",
                "suburb": "Gosnells",
                "addressLine": "2160 Albany Hwy",
                "postcode": "6110"
            },
            "position": {
                "latitude": -32.069064,
                "longitude": 116.000102
            },
            "brand": {
                "name": "Coles Supermarkets",
                "storeFinderId": 2,
                "id": "COL"
            }
        },
        {
            "id": "COL:494",
            "name": "Coles Beeliar",
            "phone": "(08) 6595 5300",
            "isTrading": true,
            "address": {
                "state": "WA",
                "suburb": "Beeliar",
                "addressLine": "8 Durnin Avenue",
                "postcode": "6164"
            },
            "position": {
                "latitude": -32.12802,
                "longitude": 115.79784
            },
            "brand": {
                "name": "Coles Supermarkets",
                "storeFinderId": 2,
                "id": "COL"
            }
        },
        {
            "id": "COL:394",
            "name": "Coles Kalamunda",
            "phone": "(08) 9293 3099",
            "isTrading": true,
            "address": {
                "state": "WA",
                "suburb": "Kalamunda",
                "addressLine": "Central Rd & Mead St",
                "postcode": "6076"
            },
            "position": {
                "latitude": -31.972943,
                "longitude": 116.059463
            },
            "brand": {
                "name": "Coles Supermarkets",
                "storeFinderId": 2,
                "id": "COL"
            }
        },
        {
            "id": "COL:4838",
            "name": "Coles Southern River East",
            "phone": "(08) 6158 5200",
            "isTrading": true,
            "address": {
                "state": "WA",
                "suburb": "Southern River",
                "addressLine": "Southern River Rd & Holmes St",
                "postcode": "6110"
            },
            "position": {
                "latitude": -32.100433,
                "longitude": 115.965308
            },
            "brand": {
                "name": "Coles Supermarkets",
                "storeFinderId": 2,
                "id": "COL"
            }
        },
        {
            "id": "COL:337",
            "name": "Coles Maddington",
            "phone": "(08) 9459 5033",
            "isTrading": true,
            "address": {
                "state": "WA",
                "suburb": "Maddington",
                "addressLine": "Olga Rd & Attfield St",
                "postcode": "6109"
            },
            "position": {
                "latitude": -32.053377,
                "longitude": 115.978018
            },
            "brand": {
                "name": "Coles Supermarkets",
                "storeFinderId": 2,
                "id": "COL"
            }
        },
        {
            "id": "COL:490",
            "name": "Coles Cockburn Gateway",
            "phone": "(08) 9494 3100",
            "isTrading": true,
            "address": {
                "state": "WA",
                "suburb": "Success",
                "addressLine": "816 Beeliar Drive",
                "postcode": "6164"
            },
            "position": {
                "latitude": -32.132004,
                "longitude": 115.856508
            },
            "brand": {
                "name": "Coles Supermarkets",
                "storeFinderId": 2,
                "id": "COL"
            }
        },
        {
            "id": "COL:353",
            "name": "Coles Forrestfield",
            "phone": "(08) 9396 2800",
            "isTrading": true,
            "address": {
                "state": "WA",
                "suburb": "Forrestfield",
                "addressLine": "20 Strelitzia Ave",
                "postcode": "6058"
            },
            "position": {
                "latitude": -31.987123,
                "longitude": 116.009293
            },
            "brand": {
                "name": "Coles Supermarkets",
                "storeFinderId": 2,
                "id": "COL"
            }
        },
        {
            "id": "COL:294",
            "name": "Coles Southern River",
            "phone": "(08) 9396 3300",
            "isTrading": true,
            "address": {
                "state": "WA",
                "suburb": "Southern River",
                "addressLine": "Ranford Rd & Bristle Ave",
                "postcode": "6110"
            },
            "position": {
                "latitude": -32.105956,
                "longitude": 115.937566
            },
            "brand": {
                "name": "Coles Supermarkets",
                "storeFinderId": 2,
                "id": "COL"
            }
        },
        {
            "id": "COL:398",
            "name": "Coles Swan View",
            "phone": "(08) 6116 6700",
            "isTrading": true,
            "address": {
                "state": "WA",
                "suburb": "Swan View",
                "addressLine": "Gladstone Rd & Marlboro Ave",
                "postcode": "6056"
            },
            "position": {
                "latitude": -31.888515,
                "longitude": 116.046839
            },
            "brand": {
                "name": "Coles Supermarkets",
                "storeFinderId": 2,
                "id": "COL"
            }
        },
        {
            "id": "COL:306",
            "name": "Coles Forest Lakes",
            "phone": "(08) 6185 9300",
            "isTrading": true,
            "address": {
                "state": "WA",
                "suburb": "Thornlie",
                "addressLine": "Forest Lakes Dr & Murdoch Rd",
                "postcode": "6108"
            },
            "position": {
                "latitude": -32.069512,
                "longitude": 115.95054
            },
            "brand": {
                "name": "Coles Supermarkets",
                "storeFinderId": 2,
                "id": "COL"
            }
        },
        {
            "id": "COL:285",
            "name": "Coles High Wycombe",
            "phone": "(08) 6272 8600",
            "isTrading": true,
            "address": {
                "state": "WA",
                "suburb": "High Wycombe",
                "addressLine": "530 Kalamunda Rd",
                "postcode": "6057"
            },
            "position": {
                "latitude": -31.935324,
                "longitude": 116.004731
            },
            "brand": {
                "name": "Coles Supermarkets",
                "storeFinderId": 2,
                "id": "COL"
            }
        },
        {
            "id": "COL:278",
            "name": "Coles Midland",
            "phone": "(08) 6247 0100",
            "isTrading": true,
            "address": {
                "state": "WA",
                "suburb": "Midland",
                "addressLine": "Gt Eastern Hwy & Helena St",
                "postcode": "6056"
            },
            "position": {
                "latitude": -31.889237,
                "longitude": 116.012162
            },
            "brand": {
                "name": "Coles Supermarkets",
                "storeFinderId": 2,
                "id": "COL"
            }
        },
        {
            "id": "COL:7544",
            "name": "Coles Fremantle",
            "phone": "(08) 6232 2000",
            "isTrading": true,
            "address": {
                "state": "WA",
                "suburb": "Fremantle",
                "addressLine": "24 Cantonment St",
                "postcode": "6160"
            },
            "position": {
                "latitude": -32.051875,
                "longitude": 115.746909
            },
            "brand": {
                "name": "Coles Supermarkets",
                "storeFinderId": 2,
                "id": "COL"
            }
        },
        {
            "id": "COL:322",
            "name": "Coles Carousel",
            "phone": "(08) 6112 1300",
            "isTrading": true,
            "address": {
                "state": "WA",
                "suburb": "Cannington",
                "addressLine": "1382 Albany Hwy",
                "postcode": "6107"
            },
            "position": {
                "latitude": -32.021087,
                "longitude": 115.939986
            },
            "brand": {
                "name": "Coles Supermarkets",
                "storeFinderId": 2,
                "id": "COL"
            }
        },
        {
            "id": "COL:262",
            "name": "Coles Caversham",
            "phone": "(08) 6165 5900",
            "isTrading": true,
            "address": {
                "state": "WA",
                "suburb": "Caversham",
                "addressLine": "175 Suffolk St",
                "postcode": "6055"
            },
            "position": {
                "latitude": -31.867661,
                "longitude": 115.96723
            },
            "brand": {
                "name": "Coles Supermarkets",
                "storeFinderId": 2,
                "id": "COL"
            }
        },
        {
            "id": "COL:7545",
            "name": "Coles Hilton",
            "phone": "(08) 6185 6800",
            "isTrading": true,
            "address": {
                "state": "WA",
                "suburb": "Hilton",
                "addressLine": "285 South Street",
                "postcode": "6163"
            },
            "position": {
                "latitude": -32.063715,
                "longitude": 115.781699
            },
            "brand": {
                "name": "Coles Supermarkets",
                "storeFinderId": 2,
                "id": "COL"
            }
        },
        {
            "id": "COL:465",
            "name": "Coles Riverton",
            "phone": "(08) 9253 4100",
            "isTrading": true,
            "address": {
                "state": "WA",
                "suburb": "Parkwood",
                "addressLine": "353-361 High Road",
                "postcode": "6147"
            },
            "position": {
                "latitude": -32.039504,
                "longitude": 115.907317
            },
            "brand": {
                "name": "Coles Supermarkets",
                "storeFinderId": 2,
                "id": "COL"
            }
        },
        {
            "id": "COL:392",
            "name": "Coles Local Mosman Park",
            "phone": "(08) 9230 7600",
            "isTrading": true,
            "address": {
                "state": "WA",
                "suburb": "Mosman Park",
                "addressLine": "50 Harvey St",
                "postcode": "6012"
            },
            "position": {
                "latitude": -32.008696,
                "longitude": 115.761131
            },
            "brand": {
                "name": "Coles Supermarkets",
                "storeFinderId": 2,
                "id": "COL"
            }
        },
        {
            "id": "COL:352",
            "name": "Coles Melville",
            "phone": "(08) 6246 3400",
            "isTrading": true,
            "address": {
                "state": "WA",
                "suburb": "Bicton",
                "addressLine": "388 Canning Hwy",
                "postcode": "6157"
            },
            "position": {
                "latitude": -32.034426,
                "longitude": 115.790702
            },
            "brand": {
                "name": "Coles Supermarkets",
                "storeFinderId": 2,
                "id": "COL"
            }
        },
        {
            "id": "COL:299",
            "name": "Coles Claremont",
            "phone": "(08) 9286 7600",
            "isTrading": true,
            "address": {
                "state": "WA",
                "suburb": "Claremont",
                "addressLine": "Claras Lane & Gugeri St",
                "postcode": "6010"
            },
            "position": {
                "latitude": -31.98223,
                "longitude": 115.779357
            },
            "brand": {
                "name": "Coles Supermarkets",
                "storeFinderId": 2,
                "id": "COL"
            }
        },
        {
            "id": "COL:333",
            "name": "Coles South Lake",
            "phone": "(08) 6399 4600",
            "isTrading": true,
            "address": {
                "state": "WA",
                "suburb": "South Lake",
                "addressLine": "North Lake Rd & Omeo St",
                "postcode": "6164"
            },
            "position": {
                "latitude": -32.106638,
                "longitude": 115.826959
            },
            "brand": {
                "name": "Coles Supermarkets",
                "storeFinderId": 2,
                "id": "COL"
            }
        },
        {
            "id": "COL:391",
            "name": "Coles Kardinya",
            "phone": "(08) 6115 6500",
            "isTrading": true,
            "address": {
                "state": "WA",
                "suburb": "Kardinya",
                "addressLine": "North Lake Rd & South St",
                "postcode": "6163"
            },
            "position": {
                "latitude": -32.068209,
                "longitude": 115.815538
            },
            "brand": {
                "name": "Coles Supermarkets",
                "storeFinderId": 2,
                "id": "COL"
            }
        },
        {
            "id": "COL:358",
            "name": "Coles Southlands",
            "phone": "(08) 6158 5300",
            "isTrading": true,
            "address": {
                "state": "WA",
                "suburb": "Willetton",
                "addressLine": "Burrendah Blvd & Pinetree Gully",
                "postcode": "6155"
            },
            "position": {
                "latitude": -32.057564,
                "longitude": 115.879585
            },
            "brand": {
                "name": "Coles Supermarkets",
                "storeFinderId": 2,
                "id": "COL"
            }
        },
        {
            "id": "COL:4824",
            "name": "Coles Belmont Forum",
            "phone": "(08) 6247 6600",
            "isTrading": true,
            "address": {
                "state": "WA",
                "suburb": "Cloverdale",
                "addressLine": "227 Belmont Avenue",
                "postcode": "6105"
            },
            "position": {
                "latitude": -31.964239,
                "longitude": 115.934088
            },
            "brand": {
                "name": "Coles Supermarkets",
                "storeFinderId": 2,
                "id": "COL"
            }
        },
        {
            "id": "COL:395",
            "name": "Coles Bassendean",
            "phone": "(08) 9261 5100",
            "isTrading": true,
            "address": {
                "state": "WA",
                "suburb": "Bassendean",
                "addressLine": "West Rd",
                "postcode": "6054"
            },
            "position": {
                "latitude": -31.903358,
                "longitude": 115.952885
            },
            "brand": {
                "name": "Coles Supermarkets",
                "storeFinderId": 2,
                "id": "COL"
            }
        },
        {
            "id": "COL:4839",
            "name": "Coles Whiteman Edge",
            "phone": "(08) 6116 7100",
            "isTrading": true,
            "address": {
                "state": "WA",
                "suburb": "Brabham",
                "addressLine": "Corner Youle Dean Road And Partridge Street",
                "postcode": "6055"
            },
            "position": {
                "latitude": -31.83221,
                "longitude": 115.969084
            },
            "brand": {
                "name": "Coles Supermarkets",
                "storeFinderId": 2,
                "id": "COL"
            }
        },
        {
            "id": "COL:485",
            "name": "Coles Ellenbrook",
            "phone": "(08) 9297 0100",
            "isTrading": true,
            "address": {
                "state": "WA",
                "suburb": "Ellenbrook",
                "addressLine": "11 Main St",
                "postcode": "6069"
            },
            "position": {
                "latitude": -31.782793,
                "longitude": 115.968267
            },
            "brand": {
                "name": "Coles Supermarkets",
                "storeFinderId": 2,
                "id": "COL"
            }
        },
        {
            "id": "COL:7680",
            "name": "Coles Yanchep",
            "phone": "(08) 9595 3400",
            "isTrading": true,
            "address": {
                "state": "WA",
                "suburb": "Yanchep",
                "addressLine": "1 Peony Boulevard",
                "postcode": "6035"
            },
            "position": {
                "latitude": -31.550191,
                "longitude": 115.639431
            },
            "brand": {
                "name": "Coles Supermarkets",
                "storeFinderId": 2,
                "id": "COL"
            }
        },
        {
            "id": "COL:4815",
            "name": "Coles Trinity Village",
            "phone": "(08) 9554 0200",
            "isTrading": true,
            "address": {
                "state": "WA",
                "suburb": "Alkimos",
                "addressLine": "Cnr Marmion And Santorini Avenues",
                "postcode": "6038"
            },
            "position": {
                "latitude": -31.6279,
                "longitude": 115.69168
            },
            "brand": {
                "name": "Coles Supermarkets",
                "storeFinderId": 2,
                "id": "COL"
            }
        },
        {
            "id": "COL:290",
            "name": "Coles Brighton",
            "phone": "(08) 9595 3500",
            "isTrading": true,
            "address": {
                "state": "WA",
                "suburb": "Butler",
                "addressLine": "6 Kingsbridge Blvd",
                "postcode": "6036"
            },
            "position": {
                "latitude": -31.649604,
                "longitude": 115.697373
            },
            "brand": {
                "name": "Coles Supermarkets",
                "storeFinderId": 2,
                "id": "COL"
            }
        },
        {
            "id": "COL:375",
            "name": "Coles Ocean Keys",
            "phone": "(08) 6402 4800",
            "isTrading": true,
            "address": {
                "state": "WA",
                "suburb": "Clarkson",
                "addressLine": "Ocean Keys Bvd & Key Largo Drv",
                "postcode": "6030"
            },
            "position": {
                "latitude": -31.690169,
                "longitude": 115.71727
            },
            "brand": {
                "name": "Coles Supermarkets",
                "storeFinderId": 2,
                "id": "COL"
            }
        },
        {
            "id": "COL:371",
            "name": "Coles Local Hillarys",
            "phone": "(08) 6157 5800",
            "isTrading": true,
            "address": {
                "state": "WA",
                "suburb": "Hillarys",
                "addressLine": "110 Flinders Avenue",
                "postcode": "6025"
            },
            "position": {
                "latitude": -31.809315,
                "longitude": 115.743353
            },
            "brand": {
                "name": "Coles Supermarkets",
                "storeFinderId": 2,
                "id": "COL"
            }
        },
        {
            "id": "COL:380",
            "name": "Coles Scarborough",
            "phone": "(08) 9341 6333",
            "isTrading": true,
            "address": {
                "state": "WA",
                "suburb": "Scarborough",
                "addressLine": "West Coast Hwy & Scarborough Beach Rd",
                "postcode": "6019"
            },
            "position": {
                "latitude": -31.894759,
                "longitude": 115.756766
            },
            "brand": {
                "name": "Coles Supermarkets",
                "storeFinderId": 2,
                "id": "COL"
            }
        },
        {
            "id": "COL:489",
            "name": "Coles Whitford",
            "phone": "(08) 9403 1500",
            "isTrading": true,
            "address": {
                "state": "WA",
                "suburb": "Hillarys",
                "addressLine": "Cnr Whitfords Av & Marmion Av",
                "postcode": "6025"
            },
            "position": {
                "latitude": -31.797151,
                "longitude": 115.750274
            },
            "brand": {
                "name": "Coles Supermarkets",
                "storeFinderId": 2,
                "id": "COL"
            }
        },
        {
            "id": "COL:7542",
            "name": "Coles Currambine",
            "phone": "(08) 6402 4700",
            "isTrading": true,
            "address": {
                "state": "WA",
                "suburb": "Currambine",
                "addressLine": "Cnr Currambine And Connolly Drive",
                "postcode": "6028"
            },
            "position": {
                "latitude": -31.726089,
                "longitude": 115.744934
            },
            "brand": {
                "name": "Coles Supermarkets",
                "storeFinderId": 2,
                "id": "COL"
            }
        },
        {
            "id": "COL:336",
            "name": "Coles Beldon",
            "phone": "(08) 9307 8400",
            "isTrading": true,
            "address": {
                "state": "WA",
                "suburb": "Beldon",
                "addressLine": "Ocean Reef Road",
                "postcode": "6027"
            },
            "position": {
                "latitude": -31.7698,
                "longitude": 115.765161
            },
            "brand": {
                "name": "Coles Supermarkets",
                "storeFinderId": 2,
                "id": "COL"
            }
        },
        {
            "id": "COL:205",
            "name": "Coles Karrinyup",
            "phone": "(08) 6116 7000",
            "isTrading": true,
            "address": {
                "state": "WA",
                "suburb": "Karrinyup",
                "addressLine": "Karrinyup Shopping Centre, Karrinyup Road",
                "postcode": "6018"
            },
            "position": {
                "latitude": -31.877585,
                "longitude": 115.77765
            },
            "brand": {
                "name": "Coles Supermarkets",
                "storeFinderId": 2,
                "id": "COL"
            }
        },
        {
            "id": "COL:335",
            "name": "Coles Joondalup",
            "phone": "(08) 9300 7200",
            "isTrading": true,
            "address": {
                "state": "WA",
                "suburb": "Joondalup",
                "addressLine": "Joondalup Drive",
                "postcode": "6027"
            },
            "position": {
                "latitude": -31.74427,
                "longitude": 115.766593
            },
            "brand": {
                "name": "Coles Supermarkets",
                "storeFinderId": 2,
                "id": "COL"
            }
        },
        {
            "id": "COL:302",
            "name": "Coles Local Floreat",
            "phone": "(08) 9285 7600",
            "isTrading": true,
            "address": {
                "state": "WA",
                "suburb": "Floreat Park",
                "addressLine": "1 Howtree Place",
                "postcode": "6014"
            },
            "position": {
                "latitude": -31.937583,
                "longitude": 115.79249
            },
            "brand": {
                "name": "Coles Supermarkets",
                "storeFinderId": 2,
                "id": "COL"
            }
        },
        {
            "id": "COL:298",
            "name": "Coles Innaloo Westfield",
            "phone": "(08) 6185 8600",
            "isTrading": true,
            "address": {
                "state": "WA",
                "suburb": "Innaloo",
                "addressLine": "384 Scarborough Beach Rd",
                "postcode": "6018"
            },
            "position": {
                "latitude": -31.901624,
                "longitude": 115.800342
            },
            "brand": {
                "name": "Coles Supermarkets",
                "storeFinderId": 2,
                "id": "COL"
            }
        },
        {
            "id": "COL:7712",
            "name": "Coles Local Shenton Park",
            "phone": "(08) 6185 9400",
            "isTrading": true,
            "address": {
                "state": "WA",
                "suburb": "Shenton Park",
                "addressLine": "1 Seymour Avenue",
                "postcode": "6008"
            },
            "position": {
                "latitude": -31.955809,
                "longitude": 115.8044
            },
            "brand": {
                "name": "Coles Supermarkets",
                "storeFinderId": 2,
                "id": "COL"
            }
        },
        {
            "id": "COL:270",
            "name": "Coles Subiaco",
            "phone": "(08) 6557 1900",
            "isTrading": true,
            "address": {
                "state": "WA",
                "suburb": "Subiaco",
                "addressLine": "44 Station Street",
                "postcode": "6008"
            },
            "position": {
                "latitude": -31.943728,
                "longitude": 115.823138
            },
            "brand": {
                "name": "Coles Supermarkets",
                "storeFinderId": 2,
                "id": "COL"
            }
        },
        {
            "id": "COL:303",
            "name": "Coles Greenwood",
            "phone": "(08) 9246 6500",
            "isTrading": true,
            "address": {
                "state": "WA",
                "suburb": "Greenwood",
                "addressLine": "Calectasia St",
                "postcode": "6024"
            },
            "position": {
                "latitude": -31.83122,
                "longitude": 115.802572
            },
            "brand": {
                "name": "Coles Supermarkets",
                "storeFinderId": 2,
                "id": "COL"
            }
        },
        {
            "id": "COL:332",
            "name": "Coles Garden City (booragoon)",
            "phone": "(08) 6100 2000",
            "isTrading": true,
            "address": {
                "state": "WA",
                "suburb": "Booragoon",
                "addressLine": "Marmion St & Riseley St",
                "postcode": "6154"
            },
            "position": {
                "latitude": -32.034093,
                "longitude": 115.834215
            },
            "brand": {
                "name": "Coles Supermarkets",
                "storeFinderId": 2,
                "id": "COL"
            }
        },
        {
            "id": "COL:292",
            "name": "Coles West Leederville",
            "phone": "(08) 6380 3100",
            "isTrading": true,
            "address": {
                "state": "WA",
                "suburb": "West Leederville",
                "addressLine": "115 Cambridge St",
                "postcode": "6007"
            },
            "position": {
                "latitude": -31.941067,
                "longitude": 115.833079
            },
            "brand": {
                "name": "Coles Supermarkets",
                "storeFinderId": 2,
                "id": "COL"
            }
        },
        {
            "id": "COL:481",
            "name": "Coles Central Raine Square",
            "phone": "(08) 6112 1400",
            "isTrading": true,
            "address": {
                "state": "WA",
                "suburb": "Perth",
                "addressLine": "William St",
                "postcode": "6000"
            },
            "position": {
                "latitude": -31.951885,
                "longitude": 115.857375
            },
            "brand": {
                "name": "Coles Supermarkets",
                "storeFinderId": 2,
                "id": "COL"
            }
        },
        {
            "id": "COL:340",
            "name": "Coles Victoria Park",
            "phone": "(08) 6112 6300",
            "isTrading": true,
            "address": {
                "state": "WA",
                "suburb": "East Victoria Park",
                "addressLine": "Albany Hwy & Basinghall St",
                "postcode": "6101"
            },
            "position": {
                "latitude": -31.98477,
                "longitude": 115.900977
            },
            "brand": {
                "name": "Coles Supermarkets",
                "storeFinderId": 2,
                "id": "COL"
            }
        },
        {
            "id": "COL:356",
            "name": "Coles Karawara",
            "phone": "(08) 6185 8400",
            "isTrading": true,
            "address": {
                "state": "WA",
                "suburb": "Karawara",
                "addressLine": "Manning St & Kent St",
                "postcode": "6152"
            },
            "position": {
                "latitude": -32.01203,
                "longitude": 115.885773
            },
            "brand": {
                "name": "Coles Supermarkets",
                "storeFinderId": 2,
                "id": "COL"
            }
        },
        {
            "id": "COL:379",
            "name": "Coles Maylands",
            "phone": "(08) 9272 1622",
            "isTrading": true,
            "address": {
                "state": "WA",
                "suburb": "Maylands",
                "addressLine": "Guildford Rd & Caledonian Ave",
                "postcode": "6051"
            },
            "position": {
                "latitude": -31.929561,
                "longitude": 115.897212
            },
            "brand": {
                "name": "Coles Supermarkets",
                "storeFinderId": 2,
                "id": "COL"
            }
        },
        {
            "id": "COL:296",
            "name": "Coles Local Angelo St",
            "phone": "(08) 6436 4500",
            "isTrading": true,
            "address": {
                "state": "WA",
                "suburb": "South Perth",
                "addressLine": "53-55 Angelo St",
                "postcode": "6151"
            },
            "position": {
                "latitude": -31.981019,
                "longitude": 115.862504
            },
            "brand": {
                "name": "Coles Supermarkets",
                "storeFinderId": 2,
                "id": "COL"
            }
        },
        {
            "id": "COL:383",
            "name": "Coles Inglewood",
            "phone": "(08) 9270 4500",
            "isTrading": true,
            "address": {
                "state": "WA",
                "suburb": "Inglewood",
                "addressLine": "83-91 Salisbury Street",
                "postcode": "6052"
            },
            "position": {
                "latitude": -31.916963,
                "longitude": 115.890203
            },
            "brand": {
                "name": "Coles Supermarkets",
                "storeFinderId": 2,
                "id": "COL"
            }
        },
        {
            "id": "COL:363",
            "name": "Coles Beechboro",
            "phone": "(08) 9377 2333",
            "isTrading": true,
            "address": {
                "state": "WA",
                "suburb": "Beechboro",
                "addressLine": "Beechboro Rd & Benara Rd",
                "postcode": "6062"
            },
            "position": {
                "latitude": -31.876428,
                "longitude": 115.925114
            },
            "brand": {
                "name": "Coles Supermarkets",
                "storeFinderId": 2,
                "id": "COL"
            }
        },
        {
            "id": "COL:260",
            "name": "Coles Banksia Grove",
            "phone": "(08) 9406 2800",
            "isTrading": true,
            "address": {
                "state": "WA",
                "suburb": "Banksia Grove",
                "addressLine": "Corner Joondalup Drive & Joseph Banks Boulevard",
                "postcode": "6031"
            },
            "position": {
                "latitude": -31.70578,
                "longitude": 115.80114
            },
            "brand": {
                "name": "Coles Supermarkets",
                "storeFinderId": 2,
                "id": "COL"
            }
        },
        {
            "id": "COL:289",
            "name": "Coles Wanneroo",
            "phone": "(08) 9306 7400",
            "isTrading": true,
            "address": {
                "state": "WA",
                "suburb": "Wanneroo",
                "addressLine": "950 Wanneroo Rd",
                "postcode": "6065"
            },
            "position": {
                "latitude": -31.753612,
                "longitude": 115.805415
            },
            "brand": {
                "name": "Coles Supermarkets",
                "storeFinderId": 2,
                "id": "COL"
            }
        },
        {
            "id": "COL:338",
            "name": "Coles Warwick Grove",
            "phone": "(08) 6157 5900",
            "isTrading": true,
            "address": {
                "state": "WA",
                "suburb": "Warwick",
                "addressLine": "Beach Rd & Ernidale Rd",
                "postcode": "6024"
            },
            "position": {
                "latitude": -31.844623,
                "longitude": 115.810281
            },
            "brand": {
                "name": "Coles Supermarkets",
                "storeFinderId": 2,
                "id": "COL"
            }
        },
        {
            "id": "COL:378",
            "name": "Coles Balcatta",
            "phone": "(08) 6185 7000",
            "isTrading": true,
            "address": {
                "state": "WA",
                "suburb": "Balcatta",
                "addressLine": "Wanneroo Rd & Amelia St",
                "postcode": "6021"
            },
            "position": {
                "latitude": -31.873471,
                "longitude": 115.830422
            },
            "brand": {
                "name": "Coles Supermarkets",
                "storeFinderId": 2,
                "id": "COL"
            }
        },
        {
            "id": "COL:365",
            "name": "Coles Alexander Heights",
            "phone": "(08) 9343 0099",
            "isTrading": true,
            "address": {
                "state": "WA",
                "suburb": "Alexander Heights",
                "addressLine": "Mirrabooka Ave & Griffon Way",
                "postcode": "6064"
            },
            "position": {
                "latitude": -31.830133,
                "longitude": 115.852756
            },
            "brand": {
                "name": "Coles Supermarkets",
                "storeFinderId": 2,
                "id": "COL"
            }
        },
        {
            "id": "COL:314",
            "name": "Coles Mirrabooka",
            "phone": "(08) 6158 4100",
            "isTrading": true,
            "address": {
                "state": "WA",
                "suburb": "Mirrabooka",
                "addressLine": "Yirrigan Dr & Farrier Rd",
                "postcode": "6061"
            },
            "position": {
                "latitude": -31.871165,
                "longitude": 115.862783
            },
            "brand": {
                "name": "Coles Supermarkets",
                "storeFinderId": 2,
                "id": "COL"
            }
        },
        {
            "id": "COL:347",
            "name": "Coles Flinders Square",
            "phone": "(08) 9443 1422",
            "isTrading": true,
            "address": {
                "state": "WA",
                "suburb": "Yokine",
                "addressLine": "Flinders St & Wiluna St",
                "postcode": "6060"
            },
            "position": {
                "latitude": -31.909672,
                "longitude": 115.84857
            },
            "brand": {
                "name": "Coles Supermarkets",
                "storeFinderId": 2,
                "id": "COL"
            }
        },
        {
            "id": "COL:344",
            "name": "Coles Noranda Square",
            "phone": "(08) 6185 7100",
            "isTrading": true,
            "address": {
                "state": "WA",
                "suburb": "Noranda",
                "addressLine": "Benara Rd & Mcgilvray Ave",
                "postcode": "6062"
            },
            "position": {
                "latitude": -31.876106,
                "longitude": 115.895472
            },
            "brand": {
                "name": "Coles Supermarkets",
                "storeFinderId": 2,
                "id": "COL"
            }
        },
        {
            "id": "COL:256",
            "name": "Coles Dianella",
            "phone": "(08) 9267 6700",
            "isTrading": true,
            "address": {
                "state": "WA",
                "suburb": "Dianella",
                "addressLine": "Alexander Drive",
                "postcode": "6059"
            },
            "position": {
                "latitude": -31.895294,
                "longitude": 115.871192
            },
            "brand": {
                "name": "Coles Supermarkets",
                "storeFinderId": 2,
                "id": "COL"
            }
        },
        {
            "id": "COL:334",
            "name": "Coles Galleria",
            "phone": "(08) 6509 6800",
            "isTrading": true,
            "address": {
                "state": "WA",
                "suburb": "Morley",
                "addressLine": "Collier Rd & Walter Rd",
                "postcode": "6062"
            },
            "position": {
                "latitude": -31.896716,
                "longitude": 115.898842
            },
            "brand": {
                "name": "Coles Supermarkets",
                "storeFinderId": 2,
                "id": "COL"
            }
        },
        {
            "id": "COL:350",
            "name": "Coles Geraldton",
            "phone": "(08) 9948 7300",
            "isTrading": true,
            "address": {
                "state": "WA",
                "suburb": "Geraldton",
                "addressLine": "Chapman Rd & View St",
                "postcode": "6530"
            },
            "position": {
                "latitude": -28.766786,
                "longitude": 114.616117
            },
            "brand": {
                "name": "Coles Supermarkets",
                "storeFinderId": 2,
                "id": "COL"
            }
        },
        {
            "id": "COL:328",
            "name": "Coles Tom Price",
            "phone": "(08) 9189 1212",
            "isTrading": true,
            "address": {
                "state": "WA",
                "suburb": "Tom Price",
                "addressLine": "Central Road",
                "postcode": "6751"
            },
            "position": {
                "latitude": -22.693663,
                "longitude": 117.795354
            },
            "brand": {
                "name": "Coles Supermarkets",
                "storeFinderId": 2,
                "id": "COL"
            }
        },
        {
            "id": "COL:385",
            "name": "Coles South Hedland",
            "phone": "(08) 9172 1922",
            "isTrading": true,
            "address": {
                "state": "WA",
                "suburb": "South Hedland",
                "addressLine": "Colebatch Way & Rason Crt",
                "postcode": "6722"
            },
            "position": {
                "latitude": -20.410285,
                "longitude": 118.599876
            },
            "brand": {
                "name": "Coles Supermarkets",
                "storeFinderId": 2,
                "id": "COL"
            }
        },
        {
            "id": "COL:324",
            "name": "Coles Chinatown",
            "phone": "(08) 9193 6299",
            "isTrading": true,
            "address": {
                "state": "WA",
                "suburb": "Broome",
                "addressLine": "Carnarvon St & Short St",
                "postcode": "6725"
            },
            "position": {
                "latitude": -17.952484,
                "longitude": 122.242531
            },
            "brand": {
                "name": "Coles Supermarkets",
                "storeFinderId": 2,
                "id": "COL"
            }
        },
        {
            "id": "COL:313",
            "name": "Coles Karratha",
            "phone": "(08) 9141 9400",
            "isTrading": true,
            "address": {
                "state": "WA",
                "suburb": "Karratha",
                "addressLine": "Welcome Rd",
                "postcode": "6714"
            },
            "position": {
                "latitude": -20.735874,
                "longitude": 116.845832
            },
            "brand": {
                "name": "Coles Supermarkets",
                "storeFinderId": 2,
                "id": "COL"
            }
        },
        {
            "id": "COL:325",
            "name": "Coles Kununurra",
            "phone": "(08) 9118 6100",
            "isTrading": true,
            "address": {
                "state": "WA",
                "suburb": "Kununurra",
                "addressLine": "Konkerberry Drv",
                "postcode": "6743"
            },
            "position": {
                "latitude": -15.775689,
                "longitude": 128.739387
            },
            "brand": {
                "name": "Coles Supermarkets",
                "storeFinderId": 2,
                "id": "COL"
            }
        }
    ]
}